name,st_abbr,city,address,phone,testing_status,lon,lat
SOUTHERN REGION COMM HEALTH CTR,GU,Inarajan,162 Apman Dr,671-828-7501,Yes,144.7546017,13.28261339
NORTHERN REGION COMM HLTH CTR,GU,Dededo,520 W Santa Monica Ave,671-635-4422,Yes,144.8337078,13.52309457
Tinian Isla Community Health,MP,Tinian,520520 Canal Street,670-433-4750,Yes,145.628,15.02000555
KCHC - Kaman II Clinic,MP,Saipan,Lemmai Way,670-256-5248,Yes,145.7775797,15.17901624
Ofu Community Health Center,AS,Pago Pago,Ofu Community Health Center  PO Box 3965,684-655-1176,Yes,-170.747,-14.319
"Tau Community Health Center, Manua",AS,Pago Pago,PO BOX 3965,684-677-3513,Yes,-170.747,-14.319
TAFUNA FAMILY HEALTH CENTER,AS,Tafuna,Petesa Road,684-699-6380,Yes,-170.747,-14.319
Amouli Community Health Center,AS,Pago Pago,"Amouli Village, Department of Health",,Yes,-170.747,-14.319
ASCHC Mobile Medical Van (SUD/MH - Behavioral Health Services),AS,Pago Pago,3965 Petesa Road,684-699-6380,Yes,-170.747,-14.319
Leone Community Health Center,AS,Pago Pago,"Leone Village, Department of Health",,Yes,-170.747,-14.319
Ka'u Family Health and Dental Center,HI,Naalehu,95-5583 Mamalahoa Hwy,808-333-3600,Yes,-155.5830243,19.061233
WHCHC -- Kealakekua Keiki Health,HI,Kealakekua,81-6627 Mamalahoa Hwy Ste 106,808-323-8005,Yes,-155.9205189,19.51575414
WHCHC -- WIC Dental,HI,Kealakekua,81-980 Halekii St,808-322-4888,Yes,-155.921549,19.51852256
Kealakekua Adult Health,HI,Kealakekua,81-980 Halekii St Ste 107,808-326-5629,Yes,-155.921549,19.51852256
West Hawaii Community Health Center -- Kuakini,HI,Kailua Kona,75-5751 Kuakini Hwy Ste 101A,808-326-5629,Yes,-155.9905444,19.63857989
"West Hawaii Community Health Center, Inc. - - Kealakehe",HI,Kailua Kona,74-5214 Keanalehu Dr,808-355-5600,Yes,-155.9936247,19.66656312
Bay Clinic Mobile Health,HI,Pahoa,15-2866 Pahoa Village Rd,808-333-3600,Yes,-154.9488057,19.49510683
Pahoa Women and Children's Health Center,HI,Pahoa,15-2866 Pahoa Village Rd,808-333-3600,Yes,-154.9488057,19.49510683
Pahoa Family Health Center,HI,Pahoa,15-2866 Pahoa Village Rd,808-333-3600,Yes,-154.9488057,19.49510683
Kea'au Family Health and Dental Center,HI,Keaau,16-192 Pili Mua St,808-333-3600,Yes,-155.0396232,19.62037257
Hilo Women's Health Center,HI,Hilo,73 Puuhonu Pl,808-333-3600,Yes,-155.0975252,19.71641355
Hilo Family Health Center,HI,Hilo,1178 Kinoole St,808-333-3600,Yes,-155.079524,19.71030432
Hilo Family Dental Center,HI,Hilo,1257 Kilauea Ave Ste 100,808-333-3600,Yes,-155.0764828,19.71061001
Primary Care Clinic,HI,Hilo,45 Mohouli St,808-935-8484,No,-155.078276,19.71301586
WHCHC Waikoloa Dental,HI,Waikoloa,68-1845 Waikoloa Rd Ste 205,808-769-5160,Yes,-155.7875856,19.92684718
WHCHC - Waikoloa,HI,Waikoloa,68-1845 Waikoloa Rd Ste 207,808-937-6687,Yes,-155.7875856,19.92684718
Hamakua Health Center in Waimea,HI,Kamuela,65-1230 Mamalahoa Hwy Ste C13,808-930-2759,Yes,-155.6709867,20.01890261
Laupahoehoe Community Public Charter School,HI,Laupahoehoe,35-2065 Old Mamalahoa Hwy,808-962-2200,Yes,-155.2264957,19.98037
HAMAKUA HEALTH CENTER,HI,Honokaa,45-549 Plumeria St,808-775-7204,Yes,-155.4706572,20.07613672
Mobile Dental Van,HI,Honokaa,45-549 Plumeria St,808-333-8410,Yes,-155.4706572,20.07613672
KOHALA FAMILY HEALTH CENTER,HI,Kapaau,53-3925 Akoni Pule Hwy,808-889-6236,Yes,-155.7966478,20.23030741
"Hui No K Ola Pono, Inc Hana",HI,Hana,Uakea Rd,808-244-4647,No,-155.9872688,20.75889417
HANA COMMUNITY HEALTH CENTER,HI,Hana,4590 Hana Hwy,808-248-8294,Yes,-155.994035,20.76359986
Community Clinic of Maui KHAO Satellite Clinic,HI,Wailuku,670 Waiale Rd,808-244-0220,Yes,-156.499461,20.87516519
"Hui No Ke Ola Pono, Wailuku site",HI,Wailuku,95 Mahalani St Rm 21,808-244-4647,No,-156.4876592,20.88691674
Temporary Site - For The Community Clinic of Maui,HI,Wailuku,6 Central Ave,808-872-4018,Yes,-156.4999742,20.88835738
Community Clinic of Maui,HI,Wailuku,1881 Nani St,808-871-7772,Yes,-156.4998312,20.88887013
Community Clinic of Maui NHOW Satellite Clinic,HI,Lahaina,15 Ipu Aumakua Ln,808-667-7598,Yes,-156.6698856,20.86925739
Lanai Community Health Center,HI,Lanai City,333 6th St,808-565-6919 x121,Yes,-156.9213491,20.82666822
KAUAI COMMUNITY HEALTH CTR-WEST,HI,Waimea,4643 Waimea Canyon Dr,808-240-0100,Yes,-159.670481,21.95968941
HO'OLA LAHUI HAWAI'I WEST,HI,Waimea,4643 Waimea Canyon Dr,808-240-0130,Yes,-159.670481,21.95968941
HO'OLA LAHUI HAWAI'I,HI,Kapaa,4800 Kawaihau Rd Ste D,808-240-0170,Yes,-159.314114,22.08766736
HO'OLA LAHUI-HAWAII,HI,Lihue,4491 Rice St Ste 106,808-240-0100,Yes,-159.3702181,21.97538352
Hoola Lahui Hawaii Pharmacy,HI,Lihue,4491 Rice St Ste 105A,808-240-0200,Yes,-159.3702181,21.97538352
Waianae High School School-based Health Center,HI,Waianae,85-251 Farrington Hwy,808-697-3457,Yes,-158.1993995,21.45585673
Kamaile Olakino Maika'i Health Center,HI,Waianae,85-180 Ala Akau St,808-697-3496,Yes,-158.195061,21.45646593
Waianae Intermediate School School-based Health Center,HI,Waianae,85-626 Farrington Hwy,808-697-3457,Yes,-158.192333,21.45280698
Waianae Vision Care,HI,Waianae,86-120 Farrington Hwy Ste C301,808-696-7021,Yes,-158.1849057,21.43583723
WAIOLA CLINIC,HI,Waianae,86-120 Farrington Hwy Ste C305A,808-696-4533,Yes,-158.1849057,21.43583723
WAIANAE COAST COMPREHENSIVE HEALTH CTR,HI,Waianae,86-260 Farrington Hwy,808-696-7081,Yes,-158.179486,21.430023
MOBILE SERVICE VAN,HI,Waianae,86-260 Farrington Hwy,808-696-1586,Yes,-158.179486,21.430023
Kahuku,HI,Kahuku,56-119 Pualalea St,808-293-9231,Yes,-157.953504,21.67613001
Mobile Medical & Dental Unit,HI,Kahuku,56-119 Pualalea St,808-293-9231,Yes,-157.953504,21.67613001
Red Raider Health Center,HI,Kahuku,56-490 Kamehameha Hwy,808-293-9231,Yes,-157.947321,21.67635305
LEEWARD PEDIATRICS (dba JAMES AND ABIGAIL CAMPBELL CLINIC),HI,Waianae,87-2070 Farrington Hwy,808-668-2311,Yes,-158.1512475,21.38686441
MALAMA RECOVERY SERVICES,HI,Waianae,89-188 Farrington Hwy,808-668-2277,Yes,-158.1438206,21.37999942
Nanakuli High & Intermediate School,HI,Waianae,89-980 Nanakuli Ave,808-697-3457,Yes,-158.134019,21.38780302
Wahiawa Health - Mobile,HI,Wahiawa,302 California Ave Ste 106,808-622-1618,No,-158.031201,21.49537326
Wahiawa Health,HI,Wahiawa,302 California Ave Ste 106,808-622-1618,No,-158.031201,21.49537326
Wahiawa Health - Nutrition,HI,Wahiawa,302 California Ave Ste 208,808-622-1618,No,-158.031201,21.49537326
Hau`ula,HI,Hauula,54-316 Kamehameha Hwy,808-293-9216,Yes,-157.9155785,21.62016048
West O`ahu Community Health,HI,Kapolei,"599 Farrington Hwy, Ste 208",808-697-3800,Yes,-158.075877,21.33936098
West O`ahu Community Health,HI,Kapolei,599 Farrington Hwy STE 100,808-697-3800,Yes,-158.075877,21.33936098
Waipahu Family Health Center,HI,Waipahu,94-428 Mokuola St Ste 108B,808-676-7233,Yes,-158.006014,21.38766341
Waipahu Family Health Center,HI,Waipahu,94-428 Mokuola St Ste 213,808-697-3839,Yes,-158.005873,21.38722399
Ewa - West O`ahu Community Health Center,HI,Ewa Beach,91-1841 Fort Weaver Rd,808-697-3300,Yes,-158.028754,21.35438051
Living Well - KPHC Central,HI,Pearl City,860 4th St,808-429-0871,Yes,-157.969167,21.39300399
HAUIKI HOMES PUBLIC HOUSING,HI,Honolulu,1574 Meyers St,808-848-6687,Yes,-157.8775051,21.3442724
KUHIO PARK TERRACE PUB. HOUSING,HI,Honolulu,1475 Linapuni St BLDG A,808-845-3130,Yes,-157.8774938,21.33823877
KOKUA KALIHI VALLEY MAIN CLINIC,HI,Honolulu,2239 N School St,808-791-9400,Yes,-157.874392,21.34080879
KKV Mobile Clinic 1,HI,Honolulu,2239 N School St,808-791-9400,Yes,-157.874392,21.34080879
KKV Wellness Center,HI,Honolulu,2229 N School St,808-791-9400,Yes,-157.874427,21.34032201
KALIHI VALLEY HOMES PUB. HOUSING,HI,Honolulu,2243 Kalaunu St,808-845-0585,Yes,-157.8656842,21.34839654
Kokua Kalihi Valley Gulick Elder Center,HI,Honolulu,1846 Gulick Ave,808-848-0977,Yes,-157.8689772,21.34146454
OHANA HOUSE,HI,Honolulu,2802 Numana Rd,808-845-2377,Yes,-157.8577875,21.35349798
Ke Ola Mamo,HI,Honolulu,1505 Dillingham Blvd Ste 205,808-848-8000,No,-157.8773714,21.32502746
KOHOU CLINIC,HI,Honolulu,904 Kohou St,808-791-6370,Yes,-157.8704635,21.3242378
BEHAVIORAL HEALTH/MEDICAL/HEALTH EDUCATION/ADMINISTRATION,HI,Honolulu,952 N King St,808-841-7981,Yes,-157.867942,21.32362999
KALIHI-PALAMA HEALTH CENTER,HI,Honolulu,915 N King St,808-848-1438,Yes,-157.868238,21.32285001
WIC/OPTOMETRY/ADMIN,HI,Honolulu,888 N King St,808-841-0011,Yes,-157.867318,21.32288899
Living Well - KPHC Lanakila,HI,Honolulu,1700 Lanakila Ave,808-832-5795,Yes,-157.8613049,21.32746224
710 North King Street,HI,Honolulu,710 N King St,808-791-6315,Yes,-157.865718,21.320691
KAAAHI CLINIC,HI,Honolulu,546 Kaaahi St,808-853-1700,Yes,-157.865961,21.31786802
KPHC DOWNTOWN,HI,Honolulu,89 S King St,808-792-5566,Yes,-157.8622881,21.30937615
Waikiki Health NextStep,HI,Honolulu,1 Forrest Ave,808-791-9342,Yes,-157.8645663,21.29818563
Waikiki Health Makahiki,HI,Honolulu,935 Makahiki Way,808-791-9353,Yes,-157.8275242,21.29342714
Waikiki Health Youth Outreach,HI,Honolulu,415 Keoniana St,808-942-5858,Yes,-157.8320515,21.28516954
Waikiki Health CAV Mobile 2,HI,Honolulu,3020 Waialae Ave,808-922-4787,Yes,-157.8119178,21.2891574
Waikiki Health Ohua,HI,Honolulu,277 Ohua Ave,808-922-4787,Yes,-157.820305,21.27543099
Waikiki Health PATH,HI,Honolulu,845 22nd Ave Bldg 5,808-734-2034,Yes,-157.790977,21.27149698
Mobile Van,HI,Waimanalo,41-1347 Kalanianaole Hwy,808-259-7948 x97948,Yes,-157.7163103,21.34716637
WAIMANALO HEALTH CENTER,HI,Waimanalo,41-1347 Kalanianaole Hwy,808-259-7948,Yes,-157.7163103,21.34716637
Waimanalo Health Center - Hale Ola `Alua,HI,Waimanalo,41-1295 Kalanianaole Hwy,808-259-7948,Yes,-157.714594,21.34708302
"Molokai Community Health Center, Building #9, WIC department",HI,Kaunakakai,30 Oki Pl,808-553-5038,Yes,-157.0182517,21.0872309
"Molokai Community Health Center, Building #1, suite 102, Dental Department",HI,Kaunakakai,30 Oki Pl,808-553-5038,Yes,-157.0182517,21.0872309
Molokai Community Health Center,HI,Kaunakakai,30 Oki Pl,808-553-5038,Yes,-157.0182517,21.0872309
"Molokai Community Health Center, Building # 7, Behavioral Health Department",HI,Kaunakakai,30 Oki Pl,808-553-5038,Yes,-157.0182517,21.0872309
"Molokai Community Health Center, Building #4, Medical Department",HI,Kaunakakai,30 Oki Pl,808-553-5038,Yes,-157.0182517,21.0872309
"Molokai Community Health Center, buidling #8, Health Education and Nurtitional Counseling Department",HI,Kaunakakai,30 Oki Pl,808-553-5038,Yes,-157.0182517,21.0872309
"Na Pu`uwai, Inc.",HI,Kaunakakai,604 Maunaloa Hwy,808-560-3653,No,-157.0353237,21.09624879
Atka Health Clinic,AK,Atka,Kaangux Ln,907-839-2232,Yes,-174.1993499,52.19440503
ADAK CLINIC,AK,Adak,Main St,907-592-8383,Yes,-176.6572479,51.85232941
Nikolski Clinic,AK,Nikolski,225 Lakeview Road,907-576-2204,Yes,-168.8678,52.93893
"ILIULIUK FAMILY AND HEALTH SERVICES, INC.",AK,Unalaska,Lavelle Ct,907-581-1202,Yes,-166.5385699,53.87231504
ANESIA KUDRIN MEMORIAL CLINIC,AK,Akutan,113 MAIN STREET,907-698-2208,Yes,-165.77351,54.13444999
Anna Hoblet Memorial Clinic,AK,False Pass,MAIN STREET,907-547-2742,Yes,-164.0405067,54.720795
KING COVE CLINIC,AK,King Cove,Solcum Dr,907-497-2311,Yes,-162.297402,55.0477518
Paul Martin Gundersen Memorial Clinic,AK,Nelson Lagoon,General Delivery,907-989-2202,Yes,-162.72001,55.20762001
SAND POINT CLINIC,AK,Sand Point,PO BOX 172,907-277-1440,Yes,-160.49548,55.33546
ANNA LIVINGSTON MEMORIAL CLINIC,AK,Cold Bay,S Main St,907-532-2000,Yes,-161.20341,56.00013233
St George Traditional Clinic,AK,Saint George Island,934 MAIN STREET,907-859-2254,Yes,-169.5837248,56.57384
Saint Paul CHC,AK,Saint Paul Island,1000 Polivenia Turnpike,907-546-8300,Yes,-170.2890003,57.17833
Chignik Bay Clinic,AK,Chignik,"Main Street, P.O. Box 79",907-749-2282,Yes,-158.35554,56.17355441
Chignik Lake Clinic,AK,Chignik Lake,Main Street,907-845-2236,Yes,-158.8040604,56.147295
Perryville Clinic,AK,Perryville,Main Street,907-853-2203,Yes,-159.0618911,56.13746889
Akhiok Health Clinic,AK,Kodiak,125 Airport Way,907-836-2230,Yes,-154.1750703,56.94405989
PLATINUM VILLAGE CLINIC,AK,Platinum,101 MAIN STREET,907-979-8100,Yes,-161.4096584,58.905295
TOGIAK SUB-REGIONAL  CLINIC,AK,Togiak,344 MAIN ST  A,907-493-5511,Yes,-160.2774637,59.0766696
GOODNEWS BAY VILLAGE CLINIC,AK,Goodnews Bay,CLINIC ROAD,907-967-8128,Yes,-161.3211758,59.305645
Kanakanak Hospital,AK,Dillingham,6000 Kanakanak Rd,907-842-9440,Yes,-158.5364624,59.00098328
Jake's Place,AK,Dillingham,6000 Kanakanak Rd,907-842-5201,Yes,-158.5364624,59.00098328
Behavioral Health Counseling Center,AK,Dillingham,6000 Kanakanak Rd,907-842-5201,Yes,-158.5364624,59.00098328
H. Sally Smith Building (Dental Clinic),AK,Dillingham,6000 Kanakanak Rd,907-842-5201,Yes,-158.5364624,59.00098328
TWIN HILLS VILLAGE CLINIC,AK,Dillingham,Main St E,907-525-4326,Yes,-158.4664897,59.03910301
"CAMAI COMMUNITY HEALTH CTR, INC.",AK,Naknek,School Rd,907-246-6155,Yes,-157.0063777,58.73204244
Igiugig Village Health Clinic,AK,King Salmon,4030 Clinic Drive,907-533-3207,Yes,-156.5369549,58.75508
CHEFORNAK CLINIC,AK,Chefornak,General Delivery,907-675-4556,Yes,-164.27486,60.15778
MEKORYUK CLINIC,AK,Mekoryuk,General Delivery,907-675-4556,Yes,-166.1905,60.39060999
TOOKSOOK BAY SUB-REGIONAL CLINIC,AK,Toksook Bay,Airport Rd,907-427-3500,Yes,-165.1129804,60.530619
NIGHTMUTE CLINIC,AK,Nightmute,#1 CLINIC ROAD GENERAL DELIV.,907-675-4556,Yes,-164.666255,60.56940424
Tununak Clinic,AK,Tununak,#1 Clinic Road,907-675-4556,Yes,-164.9544081,60.66205
CHEVAK CLINIC,AK,Chevak,General Delivery,907-675-4556,Yes,-165.58976,61.52738
HOOPER BAY SUB-REGIONAL CLINIC,AK,Hooper Bay,Airport Rd,907-758-4519,Yes,-166.1080602,61.52500746
BFC Main Clinic Building,AK,Bethel,430 Manignuk St,907-543-3773,Yes,-161.88225,60.7708
Newtok Clinic,AK,Bethel,#1 Clinic Road,907-237-2314,Yes,-161.7607822,60.7942103
BETHEL FAMILY CLINIC,AK,Bethel,4th Ave & Main St,907-543-3773,Yes,-161.7624499,60.79608003
BETHEL FAMILY CLINIC DENTAL,AK,Bethel,660 3rd Ave,907-545-3996,Yes,-161.7603108,60.79526255
SCAMMON BAY CLINIC,AK,Scammon Bay,#1 CLINIC ROAD GENERAL DELIV.,907-675-4556,Yes,-165.5203936,61.74476
PILOT STATION CLINIC,AK,Pilot Station,#1 Clinic Road,907-675-4556,Yes,-163.1277275,61.94881399
MOUNTAIN VILLAGE CLINIC,AK,Mountain Village,#1 CLINIC ROAD,907-675-4556,Yes,-163.7150296,62.09438
Napaimute Clinic,AK,Mountain Village,#1 CLINIC ROAD,907-543-2887,Yes,-163.7150296,62.09438
PITKA'S POINT CLINIC,AK,Pitkas Point,#1 PITKA POINT CLINIC,907-675-4556,Yes,-163.28642,62.03278
ST MARY'S SUB-REGIONAL CLINIC,AK,Saint Marys,290 High School Lane,907-438-3500,Yes,-163.281067,62.06534622
MARSHAL CLINIC,AK,Marshall,#1 CLINIC ROAD GENERAL DELIV.,907-675-4556,Yes,-162.0428374,61.966685
SHELDON POINT NUNAM IQUA CLINIC,AK,Nunam Iqua,#1 CLINIC ROAD GENERAL DELIV.,907-675-4556,Yes,-164.8884219,62.50717
Russian Mission clinic,AK,Russian Mission,#1 Clinic Road,907-584-5611,Yes,-161.0019866,61.76658725
LOWER KALSKAG CLINIC,AK,Lower Kalskag,#1 CLINIC ROAD GENERAL DELV.,907-675-4556,Yes,-160.3613513,61.51634
UPPER KALSKAG CLINIC,AK,Kalskag,#1 CLINIC ROAD GENERAL DELIV.,907-675-4556,Yes,-160.3334971,61.541885
ALAKANUK CLINIC,AK,Alakanuk,General Delivery,907-238-3210,Yes,-164.64689,62.68307999
EMMONAK SUB-REGIONAL CLINIC,AK,Emmonak,246 Kwiguk St,907-675-4556,Yes,-164.53565,62.77672002
SAVOONGA CLINIC,AK,Savoonga,# 1 CLINIC RD,907-984-6513,Yes,-169.8600672,63.330745
BESSIE KANINGOK HEALTH CLINIC,AK,Gambell,123 Maz way,907-985-5012,Yes,-171.6847988,63.74996
KOTLIK CLINIC,AK,Kotlik,#1 CLINIC ROAD GENERAL DELIV.,907-675-4556,Yes,-163.555,63.0326
LITTLE DIOMEDE CLINIC,AK,Nome,#1 CLINIC RD,907-686-3311,Yes,-165.410415,64.49805
Norton Sound Health Corporation Family Medical Clinic,AK,Nome,Greg Kruschek Ave,907-443-3311,Yes,-165.3768898,64.49863006
Larsen Bay Health Clinic,AK,Larsen Bay,3rd St,907-847-2208,Yes,-153.9796056,57.53733203
Old Harbor Health Clinic,AK,Old Harbor,Birch St,907-286-2205,Yes,-153.2873658,57.21713072
Karluk Health Clinic,AK,Karluk,26 Alex Brown St,907-241-2212,Yes,-154.4374418,57.56381034
Port Lions Health Clinic,AK,Port Lions,Malina St,907-454-2275,Yes,-152.8917311,57.86656379
Carolyn Street Facility,AK,Kodiak,323 Carolyn St,907-486-7380,Yes,-152.4041421,57.79081222
KODIAK COMMUNITY HEALTH CENTER,AK,Kodiak,1911 E Rezanof Dr,907-481-5000,Yes,-152.3749188,57.8003974
Temporary Site -  Kodiak Community Health Center,AK,Kodiak,1944 E Rezanof Dr,907-481-5002,Yes,-152.369577,57.80056402
KCHC Temporary testing location,AK,Kodiak,200 Benny Benson Dr,907-481-5002,Yes,-152.3664877,57.80610824
Mill Bay Clinic,AK,Kodiak,2414 Mill Bay Rd,907-486-9800,Yes,-152.368074,57.80720898
Kodiak Area Native Association,AK,Kodiak,3449 E Rezanof Dr,907-486-9870,Yes,-152.355082,57.81176899
KCHC Administration,AK,Kodiak,3248 Mill Bay Rd,907-481-5000,Yes,-152.356902,57.81358388
Ouzinkie Health Clinic,AK,Ouzinkie,3rd St & C St,907-680-2265,Yes,-152.5053199,57.92219004
Kokhanok Clinic,AK,Iliamna,Main Rd,907-282-2203,Yes,-155.8914205,59.32734951
Pedro Bay Clinic,AK,Pedro Bay,2516 Mountain Circle,907-850-2229,Yes,-154.1123,59.7849
SVT Health & Wellness,AK,Seldovia,206 Main St,907-435-3262,Yes,-151.7121678,59.43687509
Nondalton Clinic,AK,Nondalton,1 Nondalton Street,907-294-2238,Yes,-155.1747078,59.90019757
SVT Health & Wellness,AK,Homer,880 E End Rd,907-226-2228 x106,Yes,-151.5216147,59.6500574
SVT Health and Wellness - Anchor Point,AK,Anchor Point,72351 Milo Fritz Ave,907-226-2238,Yes,-151.8342298,59.77956254
Manokotak Village Clinic,AK,Manokotak,Main Rd,907-289-1077,Yes,-157.2915668,59.72802878
Port Alsworth Health Center,AK,Port Alsworth,1 Flight Line Rd,907-574-0442,Yes,-154.31269,60.19987999
NILAVENA SUBREGIONAL CLINIC,AK,Iliamna,101 AIRPORT RD,907-729-5400,Yes,-155.0198691,60.18880746
Red Devil Clinic,AK,Red Devil,#1 Clinic Road,907-447-3223,Yes,-157.8028302,61.35266462
CHUATHBALUK CLINIC,AK,Chuathbaluk,General Delivery,907-675-4556,Yes,-159.2494518,61.57621785
ANIAK SUB-REGIONAL CLINIC,AK,Aniak,Morgan Rd,907-675-4556,Yes,-159.5354006,61.57186714
SLEETMUTE CLINIC,AK,Sleetmute,#1 CLINC ROAD GENERAL DELIV.,907-675-4556,Yes,-157.1369269,61.71982229
CROOKED CREEK CLINIC,AK,Crooked Creek,General Delivery,907-675-4556,Yes,-158.12319,61.87197999
STONY RIVER CLINIC,AK,Aniak,#1 CLINIC ROAD GENERAL DELV.,907-675-4556,Yes,-155.1729254,61.601115
HOLY CROSS CLINIC,AK,Holy Cross,General Delivery,907-675-4556,Yes,-159.77202,62.19720998
SHAGELUK CLINIC,AK,Shageluk,General Delivery,907-675-4556,Yes,-159.53283,62.65524001
ANVIK CLINIC,AK,Anvik,General Delivery,907-675-4556,Yes,-160.20328,62.65512999
GRAYLING CLINIC,AK,Grayling,# 1 CLINIC ROAD GENERAL DELIV.,907-675-4556,Yes,-160.0648511,62.9023365
Temporary Site - Takotna Clinic,AK,Takotna,#1 Riverbank Dr,605-359-0293,Yes,-156.0800836,62.9720117
TAKOTNA CLINIC,AK,Takotna,1 MAIN STREET,907-298-2214,Yes,-156.0800836,62.9720117
LIME VILLIAGE CLINIC,AK,Mc Grath,#1 CLINIC ROAD GENERAL DELIVE.,907-675-4556,Yes,-155.5816154,62.9466308
new McGrath Sub-Regional Health Center,AK,Mc Grath,10 DNR Rd,907-524-3299,Yes,-155.5816154,62.9466308
STEBBINS CLINIC,AK,Stebbins,101 Main Street,907-934-3311,Yes,-162.2130124,63.470905
ST. MICHAEL CLINIC,AK,Saint Michael,101 MAIN STREET,907-923-3311,Yes,-162.0960493,63.476845
ANIKKAN INUIT ILLUAGUTAAT CLINIC,AK,Unalakleet,PO BOX 189,907-624-3535,Yes,-160.78564,63.87069999
IRENE AUKONGAK DAGUMAAQ HC,AK,Nome,Punguk St,907-779-3311,Yes,-163.0335356,64.54316756
SHAKTOOLIK CLINIC,AK,Shaktoolik,MAIN BUSINESS CENTER ST,907-955-3311,Yes,-161.1859305,64.349965
NATCHIRSVIK HEALTH CLINIC,AK,White Mountain,2 SCOW JOHN RD,907-638-3311,Yes,-163.40363,64.67969
ELIM CLINIC,AK,Elim,#1 Clinic Rd,907-890-3311,Yes,-162.3016304,64.83016
KOYUK CLINIC,AK,Koyuk,101 MAIN ST,907-963-3311,Yes,-161.166365,64.92972
Kaltag Health Clinic,AK,Kaltag,2nd Ave,907-452-8251 x3526,Yes,-158.7238274,64.32649118
TELLER CLINIC,AK,Teller,General Delivery,907-642-3377,Yes,-166.36261,65.26378999
Nulato Health Clinic,AK,Nulato,Nikaghun St,907-452-8251 x3531,Yes,-158.1132304,64.73377839
BREVIG MISSION CLINIC,AK,Brevig Mission,PO BOX 85058,907-642-4311,Yes,-166.48623,65.33209001
Pauline Aliitchaq Barr Health Clinic,AK,Deering,HOUSE STE 40,907-363-2137,No,-163.5152914,65.822285
Koyukuk Health Clinic,AK,Koyukuk,Spruce St,907-452-8251 x3537,Yes,-157.7039933,64.88290156
Tigautchiaq Amainiq Health Clinic,AK,Buckland,Airport Rd,907-494-2122,No,-161.136207,65.98029506
Edgar Nollner Health Center,AK,Galena,77 Antoski Rd,907-452-8251 x5302,Yes,-156.876638,64.74250633
TOBY ANUNGAZUK SR. MEMORIAL HC,AK,Wales,WALES CLINIC #1 CLINIC RD,907-664-3311,Yes,-167.9465541,65.62639
KATHERINE MIKSRUAQ OLANNA MEMORIAL HC,AK,Shishmaref,3066 Lagoonview,907-649-2127,Yes,-166.07265,66.25617
Maniilaq Health Center,AK,Kotzebue,5th Ave & Ted Stevens Way,907-442-3321,No,-162.5866499,66.89705005
KIVALINA CLINIC,AK,Kivalina,101 MAIN STREET,907-645-2141,No,-163.7249666,67.64607
POINT HOPE CLINIC,AK,Point Hope,101 Main Street,907-368-2234,No,-166.7297308,68.349219
Esther Barger Memorial Health Clinic,AK,Noatak,101 Main Street,907-485-2165,No,-162.3533463,67.502215
Sally Harvey Memorial Clinic,AK,Noorvik,Tundra Dr,907-636-2103,No,-161.0448599,66.83056504
SELAWIK CLINIC,AK,Selawik,N Tundra St,907-484-2193,No,-160.0139656,66.59417503
Peninsula Community Health Services of Alaska,AK,Soldotna,230 E Marydale Ave Ste 1,907-262-3119,Yes,-151.06434,60.49503748
Chignik Lagoon Clinic,AK,Kenai,Main St,907-749-2282,Yes,-151.2597524,60.5529854
Peninsula Community Health Services of Alaska - Dental,AK,Kenai,395 Main Street Loop,907-283-7759,Yes,-151.2566076,60.55773487
Indian Creek Health Center,AK,Tyonek,73 C St,907-583-2461,Yes,-151.142606,61.06817063
Seward Community Health Center,AK,Seward,417 First Ave,907-224-4064,Yes,-149.4455349,60.10544783
"Anchorage Neighborhood Health Center, Inc.",AK,Anchorage,4951 Business Park Blvd,907-743-7200,Yes,-149.888585,61.17669969
SCF Detox,AK,Anchorage,4330 Elmore Rd,907-729-6690,Yes,-149.809384,61.18125199
Girdwood Health Clinic,AK,Girdwood,131 Lindblad Ave,907-783-1355,Yes,-149.1339345,60.96389822
Whittier Community Health Center,AK,Whittier,Whittier St,907-472-2303,Yes,-148.6881729,60.7747956
Big Lake Clinic,AK,Wasilla,3261 S Big Lake Rd,907-376-2411,Yes,-149.8179998,61.5455137
Burchell High School,AK,Wasilla,1775 W Parks Hwy,907-376-2411,Yes,-149.494534,61.58013201
Willow Community Health Center,AK,Willow,24091 W Long Lake Rd,907-495-4100,Yes,-150.0598984,61.73662478
"Mat-Su Health Services, Inc.",AK,Wasilla,1363 W Spruce Ave,907-376-2411,Yes,-149.485664,61.60136999
C’eyiits’ Hwnax Life House Community Health Center,AK,Sutton,11495 N Callison St,907-631-7665,Yes,-148.9066432,61.71332611
SuValley Jr./Sr. High Shool,AK,Talkeetna,42728 S Parks Hwy,907-733-9300,Yes,-150.043831,62.131246
SUNSHINE COMMUNITY HEALTH CENTER,AK,Talkeetna,34300 S Talkeetna Spur,907-733-2273,Yes,-150.0518877,62.19160048
Talkeetna Elementary School,AK,Talkeetna,13930 E Timber Wolf Loop,907-733-9400,Yes,-150.1076262,62.31793361
Ilanka Community Health Center,AK,Cordova,705 2nd St,907-424-3622,Yes,-145.7571776,60.54281363
Cross Road Medical Center,AK,Glennallen,Glenn Hwy,907-822-3203,Yes,-146.2506516,62.09537773
Nikolai Clinic,AK,Nikolai,Salmonberry Lake Rd,907-293-2328,Yes,-154.3836796,63.01740855
Robert Marshall Building,AK,Copper Center,5 Richardson Hwy,907-822-5241,No,-145.1697877,61.68727401
Glennallen School,AK,Glennallen,Aurora Dr,907-822-5268,No,-145.5303051,62.10887478
Altona Brown Health Clinic,AK,Ruby,Good Time Rd,907-452-8251 x3528,Yes,-155.4902364,64.73864166
Rose Ambrose Health Clinic,AK,Huslia,166 Spring Camp Rd,907-452-8251 x3520,Yes,-156.3871707,65.7016291
Marilyn E. Koyukuk Evans Health Center,AK,Hughes,204 Blues Avenue,907-452-8251 x3544,Yes,-154.25979,66.046955
INTERIOR COMMUNITY HEALTH CENTER,AK,Healy,USIBELLI SPUR ROAD,907-683-2211,Yes,-148.9995896,63.87340739
Manley Hot Springs Health Clinic,AK,Manley Hot Springs,Elliott Hwy,907-452-8251 x3402,Yes,-150.1746711,65.15783028
Mary C. Demientieff Health Clinic (Nenana),AK,Nenana,G St,907-452-8251 x3560,Yes,-149.0766997,64.5627133
Rampart Health Clinic,AK,Rampart,10 Wiehl Way,907-452-8251 x3402,Yes,-150.15233,65.51232
"Evelyn Alexander ""To Draak"" Health Clinic",AK,Minto,Lake View Rd,907-452-8251 x3402,Yes,-149.3458972,65.14986531
ALATNA HEALTH CLINIC,AK,Allakaket,Oscar's Way,907-452-8251 x3525,Yes,-152.7038615,66.55984092
ALLAKAKET HEALTH CLINIC,AK,Allakaket,Main Rd,907-452-8251,Yes,-152.6441039,66.5528717
Ambler Clinic,AK,Ambler,110 Main Street,907-445-2129,No,-157.86416,67.08379998
KIANA CLINIC,AK,Kiana,105 KASSONOF RD,907-475-2199,No,-160.2624176,67.560805
SHUNGNAK CLINIC,AK,Shungnak,Back St,907-437-2138,No,-157.1403397,66.88705001
KOBUK CLINIC,AK,Kobuk,101 Main Street,907-948-2218,No,-155.8191584,67.167715
FRANK TOBUK SR. HEALTH CENTER,AK,Bettles Field,1 Bettles Road,907-452-8251 x3541,Yes,-151.5262339,66.91160622
YAKUTAT COMMUNITY HEALTH CENTER,AK,Yakutat,712 W Ocean Cape Rd,907-784-3275 x23,Yes,-139.7851564,59.53522658
Upper Tanana Health Center South,AK,Tok,5 Tok Cutoff Hwy,907-452-8251 x3402,Yes,-143.3008094,63.11529249
Northway Health Clinic,AK,Northway,Northway Rd,907-452-8251,Yes,-141.8797206,62.96400309
Tetlin Health Clinic,AK,Tetlin,303 Easton Road,907-452-8251,Yes,-142.52388,63.13505
Upper Tanana Health Center North,AK,Tok,123 Tok Cutoff Hwy,907-452-8251,Yes,-143.0010546,63.31505067
Tanacross Health Clinic,AK,Tanacross,1000 Tanacross Blvd.,907-452-8251,Yes,-143.3592838,63.3786343
Dot Lake Clinic,AK,Delta Junction,Charles St,907-452-8251,Yes,-144.0527091,63.66031706
Interior Alaska Medical Clinic,AK,Delta Junction,Alaska Hwy,907-895-6233,Yes,-144.5648841,63.69065594
INTERIOR COMMUNITY HEALTH CENTER,AK,Fairbanks,1606 23rd Ave,907-455-4567,Yes,-147.7425888,64.82623302
Stevens Village Health Clinic,AK,Stevens Village,2 Riverway St.,907-452-8251 x3401,Yes,-149.0916708,66.0057239
Circle Health Clinic,AK,Circle,161 Steese Hwy,907-452-8251 x3402,Yes,-144.0711072,65.82184768
BEAVER HEALTH CLINIC,AK,Beaver,General Delivery,907-628-6228,Yes,-147.39998,66.36166001
BO ZT OW ZHO Eagle Health Clinic,AK,Eagle,134 Long Lake Road,907-452-8251,Yes,-141.20216,64.7872
BIRCH CREEK VILLAGE CLINIC,AK,Fort Yukon,101 MAIN STREET,907-221-2537,Yes,-145.255305,66.56556
YUKON FLATS HEALTH CENTER,AK,Fort Yukon,Spruce St,907-662-2460,Yes,-145.2376842,66.57151628
MYRA ROBERTS CLINIC,AK,Venetie,101 Main St,907-849-8712,Yes,-146.4169866,67.01543661
ARCTIC VILLAGE HEALTH CLINIC,AK,Arctic Village,Main St,907-587-5229,Yes,-145.5378865,68.12574772
Chalkyitsik Health Clinic,AK,Chalkyitsik,Kutchin St,907-452-8251 x3402,Yes,-143.7235209,66.65436116
Fortuna Community Health and Wellness Center,CA,Fortuna,3750 Rohnerville Rd,707-725-6101,Yes,-124.1309087,40.58230426
Ferndale Community Health Center,CA,Ferndale,638 Main St,707-786-4028,Yes,-124.2616841,40.57854082
Rio Dell School,CA,Rio Dell,95 Center St,707-923-2783,Yes,-124.1047274,40.50197469
Scotia Primary Care Health Center,CA,Scotia,B St,707-764-5617,Yes,-124.1014598,40.47910267
Scotia Bluffs Community Health Center,CA,Scotia,B St,707-764-5617,Yes,-124.1014598,40.47910267
Telehealth &amp; Visiting Specialist Center,CA,Eureka,2426 Buhne St,707-442-4038,Yes,-124.1406605,40.78592251
Redwood Community Health Center,CA,Eureka,2350 Buhne St Ste A,707-443-4593,Yes,-124.1422298,40.78592251
TVSC - Annex / Mobile Health Services,CA,Eureka,2412 Buhne St,707-441-1624 x121,Yes,-124.1410904,40.78592251
Mobile Health Services Van #1,CA,Eureka,2412 Buhne St,707-443-4666,Yes,-124.1410904,40.78592251
Burre Dental Center,CA,Eureka,959 Myrtle Ave,707-442-7078 x205,Yes,-124.1497598,40.8006434
Burre Mobile Dental,CA,Eureka,959 Myrtle Ave,707-442-7078 x205,Yes,-124.1497598,40.8006434
Open Door Downtown,CA,Eureka,622 H St,707-443-4666,Yes,-124.1634947,40.8008019
Eureka Community Health and Wellness Center,CA,Eureka,2200 Tydd St,707-441-1642,Yes,-124.146182,40.80244609
Humboldt Open Door Clinic,CA,Arcata,770 10th St,707-826-8610 x1175,Yes,-124.0861242,40.86979716
NorthCountry Clinic,CA,Arcata,785 18th St,707-822-2481 x132,Yes,-124.0837156,40.87604281
Open Door Women's Health,CA,Arcata,3798 Janes Rd Ste 5,707-826-8633,Yes,-124.0931574,40.89629772
Perinatal Services of NorthCountry Clinic,CA,Arcata,3800 Janes Rd,707-822-1385,Yes,-124.0930176,40.89664733
McKinleyville Community Health Center,CA,Mckinleyville,1644 Central Ave Ste F,707-839-3068 x204,Yes,-124.1009564,40.93510999
RRHC Acupuncture - McKinleyville,CA,Mckinleyville,2620 Central Ave,707-601-7595,Yes,-124.1008964,40.95349092
SOUTH FORK HIGH SCHOOL/MIRANDA JUNIOR HIGH SCHOOL,CA,Miranda,6831 Avenue of the Giants,707-943-3144,Yes,-123.8242899,40.23688994
SOUTHERN TRINITY HEALTH SERVICES,CA,Mad River,321 Van Duzen Rd,707-574-6616,Yes,-123.5303794,40.46058472
Willow Creek Community Health Center,CA,Willow Creek,38883 CA-299,530-629-3111,Yes,-123.6336134,40.93992703
RRHC Satellite Dental,CA,Redway,217 Briceland Thorne Rd,707-923-2783 x336,Yes,-123.8263928,40.12093064
REDWAY FAMILY RESOURCE CENTER/REDWAY ELEMENTARY,CA,Redway,344 Humboldt Ave,707-923-2783,Yes,-123.8245531,40.11939298
RRHC Mobile Medical Office,CA,Redway,101 W Coast Rd,707-923-2783,Yes,-123.8134196,40.11686534
REDWOODS RURAL HEALTH CENTER,CA,Redway,101 W Coast Rd,707-923-2783,Yes,-123.8134196,40.11686534
RRHC Mobile Healthcare Services,CA,Redway,101 W Coast Rd,707-923-2783,Yes,-123.8134196,40.11686534
Orleans Karuk Medical Clinic,CA,Orleans,Asip Rd,530-627-3452 x3200,Yes,-123.5477444,41.30078444
LONG VALLEY HEALTH CENTER,CA,Laytonville,50 Branscomb Rd,707-984-6131,Yes,-123.4843596,39.68781746
LONG VALLEY HEALTH CENTER - DENTAL,CA,Laytonville,51 Branscomb Rd,707-984-8222,Yes,-123.48399,39.68776256
Del Norte Mobile Dental,CA,Crescent City,550 E Washington Blvd,707-465-6925,Yes,-124.19871,41.77274748
Del Norte Community Health Center,CA,Crescent City,550 E Washington Blvd,707-465-6925 x6229,Yes,-124.19871,41.77274748
Harding Street Clinic,CA,Crescent City,833 W Washington Blvd,707-495-6925,Yes,-124.2117684,41.77266358
"Mendocino Coast Clinics, Inc.",CA,Fort Bragg,510 Cypress St Ste D,707-964-1251,Yes,-123.79873,39.43260251
Mendocino Coast Clinics Family Wellness Center,CA,Fort Bragg,"510 Cypress St, Ste C",707-964-1251,Yes,-123.79873,39.43260251
"MENDOCINO COAST CLINICS, INC.",CA,Fort Bragg,205 South St,707-964-1251,Yes,-123.8038436,39.430257
Mendocino Coast Clinics,CA,Fort Bragg,855 Sequoia Cir,707-964-1251,Yes,-123.802381,39.43009347
Redding Dental,CA,Redding,2710 Eureka Way Ste 1,530-337-6244,Yes,-122.411025,40.586655
KARUK TRIBE OF CALIFORNIA,CA,Happy Camp,64236 2nd Ave,530-493-5257,Yes,-123.3800175,41.79245258
Happy Camp Behavioral Health,CA,Happy Camp,533 Jacobs Way,530-493-1450 x5001,Yes,-123.3785227,41.80246474
SHASTA COMMUNITY MATERNITY CENTER,CA,Redding,1900 Railroad Ave,530-246-5710,Yes,-122.392761,40.57969702
SHASTA COMMUNITY DENTAL CLINIC,CA,Redding,1400 Market St Ste 8103,530-246-5894,Yes,-122.3911921,40.58504555
Mobile Crisis Outreach Team,CA,Redding,1401 Gold St Ste A,530-691-4446,Yes,-122.3892803,40.57969442
Gold Street Medical,CA,Redding,1401 Gold St Ste A,530-337-5750,Yes,-122.3892803,40.57969442
Hill Country Counseling Center,CA,Redding,2042 Market St,530-337-5758,Yes,-122.3886901,40.57917755
SHASTA COMMUNITY HEALTH CENTER,CA,Redding,1035 Placer St,530-246-5710,Yes,-122.385355,40.58349934
SCHC PROJ HOPE MED/DENT MOBILE,CA,Redding,1035 Placer St,530-246-5947,Yes,-122.385355,40.58349934
SCHC Project HOPE Med/dent mobile II,CA,Redding,1035 Placer St,530-636-6157,Yes,-122.385355,40.58349934
COVID-19 Respiratory Assessment Center,CA,Redding,1002 Placer St,530-246-5710,Yes,-122.3849034,40.58371761
PCN Clinic (Primary Care Neuro-psychiatry and Specialty Care Clinic),CA,Redding,980 Placer St,530-246-5710,Yes,-122.384718,40.583965
Redding Hill Country,CA,Redding,317 Lake Blvd,530-337-5755,Yes,-122.3817444,40.61143484
North Point Center,CA,Redding,351 Northpoint Dr,530-337-5750,Yes,-122.3807024,40.61182162
SHASTA LAKE CITY FAMILY HLTH CTR,CA,Shasta Lake,4215 Front St,530-246-9168,Yes,-122.3705082,40.68114842
LITTLE LAKE HEALTH CENTER,CA,Willits,45 Hazel St,707-468-1010,Yes,-123.35229,39.39981749
CHYBA School,CA,Redding,8544 Airport Rd,530-378-5254,Yes,-122.3028622,40.53616183
ANDERSON FAMILY HEALTH CENTER,CA,Anderson,2801 Silver St,530-378-0486,Yes,-122.299474,40.44729999
Anderson Family Health Center,CA,Anderson,2965 East St,530-378-0486,Yes,-122.298306,40.451961
Greenville Rancheria Dental Clinic,CA,Red Bluff,343 Oak St,530-528-3488,Yes,-122.2349574,40.1761642
Greenville Rancheria Tribal Health Program – Red Bluff,CA,Red Bluff,1425 Montgomery Rd,530-528-8600,Yes,-122.225076,40.15781001
Dunsmuir Community Health Center,CA,Dunsmuir,4309 Stagecoach Rd,530-235-4138,Yes,-122.2768394,41.2224975
Shasta Valley Community Health Center-Admin,CA,Mount Shasta,828 Pine St,530-964-2389,Yes,-122.3208319,41.31728432
Shasta Valley Community Health Center,CA,Mount Shasta,824 Pine St,530-926-4528,Yes,-122.3207333,41.31720716
Mt. Shasta Health Center,CA,Mount Shasta,101 Old Mccloud Rd,530-926-5100,Yes,-122.3104603,41.30516251
Weed Health Center,CA,Weed,50 Alamo Ave,530-938-3491,Yes,-122.3849115,41.42695391
KARUK TRIBAL HEALTH YREKA CLINIC,CA,Yreka,1519 S Oregon St,530-842-9200,Yes,-122.6423937,41.71688109
LORNA BYRNE SCHOOL BASED HEALTH CENTER,OR,Cave Junction,101 S Junction Ave,541-592-6978,Yes,-123.642419,42.16722298
EVERGREEN ELEMENTARY,OR,Cave Junction,520 W River St,541-592-4111,Yes,-123.652962,42.16942755
OAK RUN SBHC,CA,Oak Run,27635 Oak Run To Fern Rd,530-337-6243,Yes,-122.0260108,40.6846037
ILLINOIS VALLEY HIGH SCHOOL BASED HEALTH CENTER,OR,Cave Junction,625 E River St,541-592-3749,Yes,-123.6347561,42.16878185
SISKIYOU COMMUNITY HEALTH CENTER - CAVE JUNCTION,OR,Cave Junction,25647 Redwood Hwy,541-592-4111,Yes,-123.6453095,42.17496409
"McCloud Healthcare Clinic, Inc.",CA,Mccloud,116 W Minnesota Ave,530-964-2389,Yes,-122.1366457,41.25216265
Dora Street Health Center,CA,Ukiah,1165 S Dora St Ste A1,707-468-1010,Yes,-123.2094452,39.13538496
"Dora Street Health Center, Suite B1",CA,Ukiah,1165 S Dora St Ste B1,707-468-1010,Yes,-123.2094452,39.13538496
Hillside Health Center,CA,Ukiah,333 Laws Ave,707-468-1010,Yes,-123.2111253,39.12780789
Ampla Health Los Molinos Medical,CA,Los Molinos,7981 State Highway 99E,530-332-7540,Yes,-122.0999259,40.02767912
CEDAR CREEK SBHC,CA,Round Mountain,29771 Terry Mill Rd,530-337-6243,Yes,-121.9405109,40.79418902
HILL COUNTRY COMMUNITY CLINIC,CA,Bella Vista,29632 CA-299 E,530-337-6243,Yes,-121.9398877,40.80411808
MONTGOMERY CREEK SBHC,CA,Montgomery Creek,30365 State Highway 299 E,530-337-6243,Yes,-121.9226536,40.84289058
Anderson Valley Health Center,CA,Boonville,13500 Airport Rd,707-895-3477,Yes,-123.379423,39.01235572
SHINGLETOWN MEDICAL CENTER,CA,Shingletown,31292 Alpine Meadows Rd,530-474-3390,Yes,-121.8856306,40.49126953
Ampla Health Orland Medical & Dental,CA,Orland,1211 Cortina Dr,530-865-5544,Yes,-122.2016809,39.74167329
INDIAN SPRINGS SBHC,CA,Montgomery Creek,25229 Big Bend Rd,530-337-6243,Yes,-121.9099132,41.01901378
REDWOOD COAST MEDICAL SERVICES - DENTAL CLINIC,CA,Point Arena,175 Main St,707-882-2189,No,-123.6923948,38.90864815
REDWOOD COAST MEDICAL SERVICES - POINT ARENA,CA,Point Arena,30 Mill St,707-882-1704,No,-123.6915996,38.90846752
LAKEVIEW HEALTH CENTER,CA,Lakeport,5335 Lakeshore Blvd,707-468-1010,Yes,-122.903411,39.10602998
Ampla Health Hamilton City Medical,CA,Hamilton City,278 Main St,530-826-3694,Yes,-122.0117405,39.74131691
MOUNTAIN VIEW SBHC,CA,Burney,20375 Tamarack Ave,530-337-6243,Yes,-121.6720279,40.88005698
EAST BURNEY ELEMENTARY SBHC,CA,Burney,37403 Toronto Ave,530-337-6243,Yes,-121.656505,40.88319412
REDWOOD COAST MED SVC RESRC CTR,CA,Gualala,38550 S Highway 1,707-884-4005,No,-123.537451,38.77418784
Burney Health Center,CA,Burney,37491 Enterprise Dr,530-335-5457,Yes,-121.652708,40.88784247
Burney Dental Center,CA,Burney,20615 Commerce Way,530-335-3060,Yes,-121.6525397,40.88832368
BURNEY JUNIOR/SENIOR SBHC,CA,Burney,37571 Mountain View Rd,530-337-6243,Yes,-121.649069,40.88494715
REDWOOD COAST MEDICAL SERVICES,CA,Gualala,Ocean Dr,707-884-4005,No,-123.5311976,38.76930402
Ashland School Health Center,OR,Ashland,201 S Mountain Ave,541-842-7677,No,-122.6992775,42.19077801
Ashland Health Center,OR,Ashland,99 Central Ave,541-482-9741,No,-122.7150108,42.20010959
Peach Tree Chico Eye Center,CA,Chico,120 Independence Cir Ste A,530-749-3242,Yes,-121.874165,39.77245
BURNEY HEAD START SBHC,CA,Burney,38234 State Highway 299 E,530-337-6243,Yes,-121.624874,40.92084999
La Clinica School-Based Health Center at Phoenix Elementary School,OR,Phoenix,215 N Rose St,541-535-6239,Yes,-122.820058,42.27283098
GRANTS PASS HIGH SCHOOL - SCHOOL BASED HEALTH CENTER,OR,Grants Pass,830 NE 9th St,541-474-5710,Yes,-123.319083,42.445236
Ampla Health Chico Dental,CA,Chico,236 W East Ave,530-342-6065,Yes,-121.8648048,39.75471524
Phoenix Health Center--La Clinica,OR,Medford,3617 S Pacific Hwy,541-535-6239,Yes,-122.831922,42.287395
Mobile Health Center--La Clinica,OR,Medford,3617 S Pacific Hwy,541-535-6239,Yes,-122.831922,42.287395
La Clinica School-Based Health Center at Oak Grove Elementary School,OR,Medford,2838 W Main St,541-535-6239,Yes,-122.909495,42.3237875
SISKIYOU COMMUNITY HEALTH CENTER,OR,Grants Pass,1701 NW Hawthorne Ave,541-955-6063,Yes,-123.3274943,42.45904761
CAREVAN,OR,Grants Pass,1701 NW Hawthorne Ave,541-479-6393,Yes,-123.3274943,42.45904761
La Clinica School-Based Health Center at Washington Elementary School,OR,Medford,610 S Peach St,541-535-6239,Yes,-122.8826595,42.31700457
Ampla Health Chico Medical & Pediatrics,CA,Chico,680 Cohasset Rd,530-342-4395,Yes,-121.8454475,39.75282
Women's Health Center--La Clinica,OR,Medford,221 W Stewart Ave,541-535-6239,Yes,-122.865169,42.31284254
West Medford Health Center--La Clinica,OR,Medford,1307 W Main St,541-535-6239,Yes,-122.8868819,42.32366701
Birch Grove Health Center--La Clinica,OR,Medford,910 S Central Ave,541-535-6239,Yes,-122.8654786,42.31869327
La Clinica School-Based Health Center at Jackson Elementary School,OR,Medford,320 W 2nd St,541-535-6239,Yes,-122.880694,42.32908202
Medford Health Center,OR,Medford,19 Myrtle St,541-773-3863,No,-122.8629676,42.32716294
Behavioral/Integrative Health Services,OR,Medford,900 E Main St,541-842-7706 x0206,No,-122.86274,42.32770998
La Clinica School-Based Health Center at Kids Unlimited,OR,Medford,821 N Riverside Ave,541-535-6239,Yes,-122.874907,42.33513702
La Clinica Wellness Center,OR,Medford,730 Biddle Rd,541-535-6239,Yes,-122.8711377,42.33652841
Rogue Dental Clinic,OR,Medford,906 Royal Ct,541-842-7706,No,-122.8674502,42.33881944
East McAndrews,OR,Medford,1322 E Mcandrews Rd,541-777-3688,No,-122.8682152,42.3410611
East Medford Dental Clinic--La Clinica,OR,Medford,1113 Progress Dr,541-535-6239,Yes,-122.8726864,42.34508018
La Clinica School Based Health Center at Mae Richardson Elementary School,OR,Central Point,200 W Pine St,541-535-6239,Yes,-122.921227,42.37304099
La Clinica School Based Health Center at Central Point Elementary School,OR,Central Point,450 S 4th St,541-535-6239,Yes,-122.912442,42.37175399
La Clinica School-Based Health Center at Crater High School,OR,Central Point,655 N 3rd St,541-535-6239,Yes,-122.921112,42.37978
La Clinica School-Based Health Center at Patrick Elementary School,OR,Gold Hill,1500 2nd Ave,541-535-6239,Yes,-123.0628636,42.43348335
La Clinica School-Based Health Center at Jewett Elementary School,OR,Central Point,1001 Manzanita St,541-535-6239,Yes,-122.909179,42.37975401
La Clinica School-Based Health Center at Scenic Middle School,OR,Central Point,1955 Scenic Ave,541-535-6239,Yes,-122.922723,42.38637899
Temporary Site - Jackson County Expo Center (Exhibition Center/Building Q - Connection tent),OR,Central Point,1 Peninger St Lot Parking,541-842-7747,No,-122.9052772,42.38021812
La Clinica School-Based Health Center at Hanby Middle School,OR,Gold Hill,806 6th Ave N,541-535-6239,Yes,-123.0550766,42.4348377
Alexander Valley Dental Clinic,CA,Cloverdale,100 W 3rd St,707-894-2094,Yes,-123.0192901,38.80760033
Temporary Site - Same Day Access site,CA,Cloverdale,106 E 1st St,707-668-1777,Yes,-123.016989,38.80530292
Central Point Health Center--La Clinica,OR,Central Point,4940 Hamrick Rd,541-535-6239,Yes,-122.8916862,42.38785198
Alexander Valley Regional Medical Center (Medical/Behavioral Health),CA,Cloverdale,6 Tarman Dr,707-894-4229,Yes,-123.0177029,38.79824717
Table Rock Health Center,OR,White City,2830 Maple Ct,541-227-2383,No,-122.8412084,42.43118294
White City Health Center,OR,White City,8385 Division Rd,541-826-5853,No,-122.8352201,42.4379665
White Mountain Health Center,OR,White City,550 Wilson Way,541-500-0954,No,-122.828082,42.437887
FALL RIVER ELEMENTARY SBHC,CA,Fall River Mills,24977 Curve St,530-337-6243,Yes,-121.4411485,41.00675004
La Clinica School-Based Health Center at Sams Valley Elementary School,OR,Central Point,14235 Table Rock Rd,541-535-6239,Yes,-122.9350255,42.49342566
FALL RIVER VALLEY HEALTH CENTER,CA,Fall River Mills,43563 State Highway 299 E,530-336-6535,Yes,-121.424555,41.02334901
Fall River Valley Health Center,CA,Fall River Mills,43658 State Highway 299 E,530-336-6535,Yes,-121.419922,41.02951234
Ampla Health Magalia Medical Clinic,CA,Magalia,14137 Lakeridge Cir Ste C,530-873-5030,Yes,-121.5919803,39.81830742
FALL RIVER HIGH SCHOOL SBHC,CA,Mcarthur,44215 Walnut St,530-337-6243,Yes,-121.4027122,41.04620622
Eagle Point School Health Center,OR,Eagle Point,203 N Platt Ave,541-830-6617,No,-122.801767,42.47525599
Butte Valley High School,CA,Dorris,615 W 3rd St,530-397-3990,Yes,-121.924225,41.964133
BUTTE VALLEY HEALTH CENTER,CA,Dorris,610 W 3rd St,530-397-8411,Yes,-121.924177,41.96428711
Ampla Health Colusa Medical & Dental,CA,Colusa,555 Fremont St,530-458-8635,Yes,-122.0111962,39.20789295
Coast Community Health - Wellness Center,OR,Port Orford,716 Highway 101,541-332-1114,Yes,-124.4963628,42.74432443
Alliance Teen Health Center,CA,Healdsburg,1557 Healdsburg Ave,707-431-1170,Yes,-122.8734216,38.63310704
ALLIANCE MEDICAL CENTER,CA,Healdsburg,1381 University St,707-431-8234,Yes,-122.8637972,38.62774121
Ampla Health Gridley Medical,CA,Gridley,520 Kentucky St,530-846-6231,Yes,-121.6965921,39.36382665
Ampla Health Arbuckle Medical & Dental,CA,Arbuckle,89 Putnam Way,530-476-2225,Yes,-122.0619365,39.02119175
Pacific High School,OR,Sixes,45525 Highway 101,541-348-2293,Yes,-124.4739642,42.84764195
Butte Falls Health Center,OR,Butte Falls,722 Laurel Ave,541-865-3563,No,-122.5645831,42.54112837
Ampla Health,CA,Oroville,2800 Lincoln St,530-891-9048,Yes,-121.5514003,39.50160414
Ampla Health Oroville Medical & Dental,CA,Oroville,2800 Lincoln St,530-533-6484,Yes,-121.5514003,39.50160414
Russian River Health Center #1,CA,Guerneville,16319 3rd St,707-869-2849,Yes,-122.9991881,38.50256925
Healthcare for Homeless Center,CA,Guerneville,16312B 3rd St,707-869-5977,Yes,-122.9987395,38.50262584
RUSSIAN RIVER HLTH CENTER #2,CA,Guerneville,16312 3rd St,707-869-2933,Yes,-122.998581,38.50258585
Alliance Medical Center - Windsor,CA,Windsor,8465 Old Redwood Hwy Ste 320,707-433-5494,Yes,-122.8012257,38.54375742
Windsor Dental Clinic,CA,Windsor,"8499 Old Redwood Hwy, Ste 111",707-433-5494,Yes,-122.801822,38.54340999
Windsor Wellness Clinic,CA,Windsor,"8499 Old Redwood Hwy, Ste 203",707-433-5494,Yes,-122.801822,38.54340999
Big Valley Elementary School,CA,Mcarthur,1st St,530-294-5214 x6201,Yes,-121.1412954,41.12083488
BIG VALLEY MEDICAL CENTER,CA,Bieber,554-850 Medical Center Dr,530-294-5241,Yes,-121.13969,41.12034
Live Oak Clinic,CA,Live Oak,9980 Live Oak Blvd,530-741-6245 x120,Yes,-121.6612113,39.2757987
Big Valley High School,CA,Mcarthur,400 Bridge St,530-294-5231,Yes,-121.1383932,41.12145534
Forestville Wellness Center,CA,Forestville,6550 Front St,707-887-0290,Yes,-122.891348,38.47360252
OLE Health - Calistoga,CA,Calistoga,911 Washington St,707-709-2308,Yes,-122.577234,38.57813165
OCCIDENTAL AREA HEALTH CENTER,CA,Occidental,3802 Main St,707-874-2444,Yes,-122.947539,38.40875477
Klamath Open Door Family Practice,OR,Klamath Falls,2074 S 6th St,541-851-8110,Yes,-121.7658628,42.21569419
Vista Campus,CA,Santa Rosa,3569 Round Barn Cir,707-303-3600,Yes,-122.7300178,38.48006174
SBHC-Mazama High,OR,Klamath Falls,3009 Summers Ln,541-851-8110,Yes,-121.7376929,42.19836908
WESTWOOD FAMILY PRACTICE,CA,Westwood,209 Birch St,530-256-3152,Yes,-121.0018861,40.30158111
KOD @ KBBH,OR,Klamath Falls,2210 N Eldorado Ave Ste 1,541-851-8110,Yes,-121.7787507,42.24259825
Tulelake High School,CA,Tulelake,850 Main St,530-667-2292,Yes,-121.4766289,41.95024651
Klamath Open Door - Campus Clinic,OR,Klamath Falls,2684 Campus Dr,541-887-8387,Yes,-121.7875529,42.25231925
Tulelake Basin Elementary School,CA,Tulelake,461 2nd St,530-667-2294,Yes,-121.4780312,41.95528265
TULELAKE HEALTH CENTER,CA,Tulelake,498 Main St,530-999-9060,Yes,-121.476703,41.95506025
Peach Tree-Yuba City/Colusa,CA,Yuba City,1275 Tharp Rd,530-749-3242,Yes,-121.6484145,39.14583946
Dutton Campus,CA,Santa Rosa,1300 N Dutton Ave,707-303-3600,Yes,-122.7333333,38.44955836
Van #2 (ProMaster),CA,Santa Rosa,1300 N Dutton Ave,707-303-3600,Yes,-122.7333333,38.44955836
Van #1 (Tiburcio),CA,Santa Rosa,1110 N Dutton Ave,707-547-2222,Yes,-122.7304543,38.44650961
Dental Campus,CA,Santa Rosa,1110 N Dutton Ave,707-303-3600,Yes,-122.7304543,38.44650961
Harmony Health Medical Clinic and Family Resource Center,CA,Yuba City,1215 Plumas St Ste 1400,530-777-3190,Yes,-121.6174946,39.14773846
Harmony Health Medical Clinic and Family Resource Center,CA,Yuba City,399 Del Norte Ave,530-751-2273,Yes,-121.6175863,39.14445101
Ampla Health Yuba City Pediatrics,CA,Yuba City,931 Market St,530-671-8820,Yes,-121.6144646,39.14501103
Ampla Health - Yuba City Medical,CA,Yuba City,1000 Sutter St,530-673-9420,Yes,-121.6134307,39.14437656
St. Joseph’s Dental Clinic,CA,Santa Rosa,751 Lombardi Ct,707-547-2221,Yes,-122.7485889,38.42792341
Lombardi Campus,CA,Santa Rosa,751 Lombardi Ct Ste B,707-547-2222,Yes,-122.7485889,38.42792341
Pediatric Campus,CA,Santa Rosa,711 Stony Point Rd Ste 17,707-578-2005,Yes,-122.7416468,38.42917383
Bridge Campus,CA,Santa Rosa,2235 Challenger Way Ste 109,415-303-3600,Yes,-122.7520259,38.42499138
Brookwood Campus,CA,Santa Rosa,983 Sonoma Ave,707-583-8700,Yes,-122.7024094,38.44053587
Gravenstein Community Health Center,CA,Sebastopol,652 Petaluma Ave Ste H,707-823-7616,Yes,-122.8199976,38.39635573
Sebastopol Community Health Center,CA,Sebastopol,6800 Palm Ave Ste C,707-824-9999,Yes,-122.8178397,38.39617545
Peach Tree Healthcare Administration,CA,Marysville,1114 Yuba St Ste 220,530-749-3242,Yes,-121.5840448,39.14802458
Ampla Health Richland Medical,CA,Yuba City,334 Samuel Dr,530-674-9200,Yes,-121.6088165,39.12306981
Elsie Allen Campus,CA,Santa Rosa,599 Bellevue Ave,707-528-5770,Yes,-122.7345963,38.4019526
OLE Health - St. Helena,CA,Saint Helena,1222 Pine St Ste A,707-963-0931 x8226,Yes,-122.4722845,38.50587449
Prospect Charter School,OR,Prospect,280 Mill Creek Dr,541-560-1180,No,-122.4887925,42.75196848
Peach Tree Clinic,CA,Marysville,5730 Packard Ave Ste 500,530-741-6245,Yes,-121.5658027,39.11953943
Yuba County Mobile Dental Van,CA,Marysville,5730 Packard Ave,530-741-6245,Yes,-121.5658027,39.11953943
Harmony Health Medical Clinic and Family Resource Center,CA,Marysville,1908 N Beale Rd Ste E,530-743-6888,Yes,-121.5458191,39.12783253
Myrtle Creek Clinic,OR,Myrtle Creek,790 S Main St,541-860-4070,Yes,-123.2935834,43.01675745
Ampla Health Lindhurst Medical & Dental,CA,Olivehurst,4941 Olivehurst Ave,530-743-4611,Yes,-121.5514946,39.09725874
Myrtle Creek Dental Clinic,OR,Myrtle Creek,244 NE Division St,541-860-4070,Yes,-123.2845,43.02746252
Rohnert Park Vision Center,CA,Rohnert Park,4625 Redwood Dr Ste A,707-559-7500,Yes,-122.71644,38.36746898
Rohnert Park Health Center,CA,Rohnert Park,5900 State Farm Dr Ste 200,707-559-7577,Yes,-122.7072323,38.3534663
Esparto Elementary School,CA,Esparto,17120 Omega St,530-787-3446,Yes,-122.024257,38.69124099
Bandon Community Health Center,OR,Bandon,1010 1st St SE Ste 110,541-347-2529,Yes,-124.399823,43.119404
"Community Medical Centers, Esparto",CA,Esparto,17050 S Grafton St,530-787-3454,Yes,-122.0173421,38.69326941
"Sierra Family Medical Clinic, Oregon House",CA,Oregon House,8676 Marysville Rd,530-292-3478,Yes,-121.2778061,39.35668267
SouthRiver Community Health Center,OR,Winston,671 SW Main St,541-492-4550,No,-123.4159961,43.11462975
SouthRiver Community Health Center Cascade Center,OR,Winston,221 NE Main St,541-492-4550,No,-123.4114466,43.12536847
CHILOQUIN OPEN DOOR FAMILY PRAC.,OR,Chiloquin,103 S Wasco Ave,541-783-2292,Yes,-121.8664949,42.5779347
CACHE CREEK HIGH SCHOOL SBHC,CA,Yolo,14320 2nd St,530-753-3498,Yes,-121.8077268,38.73175497
Petaluma Health Center,CA,Petaluma,1179 N Mcdowell Blvd,707-559-7500,Yes,-122.6599494,38.26887047
SVCHC at Hanna Boys Center,CA,Sonoma,17000 Arnold Dr,707-996-6767,Yes,-122.505988,38.32079498
Santa Rosa Junior College - Petaluma Campus - Student Health Services Clinic - Richard Call Building,CA,Petaluma,680 Sonoma Mountain Pkwy,707-778-3919,Yes,-122.634586,38.26803199
Hansen Family Health Center,CA,Woodland,215 W Beamer St,530-666-8960,Yes,-121.7935534,38.6848365
San Antonio High School Health Clinic,CA,Petaluma,500 Vallejo St,707-559-7500,Yes,-122.6283318,38.23813978
Sonoma Valley Community Health Center,CA,Sonoma,19270 Sonoma Hwy,707-939-6070,Yes,-122.4751854,38.29855958
Mary Isaak Homeless Shelter  Clinic,CA,Petaluma,900 Hopper St,707-559-7500,Yes,-122.6232026,38.23383931
Casa Grande High School Health Clinic,CA,Petaluma,333 Casa Grande Rd,707-559-7500,Yes,-122.5978357,38.2413425
SVCHC on  West Napa Street,CA,Sonoma,462 W Napa St Ste A,707-939-6070,Yes,-122.4671074,38.29285336
Family Wellness Center - Unity Building,CA,Woodland,455 1st St,530-662-2211,Yes,-121.7731208,38.67572793
Family Wellness Center - Courage Building,CA,Woodland,453 1st St,530-662-2211,Yes,-121.7731195,38.67585659
Family Wellness Center - Hope Building,CA,Woodland,619 Lincoln Ave,530-574-9285,Yes,-121.7727,38.67560752
ROSEBURG HIGH SCHOOL,OR,Roseburg,400 W Harvard Ave,541-440-4177,Yes,-123.353089,43.21313504
SRCHC - Madrone,OR,Roseburg,621 W Madrone St,541-492-4550,No,-123.3515723,43.21329904
NORTHEASTERN HEALTH CENTER,CA,Susanville,1850 Spring Ridge Dr,530-251-5000,Yes,-120.6255804,40.43814247
Western Sierra Medical Clinic,CA,Penn Valley,10544 Spenceville Rd,530-273-4984 x102,Yes,-121.1776572,39.19618766
Winters Healthcare 172 E. Grant Avenue,CA,Winters,172 E Grant Ave,530-795-4377,Yes,-121.9666602,38.52649481
Sutter West Medical Group,CA,Winters,111 Main St Ste B,530-204-5269,Yes,-121.9712464,38.52101782
UCHC Denture Lab,OR,Roseburg,1421 NW Fairmount St,541-672-9596 x349,Yes,-123.3557136,43.22694729
Sierra Family Medical Clinic Inc,CA,Nevada City,15301 Tyler Foote Rd,530-292-3478,Yes,-121.0351325,39.3660826
Woodland Community College,CA,Woodland,2300 E Gibson Rd,530-661-7758,Yes,-121.736125,38.65957499
OLE Health - Pear Tree Lane,CA,Napa,1141 Pear Tree Ln Ste 100,707-254-1770,Yes,-122.2921919,38.32125242
Umpqua Community Health Center,OR,Roseburg,150 NE Kenneth Ford Dr,541-672-9596,Yes,-123.3504565,43.2618171
Western Sierra Medical Clinic - Ophthalmology Services,CA,Grass Valley,400 Sierra College Dr # A1,530-274-9762,Yes,-121.056817,39.23644305
OLE Health - South Napa Campus,CA,Napa,300 Hartle Ct,707-254-1775,Yes,-122.2803614,38.28326966
South Napa Shelter,CA,Napa,100 Hartle Ct,707-252-4096,Yes,-122.2795842,38.28328592
Western Sierra Medical Clinic,CA,Downieville,PO BOX 286,530-289-3298,Yes,-120.82382,39.56631
DAVIS COMMUNITY CLINIC,CA,Davis,2051 John Jones Rd,530-758-2060,Yes,-121.7692361,38.56365731
Lyndell Terrace,CA,Davis,2035 Lyndell Ter Ste 120,530-758-2060,Yes,-121.7692633,38.56297385
Point Reyes Community Health Center,CA,Point Reyes Station,3 Sixth St,415-663-8666,Yes,-122.808405,38.06910399
CHA Dental,CA,Point Reyes Station,65 Third St,415-787-1123,Yes,-122.807033,38.067811
Western Sierra Medical Clinic,CA,Grass Valley,844 Old Tunnel Rd,530-273-4984 x3,Yes,-121.0305693,39.23638434
Waterfall Clinic Marshfield High School,OR,Coos Bay,972 Ingersoll St,541-756-6232,Yes,-124.2216933,43.35951171
Waterfall School Based Health Center,OR,Coos Bay,826 S 11th St,541-267-1495,Yes,-124.2232496,43.36091085
Waterfall Clinic Blossom Gulch Elementary,OR,Coos Bay,333 S 10th St,541-756-6232,Yes,-124.2225435,43.36545468
"Martin Luther King, Jr. High School",CA,Davis,635 B St,530-757-5425,Yes,-121.7460527,38.54888505
OLE Health - County Campus,CA,Napa,2751 Napa Valley Corporate Dr Ste 1100,707-265-8785 x8508,Yes,-122.2745272,38.2483908
Marin County Adult Day Health Center,CA,Novato,1905 Novato Blvd,415-897-6884,Yes,-122.5878309,38.1101785
Waterfall Clinic Madison Elementary,OR,Coos Bay,400 Madison St,541-756-6232 x54143,Yes,-124.2720474,43.38719241
"WATERFALL CLINIC, INC.",OR,North Bend,1890 Waite St Ste 1,541-756-6232,Yes,-124.2377186,43.38864992
Waterfall Behavorial Health Center,OR,North Bend,1950 Waite St,541-756-6232 x54143,Yes,-124.238591,43.38879438
Marin Community Clinic - Novato,CA,Novato,6100 Redwood Blvd,415-448-1500,Yes,-122.5626694,38.09570656
Marin Community Clinic - Novato Dental,CA,Novato,6090 Redwood Blvd Ste D,415-448-1500,Yes,-122.5626979,38.09573392
Marin Community Clinic - Novato South,CA,Novato,6090 Redwood Blvd Ste G,415-448-1500,Yes,-122.5626979,38.09573392
Sutter West Medical Group,CA,Dixon,125 N Lincoln St Ste G,530-204-5317,Yes,-121.8364227,38.44604157
Family Health Services - Vacaville,CA,Vacaville,1119 E Monte Vista Ave,707-469-4640,Yes,-121.976696,38.36080398
"Community Medical Centers, Dixon",CA,Dixon,131 W A St,707-635-1600,Yes,-121.8232989,38.44553652
GLIDE CLINIC,OR,Glide,20170 N Umpqua Hwy,541-496-3504,Yes,-123.077212,43.30772279
"Community Medical Centers, Vacaville",CA,Vacaville,600 Nut Tree Rd Ste 310,707-359-1800,Yes,-121.9491675,38.361375
WellSpace Health - Professional Health Center for Women,CA,Sacramento,4150 Truxel Rd Ste C,916-515-1698,Yes,-121.5080247,38.64567461
Mobile Dental Clinic,CA,Fairfield,3255 N Texas St,707-784-2120,Yes,-122.036083,38.28766999
Mobile Medical Clinic,CA,Fairfield,3255 N Texas St,707-784-2120,Yes,-122.036083,38.28766999
Sutherlin Clinic,OR,Sutherlin,123 Ponderosa Dr,541-459-3788,Yes,-123.3360477,43.38526267
Peach Tree North Sacramento,CA,Sacramento,3810 Rosin Ct Ste 100,530-749-3242,Yes,-121.4745449,38.63803082
ONSITE DENTAL FOUNDATION,CA,West Sacramento,1950 Channel Dr,408-315-4864,Yes,-121.5700926,38.56391752
Elica Health Centers Health On Wheels 4,CA,West Sacramento,1276 Halyard Dr,916-569-8484,Yes,-121.5501272,38.5731243
Elica Health Centers - Halyard Medical Center,CA,West Sacramento,1276 Halyard Dr,855-354-2242,Yes,-121.5501272,38.5731243
Elica Health Centers Health On Wheels 3,CA,West Sacramento,1276 Halyard Dr,916-569-8484,Yes,-121.5501272,38.5731243
Elica Health Centers  Health On Wheels 2,CA,West Sacramento,1276 Halyard Dr,916-569-8484,Yes,-121.5501272,38.5731243
SALUD CLINIC,CA,West Sacramento,500 Jefferson Blvd Ste B180,916-403-2900,Yes,-121.529288,38.58799098
East Fairfield,CA,Fairfield,1101 B Gale Wilson Blvd Ste 101C,707-419-8990,Yes,-122.0462163,38.26103737
WellSpace Health - Norwood Community Health Center,CA,Sacramento,3946 Norwood Ave,916-564-0521,Yes,-121.4563579,38.63995187
WellSpace Health - North Highlands Community Health Center,CA,North Highlands,Watt Ave,916-679-3925,Yes,-121.3825999,38.69643504
OLE Health - Fairfield,CA,Fairfield,470 Chadbourne Rd Ste A,707-419-8989,Yes,-122.083042,38.23476799
Family Health Services - Fairfield,CA,Fairfield,2201 Courage Dr,707-784-2120,Yes,-122.0693585,38.23724353
Family Health Services - Fairfield Dental,CA,Fairfield,2101 Courage Dr,707-784-2120,Yes,-122.0676871,38.23736533
Family Health Services - Fairfield Pediatric Clinic,CA,Fairfield,2101 Courage Dr,707-784-2120,Yes,-122.0676871,38.23736533
Western Sierra Medical Clinic,CA,Auburn,12183 Locksley Ln Ste 107,530-273-4984,Yes,-121.0967134,38.95034372
Elica Health Centers,CA,West Sacramento,155 15th St,916-375-8981,Yes,-121.525914,38.57080901
La Clínica Dental at Elsa Widenmann Health Center,CA,Vallejo,100 Whitney Ave,707-556-8921 x56549,Yes,-122.2458028,38.1471613
Western Sierra Medical Clinic,CA,Auburn,3111 Professional Dr,530-273-4984 x102,Yes,-121.1007575,38.94038698
WellSpace Health -  North Highlands Community Health Center,CA,North Highlands,6015 Watt Ave Ste 2,,Yes,-121.3842367,38.67663116
WellSpace Health Tom Gagen Community Health Center,CA,Sacramento,631 H St,916-569-8650,Yes,-121.4969074,38.58389902
WellSpace Health Interim Care Program at The Salvation Army,CA,Sacramento,1200 N B St,916-320-8622,Yes,-121.4856814,38.59007833
Mercy Clinic Loaves & Fishes,CA,Sacramento,1321 N C St,916-874-1455,Yes,-121.4832459,38.5912515
WellSpace Health - Del Paso Heights Community Health Center,CA,Sacramento,3441 Marysville Blvd,916-563-7200,Yes,-121.4314028,38.63123146
Elica Health Centers - Watt Avenue Medical Center,CA,North Highlands,5708 Watt Ave,855-354-2242,Yes,-121.3823693,38.67070138
Elica Health Centers - Marysville,CA,Sacramento,3234 Marysville Blvd,855-354-2242,Yes,-121.4322607,38.62636732
Sacramento Community Clinic - Del Paso Dental,CA,Sacramento,2138 Del Paso Blvd,916-642-1890,No,-121.451053,38.6097512
Sacramento Community Clinic - Del Paso,CA,Sacramento,2200 Del Paso Blvd,916-924-7988,No,-121.4505367,38.60991553
Cares Community Health dba One Community Health Wind Youth Campus,CA,Sacramento,815 S St Fl 1,916-443-3299,Yes,-121.4998502,38.57126917
Perinatal & Women's Health Suite,CA,San Rafael,880 Las Gallinas Ave Ste 2,415-339-8813,No,-122.547808,38.007692
Marin Family Birth Center,CA,San Rafael,880 Las Gallinas Ave Ste 1,415-339-8813,No,-122.5481075,38.00729919
Elica Health Centers - V Street Medical Center,CA,Sacramento,923 V St,916-448-6553,Yes,-121.4997377,38.56754346
Elica Health Centers - Revere Medical Center,CA,Sacramento,752 Revere St Unit B,916-399-4242,Yes,-121.5047104,38.5626496
La Clínica North Vallejo Administrative & Support Services,CA,Vallejo,200 Hospital Dr,510-535-4000,Yes,-122.2391277,38.13114446
LA CLINICA NORTH VALLEJO,CA,Vallejo,220 Hospital Dr,707-641-1900,Yes,-122.2390225,38.13114245
La Clínica Vallejo Great Beginnings Administrative & Support Services,CA,Vallejo,170 Hospital Dr,707-641-1900,Yes,-122.2392854,38.13114746
LA CLINICA VALLEJO GREAT BEGINNINGS/NORTH VALLEJO  SUPPORT SERVICES,CA,Vallejo,190 Hospital Dr,707-645-7316,Yes,-122.2391803,38.13114546
LA CLINICA VALLEJO GREAT BEGINNINGS,CA,Vallejo,210 Hospital Dr,707-645-7316,Yes,-122.2390751,38.13114346
WellSpace Health - J Street Community Health Center,CA,Sacramento,1820 J St,916-313-8400,Yes,-121.4816606,38.57687612
WellSpace Health - Roseville Community Health Center,CA,Roseville,5 Medical Plaza Dr Ste 170,916-978-1738,Yes,-121.2466516,38.76604029
Cares Community Health,CA,Sacramento,1500 21st St Bldg B,916-914-6234,Yes,-121.4813254,38.57055663
Cares Community Health,CA,Sacramento,1500 21st St,916-443-3299,Yes,-121.4813254,38.57055663
LA CLINICA VALLEJO DENTAL ,CA,Vallejo,2920 Sonoma Blvd Ste A,707-558-2000,Yes,-122.25459,38.11367155
WellSpace Health - Sierra Gardens Community Health Center,CA,Roseville,151 N Sunrise Ave Ste 1309,916-737-5555,Yes,-121.263467,38.74642702
North Bay Health Center,OR,North Bend,93670 Viking Ln Rm Sbhc,808-213-5055,Yes,-124.210951,43.5023825
WellSpace Health - Arden Arcade Community Health Center,CA,Sacramento,2433 Marconi Ave,916-737-5555,Yes,-121.4045602,38.61940217
Global Center for Success,CA,Vallejo,1055 Azuar Ave,707-553-5509,Yes,-122.2729791,38.09624351
WellSpace Health - San Juan Community Health Center,CA,Citrus Heights,5959 Greenback Ln Ste 500,916-725-1177,Yes,-121.3225107,38.68198468
LA CLINICA VALLEJO,CA,Vallejo,243 Georgia St Ste B,707-556-8100,Yes,-122.2591112,38.10106615
Elica Health Centers - Midtown Medical Center,CA,Sacramento,3701 J St Ste 104,916-454-2345,Yes,-121.4566256,38.5712369
Elica Health Centers - Midtown,CA,Sacramento,3701 J St Ste 201,916-454-2345,Yes,-121.4566256,38.5712369
Elica Health Centers - Midtown Medical Center,CA,Sacramento,3701 J St Ste 103,916-454-2345,Yes,-121.4566256,38.5712369
Elica Health Centers - Midtown Medical Center,CA,Sacramento,3701 J St Ste 100,916-454-2345,Yes,-121.4566256,38.5712369
Elica Health Centers Health On Wheels,CA,Sacramento,3701 J St,916-454-2345,Yes,-121.4566256,38.5712369
WellSpace Health - Alhambra Community Health Center,CA,Sacramento,2425 Alhambra Blvd,916-737-5555,Yes,-121.4718731,38.55626825
Family Health Services - Vallejo,CA,Vallejo,365 Tuolumne St,707-553-5509,Yes,-122.238283,38.10264979
Family Health Services - Vallejo Integrated Care Clinic,CA,Vallejo,355 Tuolumne St,707-553-5509,Yes,-122.2382821,38.1026081
Cares Community Health dba One Community Health Arden-Arcade Campus,CA,Sacramento,1442 Ethan Way Ste 100,916-443-3299,Yes,-121.4190841,38.5920899
Elica Health Centers - Arden Arcade,CA,Sacramento,1750 Wright St Ste 1,916-569-8484 x309,Yes,-121.4056846,38.5977541
WellSpace Health - Sunrise Community Health Center,CA,Citrus Heights,7777 Sunrise Blvd Ste 2500,916-722-2227,Yes,-121.2734451,38.70684038
WellSpace Health - Oak Park Community Health Center,CA,Sacramento,3415 Martin Luther King Jr Blvd,916-233-4920,Yes,-121.4644099,38.54375981
Ritter Center,CA,San Rafael,16 Ritter St,415-457-8182,Yes,-122.5251276,37.97150888
Sacramento County Primary Care Center,CA,Sacramento,4600 Broadway,916-874-9777,Yes,-121.4526676,38.54612635
Elica Health Centers - Cadillac Drive,CA,Sacramento,77 Cadillac Dr Ste 200,855-354-2242,Yes,-121.418158,38.57255261
Marin Community Clinic - 4th Street Dental,CA,San Rafael,411 4th St Ste A,415-448-1500,Yes,-122.5179907,37.97183171
Marin Community Clinic - 4th Street Dental Suite C,CA,San Rafael,411 4th St Ste C,415-448-1500,Yes,-122.51803,37.97156399
Bolinas Community Health Center,CA,Bolinas,88 Mesa Rd,415-868-0124,Yes,-122.6971487,37.91056054
Huckleberry Youth Programs,CA,San Rafael,361 3rd St Ste G,415-258-4944,Yes,-122.5165541,37.97038943
Elica Health Centers - Franklin Medical Center,CA,Sacramento,5385 Franklin Blvd Ste K,916-428-0656,Yes,-121.4714306,38.52618358
Marin Community Clinic - San Rafael Campus,CA,San Rafael,3260 Kerner Blvd,415-448-1500,Yes,-122.5017538,37.96103171
Marin Community Clinic - Larkspur,CA,Larkspur,5 Bon Air Rd Ste 117,415-448-1500,Yes,-122.540032,37.943802
WellSpace Health at Boulevard Court,CA,Sacramento,5321 Stockton Blvd,916-737-5555,Yes,-121.4425065,38.52710346
Marin Community Clinic-San Rafael,CA,San Rafael,3110 Kerner Blvd,415-448-1500,Yes,-122.5004034,37.95788049
WellSpace Health - Martin Luther King Jr. Village,CA,Sacramento,3900 47th Ave,916-737-5555,Yes,-121.4626889,38.50940109
LifeLong Rodeo Health Center,CA,Rodeo,25 California St,510-981-4100,Yes,-122.2632902,38.03976729
WellSpace Health - St. Johns Shelter for Women and Children,CA,Sacramento,4410 Power Inn Rd,916-737-5555,Yes,-121.4101737,38.53500034
WellSpace Health - Florin Community Health Center,CA,Sacramento,4241 Florin Rd Ste 30,916-931-2229,Yes,-121.4582643,38.49677622
LifeLong West County Health Center – Pinole,CA,Pinole,806 San Pablo Ave Ste 1,510-981-3255,Yes,-122.3073651,38.00523535
Sacramento Community Clinic - Assembly Court,CA,Sacramento,5524 Assembly Ct,,No,-121.4392872,38.4932785
Sacramento Community Clinic - Southgate,CA,Sacramento,7275 E Southgate Dr Ste 204,916-428-3788,No,-121.4365588,38.49355045
LifeLong Medical Care-Pinole Health Center,CA,Pinole,1690 San Pablo Ave,510-981-4100,Yes,-122.2976083,38.00433549
Sacramento Community Clinic - Explorer Drive,CA,Sacramento,3030 Explorer Dr,916-254-5700,No,-121.3324272,38.5633611
Community Practice Clinic Richmond,CA,San Pablo,2970 Hilltop Mall Rd Ste 307,510-231-1200,Yes,-122.3292324,37.97819827
WellSpace Health - Rancho Cordova Community Health Center,CA,Sacramento,10423 Old Placerville Rd Ste A,916-569-8600,Yes,-121.3075381,38.57037956
NORTH RICHMOND CENTER FOR HEALTH,CA,Richmond,1501 Fred Jackson Way,510-374-7330,Yes,-122.3669575,37.95501698
West County Health Center,CA,San Pablo,13601 San Pablo Ave,510-231-1200,Yes,-122.3373256,37.95659781
WellSpace Health - Health Care for Women Community Health Center,CA,Sacramento,7601 Hospital Dr Ste 220,916-689-3433,Yes,-121.4153126,38.46479407
Contra Costa County Dental Van,CA,San Pablo,2023 Vale Rd,510-981-4100,Yes,-122.3383225,37.95329752
LifeLong Brookside Community Health Center San Pablo,CA,San Pablo,2023 Vale Rd Ste 107,510-215-9092,Yes,-122.3383225,37.95329752
WellSpace Health - South Valley Children's Dental Clinic,CA,Sacramento,8231 E Stockton Blvd Ste C,916-737-5573,Yes,-121.4105731,38.45973835
WellSpace Health - South Valley Community Health Center,CA,Sacramento,8233 E Stockton Blvd Ste D,916-236-4701,Yes,-121.4098392,38.45964028
LifeLong Brookside Community Health Center Richmond,CA,Richmond,1030 Nevin Ave,510-215-5001,Yes,-122.359177,37.93665299
WellSpace Health - Folsom Community Health Center,CA,Folsom,1710 Prairie City Rd Ste 125,916-407-2222,Yes,-121.1675571,38.65245461
LifeLong William Jenkins Health Center,CA,Richmond,150 Harbour Way,510-981-4137,Yes,-122.3599527,37.93352882
Marin City Health and Wellness Dental Van,CA,Sausalito,630 Drake Ave,415-339-8813,No,-122.5149371,37.87351739
Marin City Health & Wellness Center,CA,Sausalito,630 Drake Ave,415-339-8813,No,-122.5149371,37.87351739
Temporary Site - Marin City Health and Wellness Center - Phillips Drive,CA,Sausalito,100 Phillips Dr,415-339-8813,No,-122.5132352,37.8731387
LifeLong Richmond,CA,Richmond,2600 Macdonald Ave Ste B,510-981-3227,Yes,-122.343429,37.93488499
Brighter Beginnings Family Health Clinic Richmond,CA,Richmond,2727 Macdonald Ave,510-213-6681,No,-122.342133,37.93529399
Mobile Unit #6878,CA,Martinez,Mobile Unit  Contra Costa County,925-313-6250,Yes,-122.13353,38.013905
Mobile Unit #6879,CA,Martinez,Mobile Unit   Contra Costa County,925-313-6250,Yes,-122.13353,38.013905
Mobile Dental Clinic,CA,Martinez,Multiple locations  Contra Costa County,925-313-6166,Yes,-122.13353,38.013905
Kennedy High School Health Clinic,CA,Richmond,4300 Cutting Blvd,510-231-8650,Yes,-122.329202,37.92544253
George & Cynthia Miller Wellness Center,CA,Martinez,25 Allen St,800-495-8885,Yes,-122.1331163,38.00739249
Martinez Health Center-Specialty 2B,CA,Martinez,2500 Alhambra Ave,925-370-5851,Yes,-122.132914,38.00656502
Martinez Health Center-Specialty 3B,CA,Martinez,2500 Alhambra Ave,925-370-5851,Yes,-122.132914,38.00656502
Martinez Health Center-Specialty 1B,CA,Martinez,2500 Alhambra Ave,925-370-5851,Yes,-122.132914,38.00656502
Martinez Health Center-Family Medicine 3B,CA,Martinez,2500 Alhambra Ave,925-370-5851,Yes,-122.132914,38.00656502
Martinez Health Center-Family Medicine 3A,CA,Martinez,2500 Alhambra Ave,925-370-5851,Yes,-122.132914,38.00656502
Martinez Health Center -Specialty 2A,CA,Martinez,2500 Alhambra Ave,925-370-5851,Yes,-122.132914,38.00656502
Martinez Health Center-Specialty 3A,CA,Martinez,2500 Alhambra Ave,925-370-5851,Yes,-122.132914,38.00656502
Martinez Health Center - Specialty 1A,CA,Martinez,2500 Alhambra Ave,925-370-5851,Yes,-122.132914,38.00656502
Martinez Health Center - Family Medicine 2A,CA,Martinez,2500 Alhambra Ave,925-370-5520,Yes,-122.132914,38.00656502
Martinez Health Center-Family Medicine 2B,CA,Martinez,2500 Alhambra Ave,925-370-5851,Yes,-122.132914,38.00656502
Martinez Health Center-Family Practice 1A,CA,Martinez,2500 Alhambra Ave,925-370-5851,Yes,-122.132914,38.00656502
Martinez Health Center-Family Practice 1B,CA,Martinez,2500 Alhambra Ave,925-370-5851,Yes,-122.132914,38.00656502
MOBILE CLINIC SITE,CA,Martinez,"MULTIPLE SITES EAST,CENTR,WEST",925-313-6166,Yes,-122.11288,37.99411001
El Cerrito High School-Based Health Center,CA,El Cerrito,540 Ashbury Ave,510-231-1437,Yes,-122.294246,37.90799199
Homeless Respite Care and Shelter Clinic - Concord,CA,Concord,2047 Arnold Industrial Way,925-313-6000,Yes,-122.0376971,38.00660056
BAY POINT COMMUNITY WELLNESS CEN,CA,Bay Point,215 Pacifica Ave,925-427-8300,Yes,-121.9665621,38.03394728
UA Homes - Supportive Housing Program,CA,Berkeley,1040 University Ave,510-649-6637,Yes,-122.293484,37.86854801
WEST BERKELEY FAMILY PRACTICE,CA,Berkeley,837 Addison St,510-981-4200,Yes,-122.296854,37.86686705
Erna P. Harris Court - Supportive Housing Program,CA,Berkeley,1330 University Ave,510-841-5569,Yes,-122.2852388,37.86990764
Community Practice Clinic Concord,CA,Concord,2185 Pacheco St,925-646-5580,Yes,-122.034752,37.979058
Rosa Parks Collaborative,CA,Berkeley,920 Allston Way,510-883-5230,Yes,-122.2947913,37.86558704
Willow Pass Wellness Center,CA,Concord,1420 Willow Pass Rd,925-370-5824,Yes,-122.049981,37.97006475
LifeLong Dental Van,CA,Berkeley,2344 6th St,510-981-4100,Yes,-122.296109,37.861952
Concord Health Center Building 2,CA,Concord,3024 Willow Pass Rd,925-646-5215,Yes,-122.021655,37.98068752
CONCORD HEALTH CENTER Building 1,CA,Concord,3052 Willow Pass Rd,925-646-5580,Yes,-122.0211813,37.98081397
BERKELEY PRIMARY CARE,CA,Berkeley,2001 Dwight Way,510-204-4666,Yes,-122.2689168,37.86379514
Berkeley Food and Housing Project Women's Shelter- Supportive Housing Program,CA,Berkeley,2140 Dwight Way,510-224-0667,Yes,-122.26608,37.86410954
UMPQUA COMM HLTH CTR @ DRAIN,OR,Drain,316 W A Ave,541-672-9596,Yes,-123.3178293,43.66214748
NORTH EAST MEDICAL SERVICES - CLEMENT,CA,San Francisco,1019 Clement St,415-391-9686,Yes,-122.4702926,37.78261829
WILLIAM BYRON RUMFORD MED CLINIC,CA,Berkeley,2960 Sacramento St,510-549-3166,Yes,-122.2792564,37.85389753
"LifeLong Berkeley Food and Housing, Russell Street Residence - Supportive Housing Program",CA,Berkeley,1741 Russell St,510-843-3420,Yes,-122.2733606,37.85586217
LifeLong Martin Luther King Homes - Supportive Housing Program,CA,Berkeley,2942 Martin Luther King Jr Way,510-841-5569,Yes,-122.2711344,37.85460052
NORTH EAST MEDICAL SERVICES,CA,San Francisco,1520 Stockton St,415-391-9686,Yes,-122.4090329,37.79988493
NORTH EAST MEDICAL SERVICES..,CA,San Francisco,1520 Stockton St,415-391-9686,Yes,-122.4090329,37.79988493
LifeLong Ashby Health Center,CA,Berkeley,3075 Adeline St Ste 280,510-981-4137,Yes,-122.268904,37.85293198
OVER 60 HEALTH CENTER - BERKELEY,CA,Berkeley,3260 Sacramento St,510-601-6060,Yes,-122.278233,37.84811901
LIFELONG CARE OVER 60 HLTH CTR,CA,Berkeley,3260 Sacramento St,510-601-6060,Yes,-122.278233,37.84811901
CHINATOWN PUBLIC HEALTH CENTER,CA,San Francisco,1490 Mason St,415-934-7700,Yes,-122.411758,37.79713298
LA CLINICA MONUMENT,CA,Concord,2000 Sierra Rd,925-363-2000,Yes,-122.036829,37.95220598
NORTH EAST MEDICAL SERVICES - PACIFIC,CA,San Francisco,728 Pacific Ave Ste 201,415-391-9686,Yes,-122.407477,37.79709698
NEMS Traditional Medicine Center - Suite 503,CA,San Francisco,728 Pacific Ave Ste 503,415-391-9686,Yes,-122.407477,37.79709698
NEMS Traditional Medicine Center - Suite 403,CA,San Francisco,728 Pacific Ave Ste 403,415-391-9686,Yes,-122.407477,37.79709698
LIFELONG DENTAL CARE,CA,Berkeley,1860 Alcatraz Ave,510-280-6080,Yes,-122.2698692,37.84891122
LifeLong Dental Clinic,CA,Berkeley,1860 Alcatraz Ave,510-653-8500,Yes,-122.2698692,37.84891122
Cameron Park Health Center,CA,Cameron Park,3104 Ponte Morino Dr Ste 110,530-621-7700,Yes,-120.9666941,38.66306011
El Dorado Community Health Center Cameron Park Main,CA,Cameron Park,3100 Ponte Morino Dr Ste 120,530-621-7700,Yes,-120.9672007,38.6625323
MAXINE HALL HEALTH CENTER,CA,San Francisco,1301 Pierce St,415-292-1300,Yes,-122.435917,37.78236449
CHPY-LARKIN STREET YOUTH CENTER,CA,San Francisco,1138 Sutter St,415-255-3525,Yes,-122.419228,37.78813199
NEXT DOOR TRANSITIONAL SHELTER,CA,San Francisco,1001 Polk St,415-255-3525,Yes,-122.4198178,37.78616027
OCEAN PARK HEALTH CENTER,CA,San Francisco,1351 24th Ave,415-682-1900,Yes,-122.4824636,37.76241212
Emeryville USD,CA,Emeryville,4727 San Pablo Ave,510-981-4137,Yes,-122.2817341,37.83653455
Asian and Pacific Islander Wellness Center,CA,San Francisco,726 Polk St Fl 4,415-292-3400,Yes,-122.419007,37.783819
ASIAN PACIFIC ISLANDER WELLNESS,CA,San Francisco,730 Polk St,415-255-3525,Yes,-122.419007,37.783819
MAXINE HALL TEMPORARY HEALTH CENTR,CA,San Francisco,1181 Golden Gate Ave,415-292-1300,Yes,-122.4298178,37.77974984
NORTH EAST MEDICAL SERVICES - ELLIS,CA,San Francisco,518 Ellis St,415-391-9686,Yes,-122.4149401,37.78462018
NORTH EAST MEDICAL SERVICES - POLK,CA,San Francisco,650 Polk St,415-391-9686,Yes,-122.4190932,37.78278291
"TENDERLOIN HEALTH SERVICES, a program of HealthRIGHT 360",CA,San Francisco,330 Ellis St Fl 6,415-674-6000,Yes,-122.4116694,37.78506233
Tenderloin Health Services,CA,San Francisco,330 Ellis St Fl 6,415-647-6140,No,-122.4116694,37.78506233
WINDSOR HOTEL,CA,San Francisco,238 Eddy St,415-255-3525,Yes,-122.4115983,37.78410076
"DENTAL CARE MOBILE, A CONTRA COSTA COLLABORATIVE",CA,Pittsburg,339 E Leland Rd,925-431-1250,Yes,-121.8874482,38.01139911
LA CLINICA PITTSBURG DENTAL ,CA,Pittsburg,339 E Leland Rd,925-431-1250,Yes,-121.8874482,38.01139911
CHPY-COLE STREET CLINIC,CA,San Francisco,555 Cole St,415-751-8181,Yes,-122.4503664,37.76999002
CURRY SENIOR CLINIC,CA,San Francisco,333 Turk St,415-885-2274,Yes,-122.4145921,37.78269528
Haight Ashbury Medical Clinic,CA,San Francisco,558 Clayton St,415-762-4150,No,-122.448317,37.76996501
HealthRIGHT 360,CA,San Francisco,558 Clayton St,415-487-5638,Yes,-122.448317,37.76996501
HAMILTON FAMILY RESIDENCE,CA,San Francisco,260 Golden Gate Ave,415-255-3525,Yes,-122.4149493,37.78175349
Tom Waddell Urban Health Clinic,CA,San Francisco,220 Golden Gate Ave,415-355-7400,Yes,-122.414231,37.78184791
Saint Anthony Medical Clinic,CA,San Francisco,150 Golden Gate Ave Fl 2,415-241-8320,Yes,-122.413187,37.78198412
CHPY - LARKIN STREET YOUTH CENTER,CA,San Francisco,134 Golden Gate Ave,415-673-0911,Yes,-122.4129531,37.78201421
Children's Hospital Oakland Teen,CA,Oakland,5400 Telegraph Ave,510-428-3387,Yes,-122.2620072,37.83929496
Children's Hospital Oakland Behavioral Health,CA,Oakland,5275 Claremont Ave,510-428-3783,Yes,-122.2608299,37.83919
Children's Hospital Oakland Primary Care,CA,Oakland,5220 Claremont Ave,510-428-3129,Yes,-122.2611555,37.83872977
CONNECTING POINT,CA,San Francisco,995 Market St,415-255-3525,Yes,-122.409741,37.78208298
TOM WADDELL HEALTH CENTER,CA,San Francisco,50 Lech Walesa,415-255-3525,Yes,-122.4185516,37.77799352
SFAF/SIXTH ST SVS/ACTION POINT,CA,San Francisco,125 6th St,415-255-3525,Yes,-122.40798,37.78083399
La Clínica Dental at Children's Hospital Oakland,CA,Oakland,4881 Telegraph Ave,510-450-5806,Yes,-122.263101,37.83562901
Homeless Outreach Team,CA,San Francisco,43 Fell St,415-255-3525,Yes,-122.4183017,37.77644631
SOUTH OF MARKET HEALTH CTR,CA,San Francisco,551 Minna St,415-626-2951,Yes,-122.409233,37.77948501
SMHC SENIOR CLINIC,CA,San Francisco,317 Clementina St,415-284-2270,Yes,-122.4021826,37.78203311
SOUTH OF MARKET HEALTH CENTER,CA,San Francisco,551 Minna St,415-503-6000,Yes,-122.409233,37.77948501
LoPrest Health Center - 555,CA,San Francisco,555 Minna St,415-503-6000,Yes,-122.4093943,37.77952277
Medical Respite and Sobering Center,CA,San Francisco,1171 Mission St,415-734-4201,Yes,-122.4125351,37.77791596
NORTH EAST MEDICAL SERVICES - NORIEGA,CA,San Francisco,1450 Noriega St,415-391-9686,Yes,-122.479416,37.75437002
NORTH EAST MEDICAL SERVICES - 1400 NORIEGA,CA,San Francisco,1400 Noriega St,415-391-9686,Yes,-122.478831,37.754396
NEMS SUNSET ENROLLMENT SERVICE CENTER AND RADIOLOGY,CA,San Francisco,1422 Noriega St,415-391-9686,Yes,-122.4791366,37.7541417
A WOMAN'S PLACE,CA,San Francisco,1049 Howard St,415-255-3525,Yes,-122.408218,37.77857599
South of Market Health Center,CA,San Francisco,229 7th St,415-503-6000,Yes,-122.4086419,37.77742235
South of Market Health Center,CA,San Francisco,229 7th St,415-503-6000,Yes,-122.4086419,37.77742235
"TBD Lyon-Martin Health Services, a program of HealthRIGHT 360",CA,San Francisco,1748 Market St Apt 201,415-565-7672,Yes,-122.4229211,37.77233068
API Wellness at San Francisco LGBT Center,CA,San Francisco,1800 Market St Ste 401,415-292-3400 x750,Yes,-122.424028,37.77177802
EPISCOPAL SANCTUARY,CA,San Francisco,201 8th St,415-255-3525,Yes,-122.411164,37.77628199
Haight Ashbury Integrated Care Center,CA,San Francisco,1563 Mission St,415-746-1940,No,-122.4183452,37.77328798
California Hotel - Supportive Housing Program,CA,Oakland,3501 San Pablo Ave,510-635-4809,Yes,-122.2783717,37.82611085
NORTH EAST MEDICAL SERVICES - TARAVAL STREET,CA,San Francisco,3431 Taraval St,415-391-9686,Yes,-122.5030006,37.74176745
MULTI-SERVICE CENTER SOUTH,CA,San Francisco,525 5th St,415-255-3525,Yes,-122.399938,37.77755361
Lyon Martin Health Services/Women's Community Clinic,CA,San Francisco,1735 Mission St,415-565-7667,No,-122.419449,37.76951
HealthRIGHT 360 - Lyon-Martin Health Services,CA,San Francisco,1735 Mission St,415-762-1845,Yes,-122.419449,37.76951
SALVATION ARMY-HARBOR LIGHT,CA,San Francisco,1275 Harrison St,415-626-2950,Yes,-122.4097399,37.77272651
TECHNICLINIC (aka Oakland Technical School-Based Clinic),CA,Oakland,4351 Broadway,510-450-5421,Yes,-122.2540037,37.83189001
LifeLong East Bay Community Recovery Project West Oakland,CA,Oakland,2730 Adeline St,510-981-4135,Yes,-122.2823351,37.81983592
PITTSBURG HEALTH CENTER,CA,Pittsburg,2311 Loveridge Rd,925-431-2300,Yes,-121.86957,38.00647499
LA CLINICA PITTSBURG - MEDICAL,CA,Pittsburg,2240 Gladstone Dr Ste 4,925-431-2100,Yes,-121.867705,38.00693101
NORTH EAST MEDICAL SERVICES - 2308 TARAVAL,CA,San Francisco,2308 Taraval St,415-391-9686,Yes,-122.4910436,37.74240909
CASTRO-MISSION HEALTH CENTER,CA,San Francisco,3580 17th St,415-934-7700,Yes,-122.4256827,37.763081
MCCLYMONDS HIGH SCHOOL,CA,Oakland,2607 Myrtle St,510-835-1393,Yes,-122.278619,37.81786934
NATIVE AMERICAN HEALTH CENTER,CA,San Francisco,160 Capp St,415-621-1170,Yes,-122.4186191,37.76406641
MISSION NEIGHBORHOOD RESOURCE CT,CA,San Francisco,165 Capp St,415-869-7977,Yes,-122.4185603,37.76403201
MISSION NEIGHBORHOOD HC,CA,San Francisco,165 Capp St,415-552-1013,Yes,-122.4185603,37.76403201
MISSION NEIGHBORHOOD HEALTH CTR,CA,San Francisco,240 Shotwell St,415-552-1013,Yes,-122.4163349,37.76461111
MISSION NEIGHBORHOOD HEALTH CENTER,CA,San Francisco,240 Shotwell St,415-552-3870 x225,Yes,-122.4163349,37.76461111
LifeLong Our Place - Supportive Housing Program,CA,Oakland,2577 San Pablo Ave,510-446-7100,Yes,-122.27571,37.81700098
MARTIN DE PORRES,CA,San Francisco,225 Potrero Ave,415-552-0240,Yes,-122.4076005,37.76658618
LifeLong Project Pride - Supportive Housing Program,CA,Oakland,2545 San Pablo Ave,510-446-7150,Yes,-122.27547,37.81625399
LifeLong Lenoir Pediatric Health Center,CA,Oakland,2940 Summit St Ste 1B,510-981-4177,Yes,-122.2647643,37.81852318
ST. VINCENTS STABLE SITE CLINIC,CA,Oakland,2272 San Pablo Ave,510-636-4236,Yes,-122.2740611,37.81336503
LifeLong Medical Care--West Oakland,CA,Oakland,991 14th St,510-407-1341,Yes,-122.2827889,37.80872517
SAINT MARTHA'S SHELTER,CA,San Francisco,1050 S Van Ness Ave,415-255-3525,Yes,-122.4167082,37.75649161
WEST OAKLAND HEALTH CENTER..,CA,Oakland,700 Adeline St,510-835-9610,Yes,-122.287389,37.80427101
Hamilton Apartments - Supportive Housing Program,CA,Oakland,510 21st St,510-286-8266,Yes,-122.2697248,37.81045538
LifeLong Medical Care - Downtown Oakland Clinic,CA,Oakland,616 16th St,510-451-4270,Yes,-122.2743239,37.80728121
Castro Mission Health Center @ ZSFG,CA,San Francisco,995 Potrero Ave # W81,415-934-7700,Yes,-122.4066784,37.75729713
"FAMILY HEALTH CENTER WARD 81, 85",CA,San Francisco,995 Potrero Ave Bldg 80,415-206-8000,Yes,-122.4066784,37.75729713
ADULT MEDICINE CLINICS,CA,San Francisco,995 Potrero Ave Fl 6,415-206-8494,Yes,-122.4066784,37.75729713
Dellums Apartment - Supportive Housing Program,CA,Oakland,644 14th St,510-444-4020,Yes,-122.275643,37.80633199
LifeLong The Savoy - Supportive Housing Program,CA,Oakland,1424 Jefferson St,510-725-0999,Yes,-122.274253,37.80617701
ZUCKERBERG SAN FRANCISCO GENERAL HOSPITAL,CA,San Francisco,1001 Potrero Ave,415-206-8238,Yes,-122.405817,37.75632799
S.F. GENERAL HOSP-FAM HLTH CTR,CA,San Francisco,1001 Potrero Ave,415-206-5252,Yes,-122.405817,37.75632799
SF GEN HOSPITAL URGENT CARE CTR,CA,San Francisco,1001 Potrero Ave Ste 6M,415-206-8000,Yes,-122.405817,37.75632799
SF GENERAL HOSP-POSITIVE HLTH,CA,San Francisco,1001 Potrero Ave,415-206-2400,Yes,-122.405817,37.75632799
CHILDREN'S HEALTH CENTER,CA,San Francisco,1001 Potrero Ave Ste 6M,415-206-8376,Yes,-122.405817,37.75632799
SF GENERAL HOSP WOMEN'S HLTH CTR,CA,San Francisco,1001 Potrero Ave Bldg 5F,415-206-8000,Yes,-122.405817,37.75632799
CARECEN,CA,San Francisco,1245 Alabama St,415-255-3525,Yes,-122.4108504,37.75198013
DAY LABOR PROGRAM,CA,San Francisco,3358 Cesar Chavez,415-255-3525,Yes,-122.417195,37.748442
WALDPORT SCHOOL BASED HEALTH CENTER,OR,Waldport,3000 S Crestline Dr,541-265-0471,Yes,-124.0652767,44.40489815
LINCOLN COMMUNITY HEALTH CENTER - NEWPORT,OR,Newport,1010 SW Coast Hwy Ste 203,541-265-4947,Yes,-124.0614433,44.62720612
LEE STREET MENTAL HEALTH CLINIC,OR,Newport,51 SW Lee St,541-574-5960,Yes,-124.0562714,44.63612966
LINCOLN COUNTY HEALTH AND HUMAN SERVICES,OR,Newport,36 SW Nye St,541-265-4179,Yes,-124.0556786,44.63612966
NEWPORT SCHOOL BASED HEALTH CENTER,OR,Newport,322 NE Eads St,541-265-9281,Yes,-124.0466415,44.63834177
TOLEDO SCHOOL BASED HEALTH CENTER,OR,Toledo,1800 NE Sturdevant Rd,541-336-5419,Yes,-123.923363,44.6334278
Alsea Rural Health Center,OR,Alsea,435 E Alder St,541-487-7116,Yes,-123.5940408,44.38262977
TAFT SCHOOL BASED HEALTH CENTER,OR,Lincoln City,3780 SE Spy Glass Ridge Dr,541-996-2311,Yes,-124.0181413,44.93790588
LINCOLN COMMUNITY HEALTH CENTER - LINCOLN CITY,OR,Lincoln City,4422 NE Devils Lake Blvd,541-557-2700,Yes,-123.9968597,44.99801716
MONROE HEALTH CENTER,OR,Monroe,610 Dragon Dr,541-847-5143,Yes,-123.298368,44.31118901
Brookside Clinic,OR,Eugene,1680 Chambers St Ste 103,541-682-3550,Yes,-123.1179464,44.04189241
LINCOLN HEALTH CENTER,OR,Corvallis,121 SE Viewmont Ave,541-766-3546,Yes,-123.2657674,44.54373042
BENTON HEALTH CENTER,OR,Corvallis,530 NW 27th St,541-766-6835,Yes,-123.2811985,44.57320001
White Bird Clinic Crisis Services,OR,Eugene,990 W 7th Ave,541-687-4000,Yes,-123.1077195,44.05213975
Shelter Care,OR,Eugene,499 W 4th Ave,541-686-1262,Yes,-123.099905,44.05586299
Charnelton Community Clinic,OR,Eugene,151 W 7th Ave Ste 100,541-682-3550,Yes,-123.095377,44.052441
First Place Family Center: Conference Room,OR,Eugene,1995 Amazon Pkwy,541-342-7728,Yes,-123.0896367,44.03794523
WHITE BIRD DENTAL CLINIC,OR,Eugene,1415 Pearl St,541-344-8302 x50330,Yes,-123.0896725,44.044151
Delta Oaks Clinic,OR,Eugene,1022 Green Acres Rd,541-682-3550,Yes,-123.0957312,44.09342662
WHITE BIRD CLINIC,OR,Eugene,341 E 12th Ave,541-342-8255,Yes,-123.087756,44.04664747
"Homeless Outreach, Case Management and Advocacy",OR,Eugene,323 E 12th Ave,541-342-1295,Yes,-123.087716,44.04696401
Chrysalis Behavioral Health,OR,Eugene,350 E 11th Ave,541-683-1641,Yes,-123.087547,44.04751202
White Bird Street Medicine,OR,Eugene,1400 Mill St,541-484-4800 x54134,Yes,-123.0867375,44.04420402
WHITE BIRD MEDICAL CLINIC,OR,Eugene,1400 Mill St,541-484-4800,Yes,-123.0867375,44.04420402
Boys and Girls Club of Corvallis,OR,Corvallis,1112 NW Circle Blvd,541-757-1909,Yes,-123.2645694,44.58868247
Lane County Mental Health,OR,Eugene,2411 Martin Luther King Jr Blvd,541-682-3797,Yes,-123.072972,44.061207
CHILDREN'S FARM HOME,OR,Corvallis,4455 NE Highway 20,541-766-6034,Yes,-123.2171486,44.60928557
Springfield Schools Health Center,OR,Springfield,1050 10th St,541-744-4130,Yes,-123.014715,44.05368902
Riverstone Clinic,OR,Springfield,2073 Olympic St,541-682-3550,Yes,-122.994638,44.05931801
Willamina School Based Health Center,OR,Willamina,1100 NE Oaken Hills Dr,503-876-8564,Yes,-123.4772199,45.08531254
TOTAL HEALTH COMMUNITY CLINIC,OR,Monmouth,180 Atwater St N,503-606-3288,Yes,-123.223833,44.84922702
TILLAMOOK COUNTY HEALTH DEPARTMENT,OR,Tillamook,801 Pacific Ave,503-842-3900,Yes,-123.8431109,45.45238999
Mobile Clinic,OR,Tillamook,1925 Suppress Rd N,503-842-3900,Yes,-123.846968,45.48645694
East Linn Health Center,OR,Lebanon,100 Mullins Dr Ste A1,541-451-6920,Yes,-122.9085355,44.5497194
ROCKWAY BEACH CLINIC,OR,Rockaway Beach,276 S Highway 101,503-355-2700,Yes,-123.9443419,45.61001335
WEST SALEM DENTAL CLINIC,OR,Salem,190 Kingwood Ave NW,503-378-7526,Yes,-123.0603593,44.94054341
QUICKCARE CLINIC,OR,Salem,1275 Edgewater St NW,503-588-5816,Yes,-123.0600797,44.94052979
WEST SALEM CLINIC,OR,Salem,1233 Edgewater St NW,503-378-7526,Yes,-123.0598754,44.94022502
WEST SALEM CLINIC MENTAL HEALTH,OR,Salem,1245 Edgewater St NW,503-588-5816,Yes,-123.0597604,44.9407758
NORTHWEST HUMAN SERVICES-HOAP AND  HOTLINE SERVICES,OR,Salem,694 Church St NE,503-588-5827,Yes,-123.0320047,44.94557297
NORTHWEST HUMAN SERVICES-HOST,OR,Salem,1143 Liberty St NE,503-588-5825,Yes,-123.0345109,44.95125791
Sweet Home Health Center,OR,Sweet Home,799 Long St,541-367-3888,Yes,-122.7342975,44.39631306
Lancaster Family Health Center at Lancaster,OR,Salem,255 Lancaster Dr NE,503-588-0076,Yes,-122.984719,44.929953
Lancaster Family Health Center at Beverly,OR,Salem,3896 Beverly Ave NE,503-588-0076,Yes,-122.9848846,44.96085196
The Rinehart Clinic &amp; Pharmacy,OR,Wheeler,230 Rowe Rd,800-368-5182,Yes,-123.8839339,45.6864882
Evans Street Mental Health Integration Site,OR,Mcminnville,627 NE Evans St,503-434-7523,Yes,-123.194479,45.2126489
VIRGINIA GARCIA MEMORIAL HEALTH CENTER- MCMINNVILLE,OR,Mcminnville,115 NE May Ln,503-472-1338,Yes,-123.160759,45.20162062
SALUD MEDICAL CENTER,OR,Woodburn,1175 Mount Hood Ave,503-982-2000,Yes,-122.841282,45.15246998
Pacific Pedatrics,OR,Woodburn,1475 Mount Hood Ave,509-865-6175,Yes,-122.836229,45.15264998
VIRGINIA GARCIA MEMORIAL HEALTH CENTER- NEWBERG DENTAL,OR,Newberg,2251 E Hancock St Ste 106,971-281-3050,Yes,-122.95676,45.30122752
VIRGINIA GARCIA MEMORIAL HEALTH CENTER- NEWBERG,OR,Newberg,2251 E Hancock St Ste 103,503-359-8503,Yes,-122.95676,45.30122752
Forest Grove High School,OR,Forest Grove,1401 Nichols Ln,503-359-4057,Yes,-123.120796,45.53381745
Forest Grove School-Based Health Center,OR,Forest Grove,1715 Nichols Ln,503-359-8503,Yes,-123.120796,45.53381745
VIRGINIA GARCIA MEMORIAL HEALTH CENTER- CORNELIUS DENTAL,OR,Cornelius,44 N 11th Ave,503-359-8505,Yes,-123.057613,45.52025201
VIRGINIA GARCIA MOBILE VAN,OR,Cornelius,1151 N Adair St,503-359-8527,Yes,-123.0576343,45.52090752
VIRGINIA GARCIA MEMORIAL HEALTH CENTER- CORNELIUS,OR,Cornelius,1151 N Adair St,503-359-5564,Yes,-123.0576343,45.52090752
Virginia Garcia/Lifeworks NW Hillsboro,OR,Hillsboro,971 SW Walnut St,503-640-5297,Yes,-123.000546,45.51763749
NHC Hillsboro Reproductive Health Clinic,OR,Hillsboro,266 W Main St,503-846-8851,Yes,-122.9926905,45.52266653
VIRGINA GARCIA MEMORIAL HEALTH CENTER- HILLSBORO DENTAL,OR,Hillsboro,730 SE Oak St,503-352-2354,Yes,-122.9781833,45.51875919
Virginia Garcia Memorial Health Center- Hillsboro Womens Clinic,OR,Hillsboro,333 SE 7th Ave Ste 5500,503-681-1111,Yes,-122.979402,45.51993601
VIRGINIA GARCIA MEMORIAL HEALTH CENTER- HILLSBORO,OR,Hillsboro,226 SE 8th Ave Ste 100,503-601-7400,Yes,-122.9772249,45.52093069
NHC Canby Medical Clinic,OR,Canby,178 SW 2nd Ave,503-416-4547,Yes,-122.6924159,45.26093718
NHC Tualatin SBHC,OR,Tualatin,22300 SW Boones Ferry Rd Rm 26A,503-941-3180,Yes,-122.772242,45.35901299
Hillsboro School-Based Health Center,OR,Hillsboro,1998 SE Century Blvd,503-352-8628,Yes,-122.9166405,45.50534224
Tigard School Based Health Center,OR,Tigard,9000 SW Durham Rd Bldg 7110,,Yes,-122.769428,45.40426248
NHC Merlo Station SBHC,OR,Beaverton,1841 SW Merlo Dr Rm Sbhc,503-941-3210,Yes,-122.8472688,45.50609032
NHC Administration and Pharmacy,OR,Portland,7320 SW Hunziker Rd Ste 300,503-941-3033,Yes,-122.753785,45.42561299
NHC Tanasbourne Medical &amp; Dental Clinic,OR,Hillsboro,10690 NE Cornell Rd Ste 220,503-848-5861,Yes,-122.8698299,45.53424908
Virginia Garcia Beaverton School Based Health Center,OR,Beaverton,13000 SW 2nd St,503-259-5000,Yes,-122.810728,45.48572402
Virginia Garcia Beaverton Dental Clinic,OR,Beaverton,12600 SW Crescent St,503-352-2354,Yes,-122.8073525,45.49100818
NHC Beaverton Medical Clinic,OR,Beaverton,17200 NW Corridor Ct Ste 110,503-213-3800,Yes,-122.854063,45.53495898
Virginia Garcia Beaverton Wellness Center,OR,Beaverton,2725 SW Cedar Hills Blvd Ste 200,503-352-6013,Yes,-122.80915,45.50035098
Virginia Garcia/LifeWorks NW Beaverton,OR,Beaverton,10700 SW Beaverton Hillsdale Hwy Bldg 1,503-644-2545,Yes,-122.786828,45.48554498
Stewart Behavioral Health Clinic,OR,Oregon City,1002 Library Ct,503-655-8264,Yes,-122.600709,45.333108
Hilltop Behavioral Health Clinic,OR,Oregon City,998 Library Ct,503-655-8401,Yes,-122.6006646,45.33460648
Beavercreek Health Center,OR,Oregon City,110 Beavercreek Rd Ste 100,503-655-8471,Yes,-122.5984549,45.33580312
NHC Oregon City Medical Clinic,OR,Oregon City,728 Molalla Ave,503-656-9030,Yes,-122.597078,45.34537701
NHC Oregon City Dental Clinic,OR,Oregon City,19029 Beavercreek Rd,503-941-3064,Yes,-122.572762,45.32947801
Oregon City High School SBHC,OR,Oregon City,19761 Beavercreek Rd Rm A-145,503-785-8770,Yes,-122.560686,45.31989502
Gladstone Health Clinic,OR,Gladstone,18911 Portland Ave,503-655-2777,Yes,-122.598214,45.384463
Coastal Family Health Center,OR,Astoria,2158 Exchange St Ste 304,503-325-8315,Yes,-123.8176614,46.18859748
Rex Putnam High School SBHC,OR,Milwaukie,4950 SE Roethe Rd Rm D50-D73,503-353-5884,Yes,-122.609967,45.40047202
Outreach Medical  Van II,OR,Portland,2301 SE Willard St,503-535-3832,Yes,-122.6373101,45.44063177
Milwaukie High School Health and Wellness Center,OR,Portland,2301 SE Willard St,503-535-3804,Yes,-122.6373101,45.44063177
NHC Milwaukie Medical Clinic,OR,Milwaukie,10330 SE 32nd Ave Ste 325,503-305-6282,Yes,-122.6297412,45.44866356
NARA Residential Treatment Center,OR,Portland,17645 NW Saint Helens Rd,503-621-1089 x253,Yes,-122.850324,45.65014201
NHC Milwaukie Dental Clinic,OR,Milwaukie,3300 SE Dwyer Dr,503-850-4479,Yes,-122.627897,45.45022745
NARA Adult Mental Health Serivces,OR,Portland,1310 SW 17th Ave,503-936-8241,Yes,-122.691265,45.51735799
OUTPATIENT TREATMENT PROGRAM,OR,Portland,1631 SW Columbia St,503-231-2641 x240,Yes,-122.6909317,45.51707183
YOUTH TREATMENT PROGRAM,OR,Portland,1776 SW Madison St,503-224-1044 x249,Yes,-122.6920371,45.51855702
Outside In 1226,OR,Portland,1226 SW 12th Ave,503-535-3800,Yes,-122.6860036,45.5170013
OUTSIDE IN,OR,Portland,1132 SW 13th Ave,503-535-3804,Yes,-122.6868099,45.51771099
Outreach Medical Van I,OR,Portland,1132 SW 13th Ave,503-535-3804,Yes,-122.6868099,45.51771099
North Portland Health Center,OR,Portland,9000 N Lombard St,503-988-5304,Yes,-122.757311,45.59233801
Old Town Clinic,OR,Portland,727 W Burnside St,503-228-4533,Yes,-122.6780195,45.52299361
CCC Recovery Center,OR,Portland,726 W Burnside St,503-944-4410,Yes,-122.6780195,45.52299361
MCHD Mental Health and Addiction Services,OR,Portland,421 SW Oak St,503-988-3674,Yes,-122.6756097,45.52133935
Billi Odegaard Dental Clinic,OR,Portland,33 NW Broadway Ste 380,503-988-5770,Yes,-122.6774936,45.52347712
Old Town Recovery Center,OR,Portland,33 NW Broadway,503-228-7134,Yes,-122.6774936,45.52347712
Imani Center,OR,Portland,709 NW Everett St,503-226-4060,Yes,-122.6779728,45.5252084
Cascade AIDS Project,OR,Portland,520 NW Davis St Ste 215,503-223-5907,No,-122.6758258,45.52446895
Bud Clark Commons,OR,Portland,665 NW Hoyt St,503-228-4533,Yes,-122.677305,45.52764799
HIV Health Services Center,OR,Portland,619 NW 6th Ave,503-988-3700,Yes,-122.6766301,45.52754175
NARA Totem Lodge Community Center,OR,Portland,1438 SE Division St,503-548-0346,Yes,-122.651016,45.50484247
Roosevelt High School Student Health Center,OR,Portland,6941 N Central St,503-988-3909,Yes,-122.738034,45.589222
Cleveland High School Student Health Center,OR,Portland,3400 SE 26th Ave,503-248-3350,Yes,-122.638602,45.49849699
Southeast Health Center,OR,Portland,3653 SE 34th Ave,503-988-5155,Yes,-122.6293115,45.49604901
Hooper Detoxification and Stabilization Center,OR,Portland,1535 N Williams Ave,503-238-2067,Yes,-122.666763,45.53615097
Sunnyside Health Center,OR,Clackamas,9775 SE Sunnyside Rd Ste 200,503-655-8471,Yes,-122.563217,45.43434299
Prism Health,OR,Portland,2236 SE Belmont St,503-445-7699,No,-122.642784,45.51623901
Benson Wellness Center,OR,Portland,546 NE 12th Ave,503-916-5100,Yes,-122.65205,45.527247
NARA HEALTH CLINIC,OR,Portland,15 N Morris St,503-230-9875 x238,Yes,-122.666974,45.54493701
OHSU Family Medicine at Richmond,OR,Portland,3930 SE Division St,503-418-3900,Yes,-122.621461,45.5047625
OHSU Richmond Immediate Care,OR,Portland,4212 SE Division St,503-418-3900,Yes,-122.618346,45.50499799
LETTY OWINGS CENTER,OR,Portland,2545 NE Flanders St,503-235-3546,Yes,-122.639491,45.52607999
Lifeworks Satellite Clinic,OR,Portland,3716 NE Martin Luther King Jr Blvd,503-288-8066,Yes,-122.6615226,45.54962274
Jefferson High School Student Health Center,OR,Portland,5210 N Kerby Ave,503-988-3360,Yes,-122.6729425,45.56035162
Franklin High School Student Health Center,OR,Portland,5405 SE Woodward St,503-988-3370,Yes,-122.606912,45.503317
Northeast Health Center,OR,Portland,5329 NE M L King Blvd,503-988-5183,Yes,-122.661845,45.56217301
Rosewood Family Health Center at Lents,OR,Portland,9047 SE Foster Rd,503-772-4335,Yes,-122.5703476,45.48037737
Madison High School (at Marshall Campus) SBHC,OR,Portland,3905 SE 91st Ave,503-988-3382,Yes,-122.572935,45.49381201
ROSEWOOD FAMILY HEALTH CENTER,OR,Portland,8935 SE Powell Blvd,503-772-4335,Yes,-122.570837,45.49775
Mid County Health Center,OR,Portland,12710 SE Division St,503-988-3601,Yes,-122.53224,45.50227899
La Clinica de Buena Salud,OR,Portland,6736 NE Killingsworth St,503-988-3991,Yes,-122.5932708,45.56268171
Blackburn Center,OR,Portland,12121 E Burnside St,971-361-7700,Yes,-122.538319,45.52260749
Blackburn Center Recuperative Care Program,OR,Portland,12133 E Burnside St,503-517-0321,Yes,-122.538185,45.52260749
NARA Dental Clinic,OR,Portland,12750 SE Stark St,971-347-3009,Yes,-122.533309,45.51903253
Puentes,OR,Portland,12672 SE Stark St Ste 12672,503-546-9975,Yes,-122.533309,45.51903253
NARA Wellness Center,OR,Portland,12360 E Burnside St,971-279-4800,Yes,-122.535574,45.52200701
David Douglas High School Student Health Center,OR,Portland,1034 SE 130th Ave,503-988-3554,Yes,-122.528416,45.51573802
Sea Mar CHC - Vancouver 317 E 39th St,WA,Vancouver,317 E 39th St,360-546-1722,Yes,-122.667972,45.6498825
Sea Mar CHC - Vancouver 1601 E Fourth Plain Blvd,WA,Vancouver,1601 E Fourth Plain Blvd Bldg 17,360-397-8484,Yes,-122.655388,45.63938507
Parkrose High School Student Health Center,OR,Portland,12003 NE Shaver St,503-988-3392,Yes,-122.5388789,45.55177069
Sea Mar CHC - Vancouver 5411 E. Mill Plain Blvd.,WA,Vancouver,5411 E Mill Plain Blvd,360-831-0904,Yes,-122.614598,45.62738401
Centennial High School Student Health Center,OR,Gresham,3505 SE 182nd Ave,503-988-5488,Yes,-122.4756075,45.49627901
Outside In East Side,OR,Portland,16144 E Burnside St,503-535-3800,Yes,-122.4971749,45.52200826
Rockwood Community Health Center,OR,Portland,2020 SE 182nd Ave,503-988-5400,Yes,-122.4756191,45.50756173
Sea Mar CHC - Vancouver Delaware Lane,WA,Vancouver,7410 Delaware Ln,360-566-4402,Yes,-122.594662,45.62423748
Sea Mar CHC - Vancouver Fourth Plain,WA,Vancouver,6100 NE Fourth Plain Blvd,206-763-5277,Yes,-122.609457,45.643742
Sea Mar CHC - Vancouver NE 88th St.,WA,Vancouver,1412 NE 88th St,360-574-4074,Yes,-122.657091,45.686252
Wallace Mobile Van,OR,Portland,124 NE 181st Ave,503-489-1760,Yes,-122.4771125,45.52300601
Wallace Rockwood Clinic,OR,Portland,124 NE 181st Ave,503-489-1760,Yes,-122.4771125,45.52300601
Wallace Dental Clinic,OR,Portland,18139 NE Couch St,503-489-1760,Yes,-122.4757757,45.5227297
LifeWorks NW,OR,Portland,18417 SE Oak St Ste 113,971-727-8026,Yes,-122.4729949,45.51995182
Sea Mar CHC - Vancouver 7803 NE Fourth Plain Rd.,WA,Vancouver,7803 NE Fourth Plain Blvd,360-397-9211,Yes,-122.5926738,45.64706702
Wallace Medical Concern East Side Clinic,OR,Gresham,254 NW Burnside Rd,503-489-1760,Yes,-122.434054,45.50862501
Child and Family Mental Health Center,OR,Gresham,620 NE 2nd St,503-224-1044,Yes,-122.424499,45.49891248
East County Health Center,OR,Gresham,600 NE 8th St,503-988-5155,Yes,-122.4250015,45.50292247
FAMILY HLTH CTR NO. BEACH CLINIC,WA,Ocean Park,21610 Pacific Way,360-665-3000,Yes,-124.0527902,46.45927855
Community Health Center of Clatskanie,OR,Clatskanie,401 SW Belair Dr,503-728-5088,Yes,-123.2091231,46.10463289
Sea Mar CHC - Vancouver NE 20th Ave.,WA,Vancouver,14508 NE 20th Ave,360-852-9070,Yes,-122.6513974,45.72642101
Wahkiakum Clinic,WA,Cathlamet,335 Una Ave,360-795-3201,Yes,-123.3845812,46.20584702
Sea Mar CHC - Vancouver Behavioral Health,WA,Vancouver,5501 NE 109th Ct,360-566-4432,Yes,-122.559842,45.66197398
Sea Mar CHC - Vancouver Evergreen High School,WA,Vancouver,14300 NE 18th St Rm 213,360-123-4567,Yes,-122.5257884,45.63574547
Sea Mar CHC - Vancouver 34th St.,WA,Vancouver,19005 SE 34th St,360-726-6720,Yes,-122.479611,45.595881
Sea Mar CHC - Vancouver NE 65th St.,WA,Vancouver,11801 NE 65th St,360-892-0208,Yes,-122.5512565,45.66994195
Sandy High School SBHC &amp; Sandy Health Clinic,OR,Sandy,37400 Bell St Rm 4-18D,503-655-8471,Yes,-122.2780528,45.4074448
Sandy Behavioral Health Clinic,OR,Sandy,38872 Proctor Blvd,503-722-6960,Yes,-122.263222,45.39711402
Sea Mar CHC - Battle Ground NE 189th St.,WA,Battle Ground,11117 NE 189th St,206-763-5277,Yes,-122.5580944,45.75876866
Gilchrist School Based Health Center,OR,Gilchrist,350 Mississippi Dr,541-433-2273,Yes,-121.6841464,43.47899414
WOODLAND CLINIC,WA,Woodland,1251 Lewis River Rd Ste D,360-225-4310,Yes,-122.7400052,45.90886774
Sea Mar CHC - Battle Ground,WA,Battle Ground,118 S Parkway Ave,206-763-5277,Yes,-122.5373875,45.77941899
14th Avenue Clinic,WA,Longview,784 14th Ave,360-703-6400,Yes,-122.9392857,46.12815624
COWLITZ FAMILY HEALTH CENTER,WA,Longview,1057 12th Ave,360-636-3892,Yes,-122.9345848,46.13317327
FHC Olympia Way Clinic,WA,Longview,1717 Olympia Way,360-423-7740,Yes,-122.9397903,46.14073639
Grade Street Campus,WA,Kelso,621 Grade St,360-501-6131,Yes,-122.9069875,46.14204263
FHC Kelso Clinic,WA,Kelso,300 Oak St Ste B,360-353-5511,Yes,-122.9100653,46.14397277
Sea Mar CHC - Kelso Allen St.,WA,Kelso,1710 Allen St,206-763-5277,Yes,-122.8943696,46.1451449
La Pine School Based Health Center,OR,La Pine,51605 Coach Rd,541-536-3435,Yes,-121.5055922,43.6754197
LaPine Community Health Center,OR,La Pine,51600 Huntington Rd,541-536-3435,Yes,-121.5042243,43.67511047
Castle Rock Clinic,WA,Castle Rock,139 1st Ave SW,360-274-2353,Yes,-122.9089987,46.27475368
Valley View Health Center - Raymond,WA,Raymond,300 Ocean Ave,360-942-3040,Yes,-123.7363298,46.68138629
Harriman Health Clinic,OR,Bend,1128 NW Harriman St,541-383-3005,Yes,-121.3100818,44.06107146
Bend High School-Based Health Center,OR,Bend,230 NE 6th St Rm S-19,541-383-3005,Yes,-121.2972018,44.05320999
Ariels Community Clinic,OR,Bend,1700 SE Tempest Dr,541-383-3005,Yes,-121.2800901,44.04600747
Ensworth Community School-Based Health Center,OR,Bend,2150 NE Daggett Ln,541-383-3005,Yes,-121.2759666,44.07131858
East Bend Clinic,OR,Bend,2084 NE Professional Ct,541-383-3005,Yes,-121.2719413,44.06490748
Mosaic Medical Courtney Clinic,OR,Bend,2577 NE Courtney Dr Ste 100,541-383-3005,Yes,-121.2670498,44.07256251
Valley View Health Center - Pe Ell,WA,Pe Ell,402 N Main St,360-291-3232,Yes,-123.2976234,46.57265411
Complex Care Center,OR,Bend,2965 NE Conners Ave Ste 280,541-383-3005,Yes,-121.25991,44.0701025
Redmond High School-Based Health Center,OR,Redmond,675 SW Rimrock Way,541-383-3005,Yes,-121.190562,44.27059252
Lynch School-Based Health Center,OR,Redmond,1314 SW Kalama Ave Rm B,541-383-3005,Yes,-121.1824,44.26660252
Valley View Health Center - Toledo,WA,Toledo,117 Ramsey Way,360-864-4400,Yes,-122.8467705,46.43883773
Redmond Clinic,OR,Redmond,1250 SW Veterans Way Ste 120,541-383-3005,Yes,-121.1795316,44.26486001
Valley View Health Center-Winlock,WA,Winlock,100 Cedar Crest Dr,360-785-9400,Yes,-122.9244901,46.49012002
Sea Mar CHC - Ocean Shores Point Brown Ave.,WA,Ocean Shores,597 Point Brown Ave NW,360-289-2427,Yes,-124.1608297,47.00209559
Madras Clinic,OR,Madras,850 SW 4th St Ste 101,541-383-3005,Yes,-121.1307036,44.62395726
Madras High School-Based Health Center,OR,Madras,390 SE 10th St,541-383-3005,Yes,-121.1244613,44.63061034
