{
"type": "FeatureCollection",
"name": "hospital_point_final",
"crs": { "type": "name", "properties": { "name": "urn:ogc:def:crs:OGC:1.3:CRS84" } },
"features": [
{ "type": "Feature", "properties": { "fid": 0, "hospital_name": "Alexandria Emergency Hospital", "address": "5900 Coliseum Blvd", "city": "Alexandria", "zip": 71303, "placekey": "22b@8dx-9df-td9", "hospital_pk": "ee04edd185865c38c839812cb2eb5ae5d3f8922e3b629ee98c7d9424a37826c4", "Longitude": -92.509885267414788, "Latitude": 31.295698690957511, "geometry": "POINT (-92.50988526741479 31.29569869095751)" }, "geometry": { "type": "Point", "coordinates": [ -92.509885267414788, 31.295698690957511 ] } },
{ "type": "Feature", "properties": { "fid": 1, "hospital_name": "Elite Medical Center", "address": "150 E Harmon Ave", "city": "Las Vegas", "zip": 89109, "placekey": "222@5yv-j89-wff", "hospital_pk": "f70d7abf93c78280583ac18e896e6737cca8212b017513ffdcf3f4de52d49be4", "Longitude": -115.16587005703053, "Latitude": 36.108047434179305, "geometry": "POINT (-115.1658700570305 36.1080474341793)" }, "geometry": { "type": "Point", "coordinates": [ -115.165870057030531, 36.108047434179305 ] } },
{ "type": "Feature", "properties": { "fid": 2, "hospital_name": "PRATTVILLE BAPTIST HOSPITAL", "address": "124 S MEMORIAL DR", "city": "PRATTVILLE", "zip": 36067, "placekey": "222@8gm-zc8-s5z", "hospital_pk": "010108", "Longitude": -86.451869266298232, "Latitude": 32.464415232712291, "geometry": "POINT (-86.45186926629823 32.46441523271229)" }, "geometry": { "type": "Point", "coordinates": [ -86.451869266298232, 32.464415232712291 ] } },
{ "type": "Feature", "properties": { "fid": 3, "hospital_name": "SOUTH BALDWIN REGIONAL MEDICAL CENTER", "address": "1613 NORTH MCKENZIE STREET", "city": "FOLEY", "zip": 36535, "placekey": "222@8f3-jcc-2rk", "hospital_pk": "010083", "Longitude": -87.684578846359486, "Latitude": 30.426366051027696, "geometry": "POINT (-87.68457884635949 30.4263660510277)" }, "geometry": { "type": "Point", "coordinates": [ -87.684578846359486, 30.426366051027696 ] } },
{ "type": "Feature", "properties": { "fid": 4, "hospital_name": "THOMAS HOSPITAL", "address": "750 MORPHY AVENUE", "city": "FAIRHOPE", "zip": 36532, "placekey": "22c@8f3-p2w-5mk", "hospital_pk": "010100", "Longitude": -87.889071858193589, "Latitude": 30.518894065818337, "geometry": "POINT (-87.88907185819359 30.51889406581834)" }, "geometry": { "type": "Point", "coordinates": [ -87.889071858193589, 30.518894065818337 ] } },
{ "type": "Feature", "properties": { "fid": 5, "hospital_name": "NORTH BALDWIN INFIRMARY", "address": "1815 HAND AVENUE", "city": "BAY MINETTE", "zip": 36507, "placekey": "224@8f3-kjj-sh5", "hospital_pk": "010129", "Longitude": -87.785217358962512, "Latitude": 30.903253734901394, "geometry": "POINT (-87.78521735896251 30.90325373490139)" }, "geometry": { "type": "Point", "coordinates": [ -87.785217358962512, 30.903253734901394 ] } },
{ "type": "Feature", "properties": { "fid": 6, "hospital_name": "MEDICAL CENTER BARBOUR", "address": "820 W WASHINGTON ST", "city": "EUFAULA", "zip": 36027, "placekey": "222@8gn-pn9-mzf", "hospital_pk": "010069", "Longitude": -85.156263768866438, "Latitude": 31.888205377744672, "geometry": "POINT (-85.15626376886644 31.88820537774467)" }, "geometry": { "type": "Point", "coordinates": [ -85.156263768866438, 31.888205377744672 ] } },
{ "type": "Feature", "properties": { "fid": 7, "hospital_name": "BIBB MEDICAL CENTER", "address": "208 PIERSON AVE", "city": "CENTREVILLE", "zip": 35042, "placekey": "222@8gn-8mh-btv", "hospital_pk": "010058", "Longitude": -87.146638472191029, "Latitude": 32.951163290174932, "geometry": "POINT (-87.14663847219103 32.95116329017493)" }, "geometry": { "type": "Point", "coordinates": [ -87.146638472191029, 32.951163290174932 ] } },
{ "type": "Feature", "properties": { "fid": 8, "hospital_name": "ST VINCENTS BLOUNT", "address": "150 GILBREATH DRIVE", "city": "ONEONTA", "zip": 35121, "placekey": "222@8gm-rp7-7yv", "hospital_pk": "011305", "Longitude": -86.494460323110303, "Latitude": 33.932574499425108, "geometry": "POINT (-86.4944603231103 33.93257449942511)" }, "geometry": { "type": "Point", "coordinates": [ -86.494460323110303, 33.932574499425108 ] } },
{ "type": "Feature", "properties": { "fid": 9, "hospital_name": "BULLOCK COUNTY HOSPITAL", "address": "102 WEST CONECUH AVENUE", "city": "UNION SPRINGS", "zip": 36089, "placekey": "222@8gn-m9b-6tv", "hospital_pk": "010110", "Longitude": -85.712710779648447, "Latitude": 32.146714212195327, "geometry": "POINT (-85.71271077964845 32.14671421219533)" }, "geometry": { "type": "Point", "coordinates": [ -85.712710779648447, 32.146714212195327 ] } },
{ "type": "Feature", "properties": { "fid": 10, "hospital_name": "REGIONAL MEDICAL CENTER OF CENTRAL ALABAMA", "address": "29 L V STABLER DRIVE", "city": "GREENVILLE", "zip": 36037, "placekey": "222@8gn-4dn-rx5", "hospital_pk": "010150", "Longitude": -86.647139776749668, "Latitude": 31.829780723068325, "geometry": "POINT (-86.64713977674967 31.82978072306832)" }, "geometry": { "type": "Point", "coordinates": [ -86.647139776749668, 31.829780723068325 ] } },
{ "type": "Feature", "properties": { "fid": 11, "hospital_name": "STRINGFELLOW MEMORIAL HOSPITAL", "address": "301 EAST 18TH ST", "city": "ANNISTON", "zip": 36201, "placekey": "224@8gm-v8k-ysq", "hospital_pk": "010038", "Longitude": -85.825092985878143, "Latitude": 33.66794792458542, "geometry": "POINT (-85.82509298587814 33.66794792458542)" }, "geometry": { "type": "Point", "coordinates": [ -85.825092985878143, 33.66794792458542 ] } },
{ "type": "Feature", "properties": { "fid": 12, "hospital_name": "NOLAND HOSPITAL ANNISTON II, LLC", "address": "400 EAST 10TH STREET, 4TH FLOOR", "city": "ANNISTON", "zip": 36202, "placekey": "222@8gm-v8m-v4v", "hospital_pk": "012011", "Longitude": -85.823527241568556, "Latitude": 33.656387072848752, "geometry": "POINT (-85.82352724156856 33.65638707284875)" }, "geometry": { "type": "Point", "coordinates": [ -85.823527241568556, 33.656387072848752 ] } },
{ "type": "Feature", "properties": { "fid": 13, "hospital_name": "NORTHEAST ALABAMA REGIONAL MEDICAL CENTER", "address": "400 EAST 10TH STREET", "city": "ANNISTON", "zip": 36207, "placekey": "222@8gm-v8m-v4v", "hospital_pk": "010078", "Longitude": -85.823527241568556, "Latitude": 33.656387072848752, "geometry": "POINT (-85.82352724156856 33.65638707284875)" }, "geometry": { "type": "Point", "coordinates": [ -85.823527241568556, 33.656387072848752 ] } },
{ "type": "Feature", "properties": { "fid": 14, "hospital_name": "EAMC - LANIER", "address": "4800 48TH STREET", "city": "VALLEY", "zip": 36854, "placekey": "222@8gn-kbk-fj9", "hospital_pk": "010175", "Longitude": -85.169034846472442, "Latitude": 32.82461805397871, "geometry": "POINT (-85.16903484647244 32.82461805397871)" }, "geometry": { "type": "Point", "coordinates": [ -85.169034846472442, 32.82461805397871 ] } },
{ "type": "Feature", "properties": { "fid": 15, "hospital_name": "FLOYD CHEROKEE MEDICAL CENTER", "address": "400 NORTHWOOD DR", "city": "CENTRE", "zip": 35960, "placekey": "222@8gm-pmm-45f", "hospital_pk": "010022", "Longitude": -85.651771604632671, "Latitude": 34.162143422585785, "geometry": "POINT (-85.65177160463267 34.16214342258579)" }, "geometry": { "type": "Point", "coordinates": [ -85.651771604632671, 34.162143422585785 ] } },
{ "type": "Feature", "properties": { "fid": 16, "hospital_name": "ST VINCENT'S CHILTON", "address": "2030 LAY DAM ROAD", "city": "CLANTON", "zip": 35045, "placekey": "222@8gk-xkn-fvf", "hospital_pk": "010173", "Longitude": -86.622981068669702, "Latitude": 32.879791139652184, "geometry": "POINT (-86.6229810686697 32.87979113965218)" }, "geometry": { "type": "Point", "coordinates": [ -86.622981068669702, 32.879791139652184 ] } },
{ "type": "Feature", "properties": { "fid": 17, "hospital_name": "CHOCTAW GENERAL HOSPITAL", "address": "401 VANITY FAIR LANE, PO BOX 618", "city": "BUTLER", "zip": 36904, "placekey": "22w@8f4-btp-x3q", "hospital_pk": "011304", "Longitude": -88.226985561038134, "Latitude": 32.09369149618481, "geometry": "POINT (-88.22698556103813 32.09369149618481)" }, "geometry": { "type": "Point", "coordinates": [ -88.226985561038134, 32.09369149618481 ] } },
{ "type": "Feature", "properties": { "fid": 18, "hospital_name": "GROVE HILL MEMORIAL HOSPITAL", "address": "295 JACKSON HWY S", "city": "GROVE HILL", "zip": 36451, "placekey": "222@8f4-9yb-rhq", "hospital_pk": "010091", "Longitude": -87.776906993645568, "Latitude": 31.694713347747076, "geometry": "POINT (-87.77690699364557 31.69471334774708)" }, "geometry": { "type": "Point", "coordinates": [ -87.776906993645568, 31.694713347747076 ] } },
{ "type": "Feature", "properties": { "fid": 19, "hospital_name": "JACKSON MEDICAL CENTER", "address": "220 HOSPITAL DRIVE", "city": "JACKSON", "zip": 36545, "placekey": "223@8f4-9sv-49z", "hospital_pk": "010128", "Longitude": -87.895031748653409, "Latitude": 31.531814028199918, "geometry": "POINT (-87.89503174865341 31.53181402819992)" }, "geometry": { "type": "Point", "coordinates": [ -87.895031748653409, 31.531814028199918 ] } },
{ "type": "Feature", "properties": { "fid": 20, "hospital_name": "THOMASVILLE REGIONAL MEDICAL CENTER", "address": "300 MED PARK DRIVE", "city": "THOMASVILLE", "zip": 36784, "placekey": "22f@8f4-9gv-4d9", "hospital_pk": "010174", "Longitude": -87.737082682625967, "Latitude": 31.870572441310461, "geometry": "POINT (-87.73708268262597 31.87057244131046)" }, "geometry": { "type": "Point", "coordinates": [ -87.737082682625967, 31.870572441310461 ] } },
{ "type": "Feature", "properties": { "fid": 21, "hospital_name": "CLAY COUNTY HOSPITAL", "address": "83825 HIGHWAY 9    P O BOX 1270", "city": "ASHLAND", "zip": 36251, "placekey": "236@8gk-vk3-t5f", "hospital_pk": "010073", "Longitude": -85.847623729695513, "Latitude": 33.24349540301133, "geometry": "POINT (-85.84762372969551 33.24349540301133)" }, "geometry": { "type": "Point", "coordinates": [ -85.847623729695513, 33.24349540301133 ] } },
{ "type": "Feature", "properties": { "fid": 22, "hospital_name": "MEDICAL CENTER ENTERPRISE", "address": "400 N EDWARDS STREET", "city": "ENTERPRISE", "zip": 36330, "placekey": "222@8gh-tq5-vj9", "hospital_pk": "010049", "Longitude": -85.85433925423618, "Latitude": 31.319101639094367, "geometry": "POINT (-85.85433925423618 31.31910163909437)" }, "geometry": { "type": "Point", "coordinates": [ -85.85433925423618, 31.319101639094367 ] } },
{ "type": "Feature", "properties": { "fid": 23, "hospital_name": "HELEN KELLER MEMORIAL HOSPITAL", "address": "1300 SOUTH MONTGOMERY AVENUE", "city": "SHEFFIELD", "zip": 35660, "placekey": "222@5pn-6r3-wtv", "hospital_pk": "010019", "Longitude": -87.699573752958472, "Latitude": 34.746792868881222, "geometry": "POINT (-87.69957375295847 34.74679286888122)" }, "geometry": { "type": "Point", "coordinates": [ -87.699573752958472, 34.746792868881222 ] } },
{ "type": "Feature", "properties": { "fid": 24, "hospital_name": "SHOALS HOSPITAL", "address": "201 WEST AVALON AVENUE", "city": "MUSCLE SHOALS", "zip": 35661, "placekey": "222@5pn-6qs-jsq", "hospital_pk": "010157", "Longitude": -87.675617396374832, "Latitude": 34.747417979106991, "geometry": "POINT (-87.67561739637483 34.74741797910699)" }, "geometry": { "type": "Point", "coordinates": [ -87.675617396374832, 34.747417979106991 ] } },
{ "type": "Feature", "properties": { "fid": 25, "hospital_name": "EVERGREEN MEDICAL CENTER", "address": "101 CRESTVIEW AVENUE", "city": "EVERGREEN", "zip": 36401, "placekey": "222@8f4-2p6-mtv", "hospital_pk": "010148", "Longitude": -86.940658491180059, "Latitude": 31.430700519880244, "geometry": "POINT (-86.94065849118006 31.43070051988024)" }, "geometry": { "type": "Point", "coordinates": [ -86.940658491180059, 31.430700519880244 ] } },
{ "type": "Feature", "properties": { "fid": 26, "hospital_name": "MIZELL MEMORIAL HOSPITAL", "address": "702 N MAIN ST", "city": "OPP", "zip": 36467, "placekey": "223@8gh-zhj-st9", "hospital_pk": "010007", "Longitude": -86.254413057164683, "Latitude": 31.291442223044804, "geometry": "POINT (-86.25441305716468 31.2914422230448)" }, "geometry": { "type": "Point", "coordinates": [ -86.254413057164683, 31.291442223044804 ] } },
{ "type": "Feature", "properties": { "fid": 27, "hospital_name": "ANDALUSIA HEALTH", "address": "849 SOUTH THREE NOTCH STREET", "city": "ANDALUSIA", "zip": 36420, "placekey": "222@8gj-26q-8jv", "hospital_pk": "010036", "Longitude": -86.495085898616352, "Latitude": 31.296731668020488, "geometry": "POINT (-86.49508589861635 31.29673166802049)" }, "geometry": { "type": "Point", "coordinates": [ -86.495085898616352, 31.296731668020488 ] } },
{ "type": "Feature", "properties": { "fid": 28, "hospital_name": "CRENSHAW COMMUNITY HOSPITAL", "address": "101 HOSPITAL CIRCLE", "city": "LUVERNE", "zip": 36049, "placekey": "223@8gn-4m5-zj9", "hospital_pk": "010008", "Longitude": -86.26510972658815, "Latitude": 31.693838992873278, "geometry": "POINT (-86.26510972658815 31.69383899287328)" }, "geometry": { "type": "Point", "coordinates": [ -86.26510972658815, 31.693838992873278 ] } },
{ "type": "Feature", "properties": { "fid": 29, "hospital_name": "DALE MEDICAL CENTER", "address": "126 HOSPITAL AVE", "city": "OZARK", "zip": 36360, "placekey": "222@8gh-y48-ct9", "hospital_pk": "010021", "Longitude": -85.631482983072559, "Latitude": 31.451036147335401, "geometry": "POINT (-85.63148298307256 31.4510361473354)" }, "geometry": { "type": "Point", "coordinates": [ -85.631482983072559, 31.451036147335401 ] } },
{ "type": "Feature", "properties": { "fid": 30, "hospital_name": "VAUGHAN REGIONAL MEDICAL CENTER PARKWAY CAMPUS", "address": "1015 MEDICAL CENTER PARKWAY", "city": "SELMA", "zip": 36701, "placekey": "222@8gm-y2q-2rk", "hospital_pk": "010118", "Longitude": -87.055840605506887, "Latitude": 32.429757604779944, "geometry": "POINT (-87.05584060550689 32.42975760477994)" }, "geometry": { "type": "Point", "coordinates": [ -87.055840605506887, 32.429757604779944 ] } },
{ "type": "Feature", "properties": { "fid": 31, "hospital_name": "COMMUNITY HOSPITAL INC", "address": "805 FRIENDSHIP ROAD", "city": "TALLASSEE", "zip": 36078, "placekey": "222@8gn-n8d-b8v", "hospital_pk": "010034", "Longitude": -85.912133812808619, "Latitude": 32.533513606328903, "geometry": "POINT (-85.91213381280862 32.5335136063289)" }, "geometry": { "type": "Point", "coordinates": [ -85.912133812808619, 32.533513606328903 ] } },
{ "type": "Feature", "properties": { "fid": 32, "hospital_name": "ELMORE COMMUNITY HOSPITAL", "address": "500 HOSPITAL DRIVE", "city": "WETUMPKA", "zip": 36092, "placekey": "222@8gk-zng-vzz", "hospital_pk": "010097", "Longitude": -86.186117554758084, "Latitude": 32.552487163490596, "geometry": "POINT (-86.18611755475808 32.5524871634906)" }, "geometry": { "type": "Point", "coordinates": [ -86.186117554758084, 32.552487163490596 ] } },
{ "type": "Feature", "properties": { "fid": 33, "hospital_name": "ATMORE COMMUNITY HOSPITAL", "address": "401 MEDICAL PARK DRIVE", "city": "ATMORE", "zip": 36502, "placekey": "222@8f4-6cs-2hq", "hospital_pk": "010169", "Longitude": -87.480099893244301, "Latitude": 31.015609351293175, "geometry": "POINT (-87.4800998932443 31.01560935129318)" }, "geometry": { "type": "Point", "coordinates": [ -87.480099893244301, 31.015609351293175 ] } },
{ "type": "Feature", "properties": { "fid": 34, "hospital_name": "D W MCMILLAN MEMORIAL HOSPITAL", "address": "1301 BELLEVILLE AVENUE", "city": "BREWTON", "zip": 36426, "placekey": "222@8f3-zky-mzf", "hospital_pk": "010099", "Longitude": -87.073092029514044, "Latitude": 31.127018534681959, "geometry": "POINT (-87.07309202951404 31.12701853468196)" }, "geometry": { "type": "Point", "coordinates": [ -87.073092029514044, 31.127018534681959 ] } },
{ "type": "Feature", "properties": { "fid": 35, "hospital_name": "RIVERVIEW REGIONAL MEDICAL CENTER", "address": "600 SOUTH THIRD STREET", "city": "GADSDEN", "zip": 35901, "placekey": "222@8gm-nfs-cqz", "hospital_pk": "010046", "Longitude": -86.003885047284911, "Latitude": 34.004412164112971, "geometry": "POINT (-86.00388504728491 34.00441216411297)" }, "geometry": { "type": "Point", "coordinates": [ -86.003885047284911, 34.004412164112971 ] } },
{ "type": "Feature", "properties": { "fid": 36, "hospital_name": "GADSDEN REGIONAL MEDICAL CENTER", "address": "1007 GOODYEAR AVENUE", "city": "GADSDEN", "zip": 35903, "placekey": "223@8gm-nft-yn5", "hospital_pk": "010040", "Longitude": -85.965251338527239, "Latitude": 34.007850866109933, "geometry": "POINT (-85.96525133852724 34.00785086610993)" }, "geometry": { "type": "Point", "coordinates": [ -85.965251338527239, 34.007850866109933 ] } },
{ "type": "Feature", "properties": { "fid": 37, "hospital_name": "FAYETTE MEDICAL CENTER", "address": "1653 TEMPLE AVENUE NORTH", "city": "FAYETTE", "zip": 35555, "placekey": "222@8gm-8gs-bp9", "hospital_pk": "010045", "Longitude": -87.823944801613194, "Latitude": 33.708092344144511, "geometry": "POINT (-87.82394480161319 33.70809234414451)" }, "geometry": { "type": "Point", "coordinates": [ -87.823944801613194, 33.708092344144511 ] } },
{ "type": "Feature", "properties": { "fid": 38, "hospital_name": "RUSSELLVILLE HOSPITAL", "address": "15155 HIGHWAY 43", "city": "RUSSELLVILLE", "zip": 35653, "placekey": "222@5pn-66g-59f", "hospital_pk": "010158", "Longitude": -87.718882928378491, "Latitude": 34.510834204412518, "geometry": "POINT (-87.71888292837849 34.51083420441252)" }, "geometry": { "type": "Point", "coordinates": [ -87.718882928378491, 34.510834204412518 ] } },
{ "type": "Feature", "properties": { "fid": 39, "hospital_name": "RED BAY HOSPITAL", "address": "211 HOSPITAL ROAD", "city": "RED BAY", "zip": 35582, "placekey": "223@5pn-2x5-vvf", "hospital_pk": "011302", "Longitude": -88.147459104200152, "Latitude": 34.457176495088504, "geometry": "POINT (-88.14745910420015 34.4571764950885)" }, "geometry": { "type": "Point", "coordinates": [ -88.147459104200152, 34.457176495088504 ] } },
{ "type": "Feature", "properties": { "fid": 40, "hospital_name": "WIREGRASS MEDICAL CENTER", "address": "1200 W MAPLE AVENUE", "city": "GENEVA", "zip": 36340, "placekey": "222@8gh-ysd-bp9", "hospital_pk": "010062", "Longitude": -85.89128211151835, "Latitude": 31.049189236059892, "geometry": "POINT (-85.89128211151835 31.04918923605989)" }, "geometry": { "type": "Point", "coordinates": [ -85.89128211151835, 31.049189236059892 ] } },
{ "type": "Feature", "properties": { "fid": 41, "hospital_name": "GREENE COUNTY HOSPITAL", "address": "509 WILSON AVENUE", "city": "EUTAW", "zip": 35462, "placekey": "222@8gn-cf2-yvz", "hospital_pk": "010051", "Longitude": -87.889357054917994, "Latitude": 32.843497338215833, "geometry": "POINT (-87.88935705491799 32.84349733821583)" }, "geometry": { "type": "Point", "coordinates": [ -87.889357054917994, 32.843497338215833 ] } },
{ "type": "Feature", "properties": { "fid": 42, "hospital_name": "HALE COUNTY HOSPITAL", "address": "508 GREEN STREET", "city": "GREENSBORO", "zip": 36744, "placekey": "222@8gn-6qw-59f", "hospital_pk": "010095", "Longitude": -87.585223225034227, "Latitude": 32.695785733973551, "geometry": "POINT (-87.58522322503423 32.69578573397355)" }, "geometry": { "type": "Point", "coordinates": [ -87.585223225034227, 32.695785733973551 ] } },
{ "type": "Feature", "properties": { "fid": 43, "hospital_name": "NOLAND HOSPITAL DOTHAN II, LLC", "address": "1108 ROSS CLARK CIRCLE, 4TH FLOOR", "city": "DOTHAN", "zip": 36302, "placekey": "222@8gh-wn9-c3q", "hospital_pk": "012010", "Longitude": -85.363055774335365, "Latitude": 31.21573079054993, "geometry": "POINT (-85.36305577433536 31.21573079054993)" }, "geometry": { "type": "Point", "coordinates": [ -85.363055774335365, 31.21573079054993 ] } },
{ "type": "Feature", "properties": { "fid": 44, "hospital_name": "SOUTHEAST HEALTH MEDICAL CENTER", "address": "1108 ROSS CLARK CIRCLE", "city": "DOTHAN", "zip": 36301, "placekey": "222@8gh-wn9-c3q", "hospital_pk": "010001", "Longitude": -85.363055774335365, "Latitude": 31.21573079054993, "geometry": "POINT (-85.36305577433536 31.21573079054993)" }, "geometry": { "type": "Point", "coordinates": [ -85.363055774335365, 31.21573079054993 ] } },
{ "type": "Feature", "properties": { "fid": 45, "hospital_name": "FLOWERS HOSPITAL", "address": "4370 WEST MAIN STREET", "city": "DOTHAN", "zip": 36305, "placekey": "222@8gh-x7f-9cq", "hospital_pk": "010055", "Longitude": -85.457248880530997, "Latitude": 31.237527331274219, "geometry": "POINT (-85.457248880531 31.23752733127422)" }, "geometry": { "type": "Point", "coordinates": [ -85.457248880530997, 31.237527331274219 ] } },
{ "type": "Feature", "properties": { "fid": 46, "hospital_name": "HIGHLANDS MEDICAL CENTER", "address": "380 WOODS COVE ROAD", "city": "SCOTTSBORO", "zip": 35768, "placekey": "222@8gm-qph-vfz", "hospital_pk": "010061", "Longitude": -86.047556979443314, "Latitude": 34.661770831762041, "geometry": "POINT (-86.04755697944331 34.66177083176204)" }, "geometry": { "type": "Point", "coordinates": [ -86.047556979443314, 34.661770831762041 ] } },
{ "type": "Feature", "properties": { "fid": 47, "hospital_name": "ST VINCENT'S EAST", "address": "50 MEDICAL PARK EAST DRIVE", "city": "BIRMINGHAM", "zip": 35235, "placekey": "228@8gk-tmw-ty9", "hospital_pk": "010011", "Longitude": -86.667064162331158, "Latitude": 33.596420962795428, "geometry": "POINT (-86.66706416233116 33.59642096279543)" }, "geometry": { "type": "Point", "coordinates": [ -86.667064162331158, 33.596420962795428 ] } },
{ "type": "Feature", "properties": { "fid": 48, "hospital_name": "ST VINCENT'S BIRMINGHAM", "address": "810 ST VINCENT'S DRIVE", "city": "BIRMINGHAM", "zip": 35205, "placekey": "223@8gk-ttz-vxq", "hospital_pk": "010056", "Longitude": -86.788666705841791, "Latitude": 33.508034501978095, "geometry": "POINT (-86.78866670584179 33.50803450197809)" }, "geometry": { "type": "Point", "coordinates": [ -86.788666705841791, 33.508034501978095 ] } },
{ "type": "Feature", "properties": { "fid": 49, "hospital_name": "NOLAND HOSPITAL BIRMINGHAM II, LLC", "address": "50 MEDICAL PARK EAST DRIVE 8TH FLOOR", "city": "BIRMINGHAM", "zip": 35235, "placekey": "228@8gk-tmw-ty9", "hospital_pk": "012009", "Longitude": -86.667064162331158, "Latitude": 33.596420962795428, "geometry": "POINT (-86.66706416233116 33.59642096279543)" }, "geometry": { "type": "Point", "coordinates": [ -86.667064162331158, 33.596420962795428 ] } },
{ "type": "Feature", "properties": { "fid": 50, "hospital_name": "PRINCETON BAPTIST MEDICAL CENTER", "address": "701 PRINCETON AVENUE SOUTHWEST", "city": "BIRMINGHAM", "zip": 35211, "placekey": "224@8gk-tt7-6x5", "hospital_pk": "010103", "Longitude": -86.848360602332633, "Latitude": 33.4971621088267, "geometry": "POINT (-86.84836060233263 33.4971621088267)" }, "geometry": { "type": "Point", "coordinates": [ -86.848360602332633, 33.4971621088267 ] } },
{ "type": "Feature", "properties": { "fid": 51, "hospital_name": "UNIVERSITY OF ALABAMA HOSPITAL", "address": "619 SOUTH 19TH STREET", "city": "BIRMINGHAM", "zip": 35233, "placekey": "223@8gk-tv9-wc5", "hospital_pk": "010033", "Longitude": -86.803949313337824, "Latitude": 33.504819576155391, "geometry": "POINT (-86.80394931333782 33.50481957615539)" }, "geometry": { "type": "Point", "coordinates": [ -86.803949313337824, 33.504819576155391 ] } },
{ "type": "Feature", "properties": { "fid": 52, "hospital_name": "SELECT SPECIALTY HOSPITAL - BIRMINGHAM", "address": "2010 BROOKWOOD MEDICAL CENTER DRIVE, 3RD FLOOR", "city": "BIRMINGHAM", "zip": 35209, "placekey": "22d@8gk-ttp-7h5", "hospital_pk": "012008", "Longitude": -86.77636044548683, "Latitude": 33.463313252723999, "geometry": "POINT (-86.77636044548683 33.463313252724)" }, "geometry": { "type": "Point", "coordinates": [ -86.77636044548683, 33.463313252723999 ] } },
{ "type": "Feature", "properties": { "fid": 53, "hospital_name": "CHILDREN'S HOSPITAL OF ALABAMA", "address": "1600 SEVENTH AVENUE SOUTH", "city": "BIRMINGHAM", "zip": 35233, "placekey": "223@8gk-tv9-w8v", "hospital_pk": "013300", "Longitude": -86.805980152193015, "Latitude": 33.505994486322237, "geometry": "POINT (-86.80598015219302 33.50599448632224)" }, "geometry": { "type": "Point", "coordinates": [ -86.805980152193015, 33.505994486322237 ] } },
{ "type": "Feature", "properties": { "fid": 54, "hospital_name": "GRANDVIEW MEDICAL CENTER", "address": "3690 GRANDVIEW PARKWAY", "city": "BIRMINGHAM", "zip": 35243, "placekey": "222@8gk-t8p-fzz", "hospital_pk": "010104", "Longitude": -86.718785676579557, "Latitude": 33.433495820859235, "geometry": "POINT (-86.71878567657956 33.43349582085924)" }, "geometry": { "type": "Point", "coordinates": [ -86.718785676579557, 33.433495820859235 ] } },
{ "type": "Feature", "properties": { "fid": 55, "hospital_name": "BROOKWOOD BAPTIST MEDICAL CENTER", "address": "2010 BROOKWOOD MEDICAL CENTER DRIVE", "city": "BIRMINGHAM", "zip": 35209, "placekey": "22d@8gk-ttp-7h5", "hospital_pk": "010139", "Longitude": -86.77636044548683, "Latitude": 33.463313252723999, "geometry": "POINT (-86.77636044548683 33.463313252724)" }, "geometry": { "type": "Point", "coordinates": [ -86.77636044548683, 33.463313252723999 ] } },
{ "type": "Feature", "properties": { "fid": 56, "hospital_name": "MEDICAL WEST, AN AFFILIATE OF UAB HEALTH SYSTEM", "address": "995 9TH AVENUE SOUTHWEST", "city": "BESSEMER", "zip": 35021, "placekey": "224@8gm-9nt-6ff", "hospital_pk": "010114", "Longitude": -86.991781412549543, "Latitude": 33.37204141929999, "geometry": "POINT (-86.99178141254954 33.37204141929999)" }, "geometry": { "type": "Point", "coordinates": [ -86.991781412549543, 33.37204141929999 ] } },
{ "type": "Feature", "properties": { "fid": 57, "hospital_name": "NORTH ALABAMA MEDICAL CENTER", "address": "1701 VETERANS DRIVE", "city": "FLORENCE", "zip": 35630, "placekey": "222@5pm-hxc-f9f", "hospital_pk": "010006", "Longitude": -87.650215805707433, "Latitude": 34.804298793351535, "geometry": "POINT (-87.65021580570743 34.80429879335153)" }, "geometry": { "type": "Point", "coordinates": [ -87.650215805707433, 34.804298793351535 ] } },
{ "type": "Feature", "properties": { "fid": 58, "hospital_name": "LAWRENCE MEDICAL CENTER", "address": "202 HOSPITAL STREET", "city": "MOULTON", "zip": 35650, "placekey": "222@5pm-jxf-7yv", "hospital_pk": "010059", "Longitude": -87.286257523366089, "Latitude": 34.484174753801113, "geometry": "POINT (-87.28625752336609 34.48417475380111)" }, "geometry": { "type": "Point", "coordinates": [ -87.286257523366089, 34.484174753801113 ] } },
{ "type": "Feature", "properties": { "fid": 59, "hospital_name": "EAST ALABAMA MEDICAL CENTER", "address": "2000 PEPPERELL PARKWAY", "city": "OPELIKA", "zip": 36801, "placekey": "222@8gn-kkm-vs5", "hospital_pk": "010029", "Longitude": -85.404817253597912, "Latitude": 32.638542951577229, "geometry": "POINT (-85.40481725359791 32.63854295157723)" }, "geometry": { "type": "Point", "coordinates": [ -85.404817253597912, 32.638542951577229 ] } },
{ "type": "Feature", "properties": { "fid": 60, "hospital_name": "ATHENS LIMESTONE HOSPITAL", "address": "700 WEST MARKET STREET", "city": "ATHENS", "zip": 35611, "placekey": "223@5pm-fqn-mtv", "hospital_pk": "010079", "Longitude": -86.979108199598159, "Latitude": 34.80479379520763, "geometry": "POINT (-86.97910819959816 34.80479379520763)" }, "geometry": { "type": "Point", "coordinates": [ -86.979108199598159, 34.80479379520763 ] } },
{ "type": "Feature", "properties": { "fid": 61, "hospital_name": "NORTH ALABAMA SPECIALTY HOSPITAL", "address": "700 WEST MARKET STREET, 2ND FLOOR", "city": "ATHENS", "zip": 35611, "placekey": "223@5pm-fqn-mtv", "hospital_pk": "012014", "Longitude": -86.979108199598159, "Latitude": 34.80479379520763, "geometry": "POINT (-86.97910819959816 34.80479379520763)" }, "geometry": { "type": "Point", "coordinates": [ -86.979108199598159, 34.80479379520763 ] } },
{ "type": "Feature", "properties": { "fid": 62, "hospital_name": "HUNTSVILLE HOSPITAL", "address": "101 SIVLEY RD", "city": "HUNTSVILLE", "zip": 35801, "placekey": "225@5pm-mtb-zzz", "hospital_pk": "010039", "Longitude": -86.578492859757418, "Latitude": 34.721062566688389, "geometry": "POINT (-86.57849285975742 34.72106256668839)" }, "geometry": { "type": "Point", "coordinates": [ -86.578492859757418, 34.721062566688389 ] } },
{ "type": "Feature", "properties": { "fid": 63, "hospital_name": "WHITFIELD REGIONAL HOSPITAL", "address": "105 HIGHWAY 80 EAST", "city": "DEMOPOLIS", "zip": 36732, "placekey": "222@8gn-b5w-fzz", "hospital_pk": "010112", "Longitude": -87.83701629705206, "Latitude": 32.504269705814401, "geometry": "POINT (-87.83701629705206 32.5042697058144)" }, "geometry": { "type": "Point", "coordinates": [ -87.83701629705206, 32.504269705814401 ] } },
{ "type": "Feature", "properties": { "fid": 64, "hospital_name": "MARION REGIONAL MEDICAL CENTER", "address": "1256 MILITARY STREET SOUTH", "city": "HAMILTON", "zip": 35570, "placekey": "222@5pn-29r-v4v", "hospital_pk": "010044", "Longitude": -87.99209860655202, "Latitude": 34.126717285448457, "geometry": "POINT (-87.99209860655202 34.12671728544846)" }, "geometry": { "type": "Point", "coordinates": [ -87.99209860655202, 34.126717285448457 ] } },
{ "type": "Feature", "properties": { "fid": 65, "hospital_name": "NORTHWEST MEDICAL CENTER", "address": "1530 U S HIGHWAY 43", "city": "WINFIELD", "zip": 35594, "placekey": "222@8gm-7w8-7t9", "hospital_pk": "010086", "Longitude": -87.824231626932942, "Latitude": 33.930590128284223, "geometry": "POINT (-87.82423162693294 33.93059012828422)" }, "geometry": { "type": "Point", "coordinates": [ -87.824231626932942, 33.930590128284223 ] } },
{ "type": "Feature", "properties": { "fid": 66, "hospital_name": "MARSHALL MEDICAL CENTERS SOUTH CAMPUS", "address": "2505 U S HIGHWAY 431 NORTH", "city": "BOAZ", "zip": 35957, "placekey": "222@8gm-mn7-yy9", "hospital_pk": "010005", "Longitude": -86.160516372656474, "Latitude": 34.221574598782055, "geometry": "POINT (-86.16051637265647 34.22157459878206)" }, "geometry": { "type": "Point", "coordinates": [ -86.160516372656474, 34.221574598782055 ] } },
{ "type": "Feature", "properties": { "fid": 67, "hospital_name": "MOBILE INFIRMARY MEDICAL CENTER", "address": "5 MOBILE INFIRMARY CIRCLE", "city": "MOBILE", "zip": 36652, "placekey": "222@8f3-fv7-zvf", "hospital_pk": "010113", "Longitude": -88.080290538538236, "Latitude": 30.697921859540422, "geometry": "POINT (-88.08029053853824 30.69792185954042)" }, "geometry": { "type": "Point", "coordinates": [ -88.080290538538236, 30.697921859540422 ] } },
{ "type": "Feature", "properties": { "fid": 68, "hospital_name": "INFIRMARY LTAC HOSPITAL", "address": "5 MOBILE INFIRMARY CIRCLE", "city": "MOBILE", "zip": 36607, "placekey": "222@8f3-fv7-zvf", "hospital_pk": "012006", "Longitude": -88.080290538538236, "Latitude": 30.697921859540422, "geometry": "POINT (-88.08029053853824 30.69792185954042)" }, "geometry": { "type": "Point", "coordinates": [ -88.080290538538236, 30.697921859540422 ] } },
{ "type": "Feature", "properties": { "fid": 69, "hospital_name": "SPRINGHILL MEMORIAL HOSPITAL", "address": "3719 DAUPHIN STREET", "city": "MOBILE", "zip": 36608, "placekey": "222@8f3-ftb-kzz", "hospital_pk": "010144", "Longitude": -88.131646055588419, "Latitude": 30.684041896498222, "geometry": "POINT (-88.13164605558842 30.68404189649822)" }, "geometry": { "type": "Point", "coordinates": [ -88.131646055588419, 30.684041896498222 ] } },
{ "type": "Feature", "properties": { "fid": 70, "hospital_name": "USA HEALTH CHILDREN'S & WOMEN'S HOSPITAL", "address": "1700 CENTER STREET", "city": "MOBILE", "zip": 36604, "placekey": "22f@8f3-fvc-cbk", "hospital_pk": "013301", "Longitude": -88.078271710711419, "Latitude": 30.696776327753295, "geometry": "POINT (-88.07827171071142 30.69677632775329)" }, "geometry": { "type": "Point", "coordinates": [ -88.078271710711419, 30.696776327753295 ] } },
{ "type": "Feature", "properties": { "fid": 71, "hospital_name": "USA HEALTH UNIVERSITY HOSPITAL", "address": "2451 FILLINGIM STREET", "city": "MOBILE", "zip": 36617, "placekey": "222@8f3-fvt-4jv", "hospital_pk": "010087", "Longitude": -88.098507182428662, "Latitude": 30.706105753020154, "geometry": "POINT (-88.09850718242866 30.70610575302015)" }, "geometry": { "type": "Point", "coordinates": [ -88.098507182428662, 30.706105753020154 ] } },
{ "type": "Feature", "properties": { "fid": 72, "hospital_name": "PROVIDENCE HOSPITAL", "address": "6801 AIRPORT BOULEVARD", "city": "MOBILE", "zip": 36608, "placekey": "222@8f3-fwg-tqf", "hospital_pk": "010090", "Longitude": -88.198529287294591, "Latitude": 30.678198081359778, "geometry": "POINT (-88.19852928729459 30.67819808135978)" }, "geometry": { "type": "Point", "coordinates": [ -88.198529287294591, 30.678198081359778 ] } },
{ "type": "Feature", "properties": { "fid": 73, "hospital_name": "MONROE COUNTY HOSPITAL", "address": "2016 SOUTH ALABAMA AVENUE", "city": "MONROEVILLE", "zip": 36460, "placekey": "222@8f4-2hx-hwk", "hospital_pk": "010120", "Longitude": -87.321044773464152, "Latitude": 31.497883731766947, "geometry": "POINT (-87.32104477346415 31.49788373176695)" }, "geometry": { "type": "Point", "coordinates": [ -87.321044773464152, 31.497883731766947 ] } },
{ "type": "Feature", "properties": { "fid": 74, "hospital_name": "BAPTIST MEDICAL CENTER SOUTH", "address": "2105 EAST SOUTH BOULEVARD", "city": "MONTGOMERY", "zip": 36116, "placekey": "22b@8gn-24t-jjv", "hospital_pk": "010023", "Longitude": -86.277428637322359, "Latitude": 32.327703950565557, "geometry": "POINT (-86.27742863732236 32.32770395056556)" }, "geometry": { "type": "Point", "coordinates": [ -86.277428637322359, 32.327703950565557 ] } },
{ "type": "Feature", "properties": { "fid": 75, "hospital_name": "BAPTIST MEDICAL CENTER EAST", "address": "400 TAYLOR ROAD", "city": "MONTGOMERY", "zip": 36117, "placekey": "224@8gn-nhv-649", "hospital_pk": "010149", "Longitude": -86.174497769447839, "Latitude": 32.376774690352086, "geometry": "POINT (-86.17449776944784 32.37677469035209)" }, "geometry": { "type": "Point", "coordinates": [ -86.174497769447839, 32.376774690352086 ] } },
{ "type": "Feature", "properties": { "fid": 76, "hospital_name": "JACKSON HOSPITAL & CLINIC INC", "address": "1725 PINE STREET", "city": "MONTGOMERY", "zip": 36106, "placekey": "222@8gn-24m-yy9", "hospital_pk": "010024", "Longitude": -86.284791488726157, "Latitude": 32.366966722167867, "geometry": "POINT (-86.28479148872616 32.36696672216787)" }, "geometry": { "type": "Point", "coordinates": [ -86.284791488726157, 32.366966722167867 ] } },
{ "type": "Feature", "properties": { "fid": 77, "hospital_name": "DECATUR MORGAN HOSPITAL-DECATUR CAMPUS", "address": "1201 7TH STREET SE", "city": "DECATUR", "zip": 35601, "placekey": "224@5pm-gv2-k9f", "hospital_pk": "010085", "Longitude": -86.972673041391459, "Latitude": 34.590984941424146, "geometry": "POINT (-86.97267304139146 34.59098494142415)" }, "geometry": { "type": "Point", "coordinates": [ -86.972673041391459, 34.590984941424146 ] } },
{ "type": "Feature", "properties": { "fid": 78, "hospital_name": "TROY REGIONAL MEDICAL CENTER", "address": "1330 HIGHWAY 231 SOUTH", "city": "TROY", "zip": 36081, "placekey": "223@8gh-w34-3wk", "hospital_pk": "010126", "Longitude": -85.945124696593012, "Latitude": 31.781349875345558, "geometry": "POINT (-85.94512469659301 31.78134987534556)" }, "geometry": { "type": "Point", "coordinates": [ -85.945124696593012, 31.781349875345558 ] } },
{ "type": "Feature", "properties": { "fid": 79, "hospital_name": "TANNER MEDICAL CENTER-EAST ALABAMA", "address": "1032 MAIN STREET SOUTH", "city": "WEDOWEE", "zip": 36278, "placekey": "222@8gm-ch6-4y9", "hospital_pk": "011306", "Longitude": -85.480718899861714, "Latitude": 33.296266227348234, "geometry": "POINT (-85.48071889986171 33.29626622734823)" }, "geometry": { "type": "Point", "coordinates": [ -85.480718899861714, 33.296266227348234 ] } },
{ "type": "Feature", "properties": { "fid": 80, "hospital_name": "JACK HUGHSTON MEMORIAL HOSPITAL", "address": "4401 RIVER CHASE DRIVE", "city": "PHENIX CITY", "zip": 36867, "placekey": "222@8gn-jcx-skf", "hospital_pk": "010168", "Longitude": -85.00884320575905, "Latitude": 32.507649988254158, "geometry": "POINT (-85.00884320575905 32.50764998825416)" }, "geometry": { "type": "Point", "coordinates": [ -85.00884320575905, 32.507649988254158 ] } },
{ "type": "Feature", "properties": { "fid": 81, "hospital_name": "ST VINCENT'S ST CLAIR", "address": "7063 VETERANS PARKWAY", "city": "PELL CITY", "zip": 35125, "placekey": "222@8gk-w8v-gtv", "hospital_pk": "010130", "Longitude": -86.301310392002534, "Latitude": 33.604474064693783, "geometry": "POINT (-86.30131039200253 33.60447406469378)" }, "geometry": { "type": "Point", "coordinates": [ -86.301310392002534, 33.604474064693783 ] } },
{ "type": "Feature", "properties": { "fid": 82, "hospital_name": "SHELBY BAPTIST MEDICAL CENTER", "address": "1000 FIRST STREET NORTH", "city": "ALABASTER", "zip": 35007, "placekey": "222@8gk-yjs-fzz", "hospital_pk": "010016", "Longitude": -86.812276176039433, "Latitude": 33.252012193648298, "geometry": "POINT (-86.81227617603943 33.2520121936483)" }, "geometry": { "type": "Point", "coordinates": [ -86.812276176039433, 33.252012193648298 ] } },
{ "type": "Feature", "properties": { "fid": 83, "hospital_name": "HILL HOSPITAL OF SUMTER COUNTY", "address": "751 DERBY DRIVE", "city": "YORK", "zip": 36925, "placekey": "223@8f7-dz4-nyv", "hospital_pk": "010138", "Longitude": -88.296062623975516, "Latitude": 32.491714266656352, "geometry": "POINT (-88.29606262397552 32.49171426665635)" }, "geometry": { "type": "Point", "coordinates": [ -88.296062623975516, 32.491714266656352 ] } },
{ "type": "Feature", "properties": { "fid": 84, "hospital_name": "COOSA VALLEY MEDICAL CENTER", "address": "315 W HICKORY ST", "city": "SYLACAUGA", "zip": 35150, "placekey": "223@8gk-sg7-tjv", "hospital_pk": "010164", "Longitude": -86.254133048501942, "Latitude": 33.165864095879648, "geometry": "POINT (-86.25413304850194 33.16586409587965)" }, "geometry": { "type": "Point", "coordinates": [ -86.254133048501942, 33.165864095879648 ] } },
{ "type": "Feature", "properties": { "fid": 85, "hospital_name": "CITIZENS BAPTIST MEDICAL CENTER", "address": "604 STONE AVENUE", "city": "TALLADEGA", "zip": 35161, "placekey": "225@8gk-w6g-x89", "hospital_pk": "010101", "Longitude": -86.089612523738779, "Latitude": 33.439738934928833, "geometry": "POINT (-86.08961252373878 33.43973893492883)" }, "geometry": { "type": "Point", "coordinates": [ -86.089612523738779, 33.439738934928833 ] } },
{ "type": "Feature", "properties": { "fid": 86, "hospital_name": "LAKE MARTIN COMMUNITY HOSPITAL", "address": "201 MARIARDEN ROAD", "city": "DADEVILLE", "zip": 36853, "placekey": "222@8gn-hds-qmk", "hospital_pk": "010052", "Longitude": -85.741026146794709, "Latitude": 32.819741061055467, "geometry": "POINT (-85.74102614679471 32.81974106105547)" }, "geometry": { "type": "Point", "coordinates": [ -85.741026146794709, 32.819741061055467 ] } },
{ "type": "Feature", "properties": { "fid": 87, "hospital_name": "RUSSELL MEDICAL CENTER", "address": "3316 HIGHWAY 280", "city": "ALEXANDER CITY", "zip": 35010, "placekey": "223@8gk-vps-5xq", "hospital_pk": "010065", "Longitude": -85.969379576422028, "Latitude": 32.930435181423228, "geometry": "POINT (-85.96937957642203 32.93043518142323)" }, "geometry": { "type": "Point", "coordinates": [ -85.969379576422028, 32.930435181423228 ] } },
{ "type": "Feature", "properties": { "fid": 88, "hospital_name": "DCH REGIONAL MEDICAL CENTER", "address": "809 UNIVERSITY BOULEVARD EAST", "city": "TUSCALOOSA", "zip": 35401, "placekey": "222@8gn-9sg-nkf", "hospital_pk": "010092", "Longitude": -87.527048353346345, "Latitude": 33.205097601642343, "geometry": "POINT (-87.52704835334634 33.20509760164234)" }, "geometry": { "type": "Point", "coordinates": [ -87.527048353346345, 33.205097601642343 ] } },
{ "type": "Feature", "properties": { "fid": 89, "hospital_name": "NOLAND HOSPITAL TUSCALOOSA II, LLC", "address": "809 UNIVERSITY BOULEVARD EAST, 4TH FLOOR", "city": "TUSCALOOSA", "zip": 35401, "placekey": "222@8gn-9sg-nkf", "hospital_pk": "012012", "Longitude": -87.527048353346345, "Latitude": 33.205097601642343, "geometry": "POINT (-87.52704835334634 33.20509760164234)" }, "geometry": { "type": "Point", "coordinates": [ -87.527048353346345, 33.205097601642343 ] } },
{ "type": "Feature", "properties": { "fid": 90, "hospital_name": "WALKER BAPTIST MEDICAL CENTER", "address": "3400 HIGHWAY 78 EAST", "city": "JASPER", "zip": 35502, "placekey": "22g@8gm-3rn-syv", "hospital_pk": "010089", "Longitude": -87.235917794823024, "Latitude": 33.842508948140143, "geometry": "POINT (-87.23591779482302 33.84250894814014)" }, "geometry": { "type": "Point", "coordinates": [ -87.235917794823024, 33.842508948140143 ] } },
{ "type": "Feature", "properties": { "fid": 91, "hospital_name": "WASHINGTON COUNTY HOSPITAL", "address": "14600 ST. STEPHENS AVENUE", "city": "CHATOM", "zip": 36518, "placekey": "222@8f4-fbt-j9z", "hospital_pk": "011300", "Longitude": -88.23525562287341, "Latitude": 31.459905591513539, "geometry": "POINT (-88.23525562287341 31.45990559151354)" }, "geometry": { "type": "Point", "coordinates": [ -88.23525562287341, 31.459905591513539 ] } },
{ "type": "Feature", "properties": { "fid": 92, "hospital_name": "J PAUL JONES HOSPITAL", "address": "317 MCWILLIAMS AVENUE", "city": "CAMDEN", "zip": 36726, "placekey": "222@8gn-3yx-wrk", "hospital_pk": "010102", "Longitude": -87.298993036262416, "Latitude": 31.997344971525248, "geometry": "POINT (-87.29899303626242 31.99734497152525)" }, "geometry": { "type": "Point", "coordinates": [ -87.298993036262416, 31.997344971525248 ] } },
{ "type": "Feature", "properties": { "fid": 93, "hospital_name": "LAKELAND COMMUNITY HOSPITAL", "address": "42024 HIGHWAY 195 E", "city": "HALEYVILLE", "zip": 35565, "placekey": "222@8gm-3z8-yd9", "hospital_pk": "010125", "Longitude": -87.579019837194267, "Latitude": 34.248351237164648, "geometry": "POINT (-87.57901983719427 34.24835123716465)" }, "geometry": { "type": "Point", "coordinates": [ -87.579019837194267, 34.248351237164648 ] } },
{ "type": "Feature", "properties": { "fid": 94, "hospital_name": "ALASKA REGIONAL HOSPITAL", "address": "2801 DEBARR ROAD", "city": "ANCHORAGE", "zip": 99508, "placekey": "222@3bt-c2m-8vz", "hospital_pk": "020017", "Longitude": -149.82871555052401, "Latitude": 61.210919433467815, "geometry": "POINT (-149.828715550524 61.21091943346782)" }, "geometry": { "type": "Point", "coordinates": [ -149.828715550524009, 61.210919433467815 ] } },
{ "type": "Feature", "properties": { "fid": 95, "hospital_name": "ST ELIAS SPECIALTY HOSPITAL", "address": "4800 CORDOVA STREET", "city": "ANCHORAGE", "zip": 99503, "placekey": "222@3bt-by6-bhq", "hospital_pk": "022001", "Longitude": -149.88105043665877, "Latitude": 61.176428754840629, "geometry": "POINT (-149.8810504366588 61.17642875484063)" }, "geometry": { "type": "Point", "coordinates": [ -149.881050436658768, 61.176428754840629 ] } },
{ "type": "Feature", "properties": { "fid": 96, "hospital_name": "PROVIDENCE ALASKA MEDICAL CENTER", "address": "3200 PROVIDENCE DRIVE", "city": "ANCHORAGE", "zip": 99508, "placekey": "222@3bt-c28-vfz", "hospital_pk": "020001", "Longitude": -149.81939454187582, "Latitude": 61.187499548781616, "geometry": "POINT (-149.8193945418758 61.18749954878162)" }, "geometry": { "type": "Point", "coordinates": [ -149.819394541875823, 61.187499548781616 ] } },
{ "type": "Feature", "properties": { "fid": 97, "hospital_name": "CORDOVA COMMUNITY MEDICAL CENTER", "address": "PO BOX 160 - 602 CHASE AVENUE", "city": "CORDOVA", "zip": 99574, "placekey": "25f@3bc-jyd-6c5", "hospital_pk": "021307", "Longitude": -145.75287120144566, "Latitude": 60.541927731390572, "geometry": "POINT (-145.7528712014457 60.54192773139057)" }, "geometry": { "type": "Point", "coordinates": [ -145.752871201445657, 60.541927731390572 ] } },
{ "type": "Feature", "properties": { "fid": 98, "hospital_name": "FAIRBANKS MEMORIAL HOSPITAL", "address": "1650 COWLES STREET", "city": "FAIRBANKS", "zip": 99701, "placekey": "222@3f4-sg3-575", "hospital_pk": "020012", "Longitude": -147.73921149399433, "Latitude": 64.831131342791025, "geometry": "POINT (-147.7392114939943 64.83113134279102)" }, "geometry": { "type": "Point", "coordinates": [ -147.739211493994333, 64.831131342791025 ] } },
{ "type": "Feature", "properties": { "fid": 99, "hospital_name": "BARTLETT REGIONAL HOSPITAL", "address": "3260 HOSPITAL DR", "city": "JUNEAU", "zip": 99801, "placekey": "222@3z3-dkv-nnq", "hospital_pk": "020008", "Longitude": -134.46484863926801, "Latitude": 58.328282171830026, "geometry": "POINT (-134.464848639268 58.32828217183003)" }, "geometry": { "type": "Point", "coordinates": [ -134.464848639268013, 58.328282171830026 ] } },
{ "type": "Feature", "properties": { "fid": 100, "hospital_name": "SOUTH PENINSULA HOSPITAL", "address": "4300 BARTLETT ST", "city": "HOMER", "zip": 99603, "placekey": "223@3bh-2c6-snq", "hospital_pk": "021313", "Longitude": -151.55066093412347, "Latitude": 59.652207905167955, "geometry": "POINT (-151.5506609341235 59.65220790516796)" }, "geometry": { "type": "Point", "coordinates": [ -151.550660934123471, 59.652207905167955 ] } },
{ "type": "Feature", "properties": { "fid": 101, "hospital_name": "CENTRAL PENINSULA GENERAL HOSPITAL", "address": "250 HOSPITAL PLACE", "city": "SOLDOTNA", "zip": 99669, "placekey": "223@3bh-zvc-cwk", "hospital_pk": "020024", "Longitude": -151.07729531797082, "Latitude": 60.493677435080542, "geometry": "POINT (-151.0772953179708 60.49367743508054)" }, "geometry": { "type": "Point", "coordinates": [ -151.077295317970822, 60.493677435080542 ] } },
{ "type": "Feature", "properties": { "fid": 102, "hospital_name": "KETCHIKAN MEDICAL CENTER", "address": "3100 TONGASS AVENUE", "city": "KETCHIKAN", "zip": 99901, "placekey": "223@3wq-3vs-zzz", "hospital_pk": "021311", "Longitude": -131.68752434949974, "Latitude": 55.353722386020266, "geometry": "POINT (-131.6875243494997 55.35372238602027)" }, "geometry": { "type": "Point", "coordinates": [ -131.687524349499739, 55.353722386020266 ] } },
{ "type": "Feature", "properties": { "fid": 103, "hospital_name": "PROVIDENCE KODIAK ISLAND MEDICAL CTR", "address": "1915 EAST REZANOF DRIVE", "city": "KODIAK", "zip": 99615, "placekey": "222@3bk-jm5-rx5", "hospital_pk": "021306", "Longitude": -152.37356257276539, "Latitude": 57.801819051325879, "geometry": "POINT (-152.3735625727654 57.80181905132588)" }, "geometry": { "type": "Point", "coordinates": [ -152.373562572765394, 57.801819051325879 ] } },
{ "type": "Feature", "properties": { "fid": 104, "hospital_name": "MAT-SU REGIONAL MEDICAL CENTER", "address": "2500 SOUTH WOODWORTH LOOP", "city": "PALMER", "zip": 99645, "placekey": "222@3bt-gnc-mhq", "hospital_pk": "020006", "Longitude": -149.25873356980969, "Latitude": 61.563007398314866, "geometry": "POINT (-149.2587335698097 61.56300739831487)" }, "geometry": { "type": "Point", "coordinates": [ -149.258733569809692, 61.563007398314866 ] } },
{ "type": "Feature", "properties": { "fid": 105, "hospital_name": "PROVIDENCE SEWARD HOSPITAL", "address": "417 FIRST AVENUE, PO BOX 365", "city": "SEWARD", "zip": 99664, "placekey": "23k@3bb-v2p-bkz", "hospital_pk": "021302", "Longitude": -149.38415041579924, "Latitude": 60.1239863987768, "geometry": "POINT (-149.3841504157992 60.1239863987768)" }, "geometry": { "type": "Point", "coordinates": [ -149.38415041579924, 60.1239863987768 ] } },
{ "type": "Feature", "properties": { "fid": 106, "hospital_name": "PROVIDENCE VALDEZ MEDICAL CENTER", "address": "PO BOX 550", "city": "VALDEZ", "zip": 99686, "placekey": "226@3bc-7c5-cyv", "hospital_pk": "021301", "Longitude": -146.21628551668579, "Latitude": 61.104405804364589, "geometry": "POINT (-146.2162855166858 61.10440580436459)" }, "geometry": { "type": "Point", "coordinates": [ -146.216285516685787, 61.104405804364589 ] } },
{ "type": "Feature", "properties": { "fid": 107, "hospital_name": "PETERSBURG MEDICAL CENTER", "address": "PO BOX 589", "city": "PETERSBURG", "zip": 99833, "placekey": "233@3wr-cjj-y7q", "hospital_pk": "021304", "Longitude": -132.93221126835866, "Latitude": 56.766894116045762, "geometry": "POINT (-132.9322112683587 56.76689411604576)" }, "geometry": { "type": "Point", "coordinates": [ -132.932211268358657, 56.766894116045762 ] } },
{ "type": "Feature", "properties": { "fid": 108, "hospital_name": "WHITE MOUNTAIN REGIONAL MEDICAL CENTER", "address": "118 SOUTH MOUNTAIN AVENUE", "city": "SPRINGERVILLE", "zip": 85938, "placekey": "222@8th-8x8-mc5", "hospital_pk": "031315", "Longitude": -109.28407245157285, "Latitude": 34.13112439291983, "geometry": "POINT (-109.2840724515729 34.13112439291983)" }, "geometry": { "type": "Point", "coordinates": [ -109.284072451572854, 34.13112439291983 ] } },
{ "type": "Feature", "properties": { "fid": 109, "hospital_name": "CANYON VISTA MEDICAL CENTER", "address": "5700 EAST HIGHWAY 90", "city": "SIERRA VISTA", "zip": 85635, "placekey": "222@8tt-pgj-pjv", "hospital_pk": "030043", "Longitude": -110.22957010876667, "Latitude": 31.552239436407088, "geometry": "POINT (-110.2295701087667 31.55223943640709)" }, "geometry": { "type": "Point", "coordinates": [ -110.229570108766666, 31.552239436407088 ] } },
{ "type": "Feature", "properties": { "fid": 110, "hospital_name": "NORTHERN COCHISE COMMUNITY HOSPITAL, INC.", "address": "901 WEST REX ALLEN DRIVE", "city": "WILLCOX", "zip": 85643, "placekey": "224@8ts-s2y-xyv", "hospital_pk": "031302", "Longitude": -109.83866695594433, "Latitude": 32.264860703901554, "geometry": "POINT (-109.8386669559443 32.26486070390155)" }, "geometry": { "type": "Point", "coordinates": [ -109.838666955944333, 32.264860703901554 ] } },
{ "type": "Feature", "properties": { "fid": 111, "hospital_name": "BENSON HOSPITAL", "address": "450 SOUTH OCOTILLO AVENUE", "city": "BENSON", "zip": 85602, "placekey": "222@8tt-q4p-4vz", "hospital_pk": "031301", "Longitude": -110.30893460301721, "Latitude": 31.9647324306687, "geometry": "POINT (-110.3089346030172 31.9647324306687)" }, "geometry": { "type": "Point", "coordinates": [ -110.308934603017207, 31.9647324306687 ] } },
{ "type": "Feature", "properties": { "fid": 112, "hospital_name": "COPPER QUEEN COMMUNITY HOSPITAL", "address": "101 COLE AVENUE", "city": "BISBEE", "zip": 85603, "placekey": "222@8tt-w4z-3bk", "hospital_pk": "031312", "Longitude": -109.88243934429762, "Latitude": 31.417911249544638, "geometry": "POINT (-109.8824393442976 31.41791124954464)" }, "geometry": { "type": "Point", "coordinates": [ -109.882439344297623, 31.417911249544638 ] } },
{ "type": "Feature", "properties": { "fid": 113, "hospital_name": "PAGE HOSPITAL", "address": "501 NORTH NAVAJO DRIVE", "city": "PAGE", "zip": 86040, "placekey": "222@5yz-txz-8n5", "hospital_pk": "031304", "Longitude": -111.46281305668964, "Latitude": 36.917820865138964, "geometry": "POINT (-111.4628130566896 36.91782086513896)" }, "geometry": { "type": "Point", "coordinates": [ -111.46281305668964, 36.917820865138964 ] } },
{ "type": "Feature", "properties": { "fid": 114, "hospital_name": "FLAGSTAFF MEDICAL CENTER", "address": "1200 NORTH BEAVER STREET", "city": "FLAGSTAFF", "zip": 86001, "placekey": "222@5z9-phq-fj9", "hospital_pk": "030023", "Longitude": -111.6442719690705, "Latitude": 35.208350705971803, "geometry": "POINT (-111.6442719690705 35.2083507059718)" }, "geometry": { "type": "Point", "coordinates": [ -111.644271969070502, 35.208350705971803 ] } },
{ "type": "Feature", "properties": { "fid": 115, "hospital_name": "COBRE VALLEY REGIONAL MEDICAL CENTER", "address": "5880 SOUTH HOSPITAL DRIVE", "city": "GLOBE", "zip": 85501, "placekey": "222@8ts-wzz-x3q", "hospital_pk": "031314", "Longitude": -110.82676372394306, "Latitude": 33.405815451193803, "geometry": "POINT (-110.8267637239431 33.4058154511938)" }, "geometry": { "type": "Point", "coordinates": [ -110.82676372394306, 33.405815451193803 ] } },
{ "type": "Feature", "properties": { "fid": 116, "hospital_name": "BANNER PAYSON MEDICAL CENTER", "address": "807 SOUTH PONDEROSA DRIVE", "city": "PAYSON", "zip": 85541, "placekey": "229@8th-mtv-w6k", "hospital_pk": "031318", "Longitude": -111.32052936323106, "Latitude": 34.231694440514232, "geometry": "POINT (-111.3205293632311 34.23169444051423)" }, "geometry": { "type": "Point", "coordinates": [ -111.32052936323106, 34.231694440514232 ] } },
{ "type": "Feature", "properties": { "fid": 117, "hospital_name": "MT. GRAHAM REGIONAL MEDICAL CENTER", "address": "1600 SOUTH 20TH AVENUE", "city": "SAFFORD", "zip": 85546, "placekey": "223@8ts-n8d-6tv", "hospital_pk": "030068", "Longitude": -109.73443604307917, "Latitude": 32.822705111517628, "geometry": "POINT (-109.7344360430792 32.82270511151763)" }, "geometry": { "type": "Point", "coordinates": [ -109.734436043079171, 32.822705111517628 ] } },
{ "type": "Feature", "properties": { "fid": 118, "hospital_name": "LA PAZ REGIONAL HOSPITAL", "address": "1200 WEST MOHAVE ROAD", "city": "PARKER", "zip": 85344, "placekey": "222@5zb-h6j-j35", "hospital_pk": "031317", "Longitude": -114.28504423548229, "Latitude": 34.136106547369664, "geometry": "POINT (-114.2850442354823 34.13610654736966)" }, "geometry": { "type": "Point", "coordinates": [ -114.285044235482289, 34.136106547369664 ] } },
{ "type": "Feature", "properties": { "fid": 119, "hospital_name": "HONORHEALTH SCOTTSDALE OSBORN MEDICAL CENTER", "address": "7400 EAST OSBORN ROAD", "city": "SCOTTSDALE", "zip": 85251, "placekey": "222@8ts-zgr-dqf", "hospital_pk": "030038", "Longitude": -111.92244798570152, "Latitude": 33.488728347557569, "geometry": "POINT (-111.9224479857015 33.48872834755757)" }, "geometry": { "type": "Point", "coordinates": [ -111.922447985701524, 33.488728347557569 ] } },
{ "type": "Feature", "properties": { "fid": 120, "hospital_name": "CHANDLER REGIONAL MEDICAL CENTER", "address": "1955 WEST FRYE ROAD", "city": "CHANDLER", "zip": 85224, "placekey": "222@8ts-zyp-47q", "hospital_pk": "030036", "Longitude": -111.87437666257736, "Latitude": 33.297328793862164, "geometry": "POINT (-111.8743766625774 33.29732879386216)" }, "geometry": { "type": "Point", "coordinates": [ -111.874376662577362, 33.297328793862164 ] } },
{ "type": "Feature", "properties": { "fid": 121, "hospital_name": "BANNER BOSWELL MEDICAL CENTER", "address": "10401 WEST THUNDERBIRD BOULEVARD", "city": "SUN CITY", "zip": 85351, "placekey": "222@5zb-xfq-zvf", "hospital_pk": "030061", "Longitude": -112.28363712258246, "Latitude": 33.604466852249431, "geometry": "POINT (-112.2836371225825 33.60446685224943)" }, "geometry": { "type": "Point", "coordinates": [ -112.283637122582462, 33.604466852249431 ] } },
{ "type": "Feature", "properties": { "fid": 122, "hospital_name": "HONORHEALTH SCOTTSDALE SHEA MEDICAL CENTER", "address": "9003 EAST SHEA BOULEVARD", "city": "SCOTTSDALE", "zip": 85260, "placekey": "222@5zb-xm4-cdv", "hospital_pk": "030087", "Longitude": -111.88477649060395, "Latitude": 33.579635172134729, "geometry": "POINT (-111.884776490604 33.57963517213473)" }, "geometry": { "type": "Point", "coordinates": [ -111.884776490603954, 33.579635172134729 ] } },
{ "type": "Feature", "properties": { "fid": 123, "hospital_name": "BANNER HEART HOSPITAL", "address": "6750 EAST BAYWOOD AVENUE", "city": "MESA", "zip": 85206, "placekey": "223@8ts-zmz-dy9", "hospital_pk": "030105", "Longitude": -111.68543510788234, "Latitude": 33.411535539481989, "geometry": "POINT (-111.6854351078823 33.41153553948199)" }, "geometry": { "type": "Point", "coordinates": [ -111.685435107882341, 33.411535539481989 ] } },
{ "type": "Feature", "properties": { "fid": 124, "hospital_name": "ABRAZO WEST CAMPUS", "address": "13677 WEST MCDOWELL ROAD", "city": "GOODYEAR", "zip": 85395, "placekey": "222@8ts-d5m-nwk", "hospital_pk": "030110", "Longitude": -112.3528786320112, "Latitude": 33.462174958014224, "geometry": "POINT (-112.3528786320112 33.46217495801422)" }, "geometry": { "type": "Point", "coordinates": [ -112.352878632011198, 33.462174958014224 ] } },
{ "type": "Feature", "properties": { "fid": 125, "hospital_name": "MOUNTAIN VISTA MEDICAL CENTER, LP", "address": "1301 SOUTH CRISMON ROAD", "city": "MESA", "zip": 85209, "placekey": "222@8ts-zk4-tgk", "hospital_pk": "030121", "Longitude": -111.61076362980218, "Latitude": 33.391779471923407, "geometry": "POINT (-111.6107636298022 33.39177947192341)" }, "geometry": { "type": "Point", "coordinates": [ -111.610763629802179, 33.391779471923407 ] } },
{ "type": "Feature", "properties": { "fid": 126, "hospital_name": "WESTERN REGIONAL MEDICAL CENTER", "address": "14200 WEST CELEBRATE LIFE WAY", "city": "GOODYEAR", "zip": 85338, "placekey": "222@8ts-d5n-d5f", "hospital_pk": "030138", "Longitude": -112.36371114200591, "Latitude": 33.453941439666494, "geometry": "POINT (-112.3637111420059 33.45394143966649)" }, "geometry": { "type": "Point", "coordinates": [ -112.363711142005911, 33.453941439666494 ] } },
{ "type": "Feature", "properties": { "fid": 127, "hospital_name": "CURAHEALTH NORTHWEST PHOENIX", "address": "13216 NORTH PLAZA DEL RIO BLVD", "city": "PEORIA", "zip": 85381, "placekey": "223@5zb-xfr-5cq", "hospital_pk": "032000", "Longitude": -112.26099073342918, "Latitude": 33.604365147702779, "geometry": "POINT (-112.2609907334292 33.60436514770278)" }, "geometry": { "type": "Point", "coordinates": [ -112.260990733429182, 33.604365147702779 ] } },
{ "type": "Feature", "properties": { "fid": 128, "hospital_name": "SELECT SPECIALTY HOSPITAL PHOENIX", "address": "350 WEST THOMAS ROAD, 3RD FLOOR", "city": "PHOENIX", "zip": 85013, "placekey": "222@5zb-xbg-qcq", "hospital_pk": "032001", "Longitude": -112.07864418878536, "Latitude": 33.48233174596983, "geometry": "POINT (-112.0786441887854 33.48233174596983)" }, "geometry": { "type": "Point", "coordinates": [ -112.078644188785361, 33.48233174596983 ] } },
{ "type": "Feature", "properties": { "fid": 129, "hospital_name": "VALLEYWISE HEALTH MEDICAL CENTER", "address": "2601 EAST ROOSEVELT STREET", "city": "PHOENIX", "zip": 85008, "placekey": "225@5zb-xdt-djv", "hospital_pk": "030022", "Longitude": -112.02872323187727, "Latitude": 33.458222643777923, "geometry": "POINT (-112.0287232318773 33.45822264377792)" }, "geometry": { "type": "Point", "coordinates": [ -112.028723231877265, 33.458222643777923 ] } },
{ "type": "Feature", "properties": { "fid": 130, "hospital_name": "KPC PROMISE HOSPITAL OF PHOENIX, LLC", "address": "433 EAST 6TH STREET", "city": "MESA", "zip": 85203, "placekey": "223@8ts-zr7-wrk", "hospital_pk": "032006", "Longitude": -111.82123640516483, "Latitude": 33.424973884636685, "geometry": "POINT (-111.8212364051648 33.42497388463669)" }, "geometry": { "type": "Point", "coordinates": [ -111.821236405164825, 33.424973884636685 ] } },
{ "type": "Feature", "properties": { "fid": 131, "hospital_name": "BANNER ESTRELLA MEDICAL CENTER", "address": "9201 WEST THOMAS ROAD", "city": "PHOENIX", "zip": 85037, "placekey": "222@8ts-d67-t5f", "hospital_pk": "030115", "Longitude": -112.25934396002276, "Latitude": 33.477797979976145, "geometry": "POINT (-112.2593439600228 33.47779797997615)" }, "geometry": { "type": "Point", "coordinates": [ -112.259343960022761, 33.477797979976145 ] } },
{ "type": "Feature", "properties": { "fid": 132, "hospital_name": "ABRAZO CENTRAL CAMPUS", "address": "2000 WEST BETHANY HOME ROAD", "city": "PHOENIX", "zip": 85015, "placekey": "222@5zb-xb9-fs5", "hospital_pk": "030030", "Longitude": -112.10176369296165, "Latitude": 33.524673985383281, "geometry": "POINT (-112.1017636929617 33.52467398538328)" }, "geometry": { "type": "Point", "coordinates": [ -112.101763692961654, 33.524673985383281 ] } },
{ "type": "Feature", "properties": { "fid": 133, "hospital_name": "DIGNITY HEALTH - ARIZONA GENERAL HOSPITAL", "address": "7171 SOUTH 51ST AVENUE", "city": "LAVEEN", "zip": 85339, "placekey": "222@8ts-czy-c5z", "hospital_pk": "030136", "Longitude": -112.16775195329937, "Latitude": 33.380666735675995, "geometry": "POINT (-112.1677519532994 33.38066673567599)" }, "geometry": { "type": "Point", "coordinates": [ -112.167751953299373, 33.380666735675995 ] } },
{ "type": "Feature", "properties": { "fid": 134, "hospital_name": "HONORHEALTH DEER VALLEY MEDICAL CENTER", "address": "19829 NORTH 27TH AVENUE", "city": "PHOENIX", "zip": 85027, "placekey": "222@5zb-wtr-xdv", "hospital_pk": "030092", "Longitude": -112.11630211209172, "Latitude": 33.666054044180221, "geometry": "POINT (-112.1163021120917 33.66605404418022)" }, "geometry": { "type": "Point", "coordinates": [ -112.116302112091716, 33.666054044180221 ] } },
{ "type": "Feature", "properties": { "fid": 135, "hospital_name": "MERCY GILBERT MEDICAL CENTER", "address": "3555 SOUTH VAL VISTA DRIVE", "city": "GILBERT", "zip": 85297, "placekey": "222@8ts-zct-b6k", "hospital_pk": "030119", "Longitude": -111.75266039526373, "Latitude": 33.287560659512266, "geometry": "POINT (-111.7526603952637 33.28756065951227)" }, "geometry": { "type": "Point", "coordinates": [ -111.752660395263732, 33.287560659512266 ] } },
{ "type": "Feature", "properties": { "fid": 136, "hospital_name": "BANNER GATEWAY MEDICAL CENTER", "address": "1900 NORTH HIGLEY ROAD", "city": "GILBERT", "zip": 85234, "placekey": "222@8ts-zcm-5fz", "hospital_pk": "030122", "Longitude": -111.72471417319581, "Latitude": 33.384956601538263, "geometry": "POINT (-111.7247141731958 33.38495660153826)" }, "geometry": { "type": "Point", "coordinates": [ -111.724714173195807, 33.384956601538263 ] } },
{ "type": "Feature", "properties": { "fid": 137, "hospital_name": "BANNER DEL E. WEBB MEDICAL CENTER", "address": "14502 WEST MEEKER BOULEVARD", "city": "SUN CITY WEST", "zip": 85375, "placekey": "222@5zb-v5s-8gk", "hospital_pk": "030093", "Longitude": -112.37337873074686, "Latitude": 33.659429299076052, "geometry": "POINT (-112.3733787307469 33.65942929907605)" }, "geometry": { "type": "Point", "coordinates": [ -112.373378730746865, 33.659429299076052 ] } },
{ "type": "Feature", "properties": { "fid": 138, "hospital_name": "DIGNITY HEALTH ARIZONA GENERAL HOSPITAL", "address": "9130 EAST ELLIOT ROAD", "city": "MESA", "zip": 85212, "placekey": "222@8ts-zmt-3kf", "hospital_pk": "030139", "Longitude": -111.63707680645885, "Latitude": 33.350312112312267, "geometry": "POINT (-111.6370768064589 33.35031211231227)" }, "geometry": { "type": "Point", "coordinates": [ -111.63707680645885, 33.350312112312267 ] } },
{ "type": "Feature", "properties": { "fid": 139, "hospital_name": "ARIZONA SPINE AND JOINT HOSPITAL", "address": "4620 EAST BASELINE ROAD", "city": "MESA", "zip": 85206, "placekey": "222@8ts-zcb-7dv", "hospital_pk": "030107", "Longitude": -111.73546511878263, "Latitude": 33.380127996796219, "geometry": "POINT (-111.7354651187826 33.38012799679622)" }, "geometry": { "type": "Point", "coordinates": [ -111.735465118782628, 33.380127996796219 ] } },
{ "type": "Feature", "properties": { "fid": 140, "hospital_name": "ST. JOSEPH'S HOSPITAL AND MEDICAL CENTER", "address": "350 WEST THOMAS ROAD", "city": "PHOENIX", "zip": 85013, "placekey": "222@5zb-xbg-qcq", "hospital_pk": "030024", "Longitude": -112.07864418878536, "Latitude": 33.48233174596983, "geometry": "POINT (-112.0786441887854 33.48233174596983)" }, "geometry": { "type": "Point", "coordinates": [ -112.078644188785361, 33.48233174596983 ] } },
{ "type": "Feature", "properties": { "fid": 141, "hospital_name": "CORE INSTITUTE SPECIALTY HOSPITAL, THE", "address": "6501 NORTH 19TH AVENUE", "city": "PHOENIX", "zip": 85015, "placekey": "224@5zb-xb9-zs5", "hospital_pk": "030108", "Longitude": -112.09848698862395, "Latitude": 33.531811418584915, "geometry": "POINT (-112.0984869886239 33.53181141858492)" }, "geometry": { "type": "Point", "coordinates": [ -112.098486988623947, 33.531811418584915 ] } },
{ "type": "Feature", "properties": { "fid": 142, "hospital_name": "O.A.S.I.S. HOSPITAL", "address": "750 NORTH 40TH STREET", "city": "PHOENIX", "zip": 85008, "placekey": "222@8ts-zg4-jd9", "hospital_pk": "030131", "Longitude": -111.99657189515626, "Latitude": 33.457186039006729, "geometry": "POINT (-111.9965718951563 33.45718603900673)" }, "geometry": { "type": "Point", "coordinates": [ -111.996571895156265, 33.457186039006729 ] } },
{ "type": "Feature", "properties": { "fid": 143, "hospital_name": "ABRAZO SCOTTSDALE CAMPUS", "address": "3929 EAST BELL ROAD", "city": "PHOENIX", "zip": 85032, "placekey": "223@5zb-xdv-hyv", "hospital_pk": "030083", "Longitude": -112.03945037260064, "Latitude": 33.481188887889871, "geometry": "POINT (-112.0394503726006 33.48118888788987)" }, "geometry": { "type": "Point", "coordinates": [ -112.039450372600641, 33.481188887889871 ] } },
{ "type": "Feature", "properties": { "fid": 144, "hospital_name": "ARIZONA SPECIALTY HOSPITAL", "address": "2905 WEST WARNER ROAD, SUITE 1", "city": "CHANDLER", "zip": 85224, "placekey": "227@8ts-zj7-575", "hospital_pk": "030112", "Longitude": -111.89158213306824, "Latitude": 33.333895529945259, "geometry": "POINT (-111.8915821330682 33.33389552994526)" }, "geometry": { "type": "Point", "coordinates": [ -111.891582133068241, 33.333895529945259 ] } },
{ "type": "Feature", "properties": { "fid": 145, "hospital_name": "BANNER OCOTILLO MEDICAL CENTER", "address": "1405 SOUTH ALMA SCHOOL ROAD", "city": "CHANDLER", "zip": 85286, "placekey": "22d@8ts-zy4-dy9", "hospital_pk": "030147", "Longitude": -111.86053915644307, "Latitude": 33.278102986916693, "geometry": "POINT (-111.8605391564431 33.27810298691669)" }, "geometry": { "type": "Point", "coordinates": [ -111.860539156443068, 33.278102986916693 ] } },
{ "type": "Feature", "properties": { "fid": 146, "hospital_name": "WICKENBURG COMMUNITY HOSPITAL", "address": "520 ROSE LANE", "city": "WICKENBURG", "zip": 85390, "placekey": "222@5zb-w6r-psq", "hospital_pk": "031300", "Longitude": -112.7400761328305, "Latitude": 33.978345676808161, "geometry": "POINT (-112.7400761328305 33.97834567680816)" }, "geometry": { "type": "Point", "coordinates": [ -112.740076132830495, 33.978345676808161 ] } },
{ "type": "Feature", "properties": { "fid": 147, "hospital_name": "SELECT SPECIALTY HOSPITAL ARIZONA", "address": "1111 EAST MCDOWELL RD, 11TH FLOOR", "city": "PHOENIX", "zip": 85006, "placekey": "222@5zb-xdv-xh5", "hospital_pk": "032005", "Longitude": -112.05814198228381, "Latitude": 33.465200071955806, "geometry": "POINT (-112.0581419822838 33.46520007195581)" }, "geometry": { "type": "Point", "coordinates": [ -112.058141982283814, 33.465200071955806 ] } },
{ "type": "Feature", "properties": { "fid": 148, "hospital_name": "PHOENIX CHILDREN'S HOSPITAL", "address": "1919 EAST THOMAS ROAD", "city": "PHOENIX", "zip": 85016, "placekey": "222@5zb-xdv-j35", "hospital_pk": "033302", "Longitude": -112.04054352072964, "Latitude": 33.478809557541503, "geometry": "POINT (-112.0405435207296 33.4788095575415)" }, "geometry": { "type": "Point", "coordinates": [ -112.040543520729642, 33.478809557541503 ] } },
{ "type": "Feature", "properties": { "fid": 149, "hospital_name": "HONORHEALTH JOHN C. LINCOLN MEDICAL CENTER", "address": "250 EAST DUNLAP AVENUE", "city": "PHOENIX", "zip": 85020, "placekey": "222@5zb-xcf-dvz", "hospital_pk": "030014", "Longitude": -112.06995351354641, "Latitude": 33.569208440808893, "geometry": "POINT (-112.0699535135464 33.56920844080889)" }, "geometry": { "type": "Point", "coordinates": [ -112.069953513546409, 33.569208440808893 ] } },
{ "type": "Feature", "properties": { "fid": 150, "hospital_name": "BANNER THUNDERBIRD MEDICAL CENTER", "address": "5555 WEST THUNDERBIRD ROAD", "city": "GLENDALE", "zip": 85306, "placekey": "222@5zb-xgj-cbk", "hospital_pk": "030089", "Longitude": -112.17926603722135, "Latitude": 33.609328764900702, "geometry": "POINT (-112.1792660372214 33.6093287649007)" }, "geometry": { "type": "Point", "coordinates": [ -112.179266037221353, 33.609328764900702 ] } },
{ "type": "Feature", "properties": { "fid": 151, "hospital_name": "ST LUKE'S MEDICAL CENTER", "address": "1800 EAST VAN BUREN STREET", "city": "PHOENIX", "zip": 85006, "placekey": "223@5zb-xdq-3t9", "hospital_pk": "030037", "Longitude": -112.0430420892346, "Latitude": 33.451752709087309, "geometry": "POINT (-112.0430420892346 33.45175270908731)" }, "geometry": { "type": "Point", "coordinates": [ -112.043042089234604, 33.451752709087309 ] } },
{ "type": "Feature", "properties": { "fid": 152, "hospital_name": "ABRAZO ARROWHEAD CAMPUS", "address": "18701 NORTH 67TH AVENUE", "city": "GLENDALE", "zip": 85308, "placekey": "224@5zb-wwp-w6k", "hospital_pk": "030094", "Longitude": -112.20080800781214, "Latitude": 33.655183289967177, "geometry": "POINT (-112.2008080078121 33.65518328996718)" }, "geometry": { "type": "Point", "coordinates": [ -112.200808007812142, 33.655183289967177 ] } },
{ "type": "Feature", "properties": { "fid": 153, "hospital_name": "BANNER - UNIVERSITY MEDICAL CENTER PHOENIX", "address": "1111 EAST MCDOWELL ROAD", "city": "PHOENIX", "zip": 85006, "placekey": "222@5zb-xdv-xh5", "hospital_pk": "030002", "Longitude": -112.05814198228381, "Latitude": 33.465200071955806, "geometry": "POINT (-112.0581419822838 33.46520007195581)" }, "geometry": { "type": "Point", "coordinates": [ -112.058141982283814, 33.465200071955806 ] } },
{ "type": "Feature", "properties": { "fid": 154, "hospital_name": "BANNER DESERT MEDICAL CENTER", "address": "1400 SOUTH  DOBSON ROAD", "city": "MESA", "zip": 85202, "placekey": "225@8ts-zj5-zcq", "hospital_pk": "030065", "Longitude": -111.87741709128458, "Latitude": 33.389312557104624, "geometry": "POINT (-111.8774170912846 33.38931255710462)" }, "geometry": { "type": "Point", "coordinates": [ -111.877417091284585, 33.389312557104624 ] } },
{ "type": "Feature", "properties": { "fid": 155, "hospital_name": "HONORHEALTH SCOTTSDALE THOMPSON PEAK MED CTR", "address": "7400 EAST THOMPSON PEAK PARKWAY", "city": "SCOTTSDALE", "zip": 85255, "placekey": "222@5zb-x5b-qj9", "hospital_pk": "030123", "Longitude": -111.92211892041877, "Latitude": 33.671131430838827, "geometry": "POINT (-111.9221189204188 33.67113143083883)" }, "geometry": { "type": "Point", "coordinates": [ -111.922118920418768, 33.671131430838827 ] } },
{ "type": "Feature", "properties": { "fid": 156, "hospital_name": "BANNER BAYWOOD MEDICAL CENTER", "address": "6644 EAST BAYWOOD AVENUE", "city": "MESA", "zip": 85206, "placekey": "225@8ts-zmz-j35", "hospital_pk": "030088", "Longitude": -111.69053804479975, "Latitude": 33.409717661679046, "geometry": "POINT (-111.6905380447998 33.40971766167905)" }, "geometry": { "type": "Point", "coordinates": [ -111.690538044799752, 33.409717661679046 ] } },
{ "type": "Feature", "properties": { "fid": 157, "hospital_name": "MAYO CLINIC HOSPITAL", "address": "5777 EAST MAYO BOULEVARD", "city": "PHOENIX", "zip": 85054, "placekey": "222@5zb-x58-qj9", "hospital_pk": "030103", "Longitude": -111.95635629298611, "Latitude": 33.658559828727427, "geometry": "POINT (-111.9563562929861 33.65855982872743)" }, "geometry": { "type": "Point", "coordinates": [ -111.956356292986115, 33.658559828727427 ] } },
{ "type": "Feature", "properties": { "fid": 158, "hospital_name": "KINGMAN REGIONAL MEDICAL CENTER", "address": "3269 STOCKTON HILL ROAD", "city": "KINGMAN", "zip": 86409, "placekey": "222@5zb-25z-87q", "hospital_pk": "030055", "Longitude": -114.03779861266281, "Latitude": 35.21954003651156, "geometry": "POINT (-114.0377986126628 35.21954003651156)" }, "geometry": { "type": "Point", "coordinates": [ -114.037798612662812, 35.21954003651156 ] } },
{ "type": "Feature", "properties": { "fid": 159, "hospital_name": "HAVASU REGIONAL MEDICAL CENTER", "address": "101 CIVIC CENTER LANE", "city": "LAKE HAVASU CITY", "zip": 86403, "placekey": "223@5z9-7pm-qzz", "hospital_pk": "030069", "Longitude": -114.33824502222863, "Latitude": 34.479896858039595, "geometry": "POINT (-114.3382450222286 34.4798968580396)" }, "geometry": { "type": "Point", "coordinates": [ -114.338245022228634, 34.479896858039595 ] } },
{ "type": "Feature", "properties": { "fid": 160, "hospital_name": "VALLEY VIEW MEDICAL CENTER", "address": "5330 SOUTH HIGHWAY 95", "city": "FORT MOHAVE", "zip": 86426, "placekey": "222@5z9-bt9-3nq", "hospital_pk": "030117", "Longitude": -114.59559758512259, "Latitude": 35.002116702601754, "geometry": "POINT (-114.5955975851226 35.00211670260175)" }, "geometry": { "type": "Point", "coordinates": [ -114.59559758512259, 35.002116702601754 ] } },
{ "type": "Feature", "properties": { "fid": 161, "hospital_name": "WESTERN ARIZONA REGIONAL MEDICAL CENTER", "address": "2735 SILVER CREEK ROAD", "city": "BULLHEAD CITY", "zip": 86442, "placekey": "222@5z9-dmx-kmk", "hospital_pk": "030101", "Longitude": -114.55600652621257, "Latitude": 35.111031604016958, "geometry": "POINT (-114.5560065262126 35.11103160401696)" }, "geometry": { "type": "Point", "coordinates": [ -114.55600652621257, 35.111031604016958 ] } },
{ "type": "Feature", "properties": { "fid": 162, "hospital_name": "SUMMIT HEALTHCARE REGIONAL MEDICAL CENTER", "address": "2200 EAST SHOW LOW LAKE ROAD", "city": "SHOW LOW", "zip": 85901, "placekey": "222@8th-b8y-99f", "hospital_pk": "030062", "Longitude": -110.01700367746167, "Latitude": 34.203450151402102, "geometry": "POINT (-110.0170036774617 34.2034501514021)" }, "geometry": { "type": "Point", "coordinates": [ -110.017003677461673, 34.203450151402102 ] } },
{ "type": "Feature", "properties": { "fid": 163, "hospital_name": "LITTLE COLORADO MEDICAL CENTER", "address": "1501 NORTH WILLIAMSON AVENUE", "city": "WINSLOW", "zip": 86047, "placekey": "222@8tg-8jq-xwk", "hospital_pk": "031311", "Longitude": -110.69251792304533, "Latitude": 35.035206123291303, "geometry": "POINT (-110.6925179230453 35.0352061232913)" }, "geometry": { "type": "Point", "coordinates": [ -110.69251792304533, 35.035206123291303 ] } },
{ "type": "Feature", "properties": { "fid": 164, "hospital_name": "CORNERSTONE SPECIALTY HOSPITALS TUCSON", "address": "7220 EAST ROSEWOOD STREET", "city": "TUCSON", "zip": 85710, "placekey": "222@8ts-3h8-nbk", "hospital_pk": "032004", "Longitude": -110.83770600146342, "Latitude": 32.2304794134036, "geometry": "POINT (-110.8377060014634 32.2304794134036)" }, "geometry": { "type": "Point", "coordinates": [ -110.837706001463417, 32.2304794134036 ] } },
{ "type": "Feature", "properties": { "fid": 165, "hospital_name": "ST JOSEPH'S HOSPITAL", "address": "350 NORTH WILMOT ROAD", "city": "TUCSON", "zip": 85711, "placekey": "223@8ts-3n9-9s5", "hospital_pk": "030011", "Longitude": -110.85386716266106, "Latitude": 32.226097988614434, "geometry": "POINT (-110.8538671626611 32.22609798861443)" }, "geometry": { "type": "Point", "coordinates": [ -110.853867162661061, 32.226097988614434 ] } },
{ "type": "Feature", "properties": { "fid": 166, "hospital_name": "BANNER - UNIVERSITY MEDICAL CENTER TUCSON CAMPUS", "address": "1625 NORTH CAMPBELL AVENUE", "city": "TUCSON", "zip": 85724, "placekey": "227@8ts-3m3-yjv", "hospital_pk": "030064", "Longitude": -110.94389120138101, "Latitude": 32.242100817753268, "geometry": "POINT (-110.943891201381 32.24210081775327)" }, "geometry": { "type": "Point", "coordinates": [ -110.943891201381007, 32.242100817753268 ] } },
{ "type": "Feature", "properties": { "fid": 167, "hospital_name": "ORO VALLEY HOSPITAL", "address": "1551 EAST TANGERINE ROAD", "city": "ORO VALLEY", "zip": 85755, "placekey": "222@8ts-34m-whq", "hospital_pk": "030114", "Longitude": -110.94939165843924, "Latitude": 32.428181426848532, "geometry": "POINT (-110.9493916584392 32.42818142684853)" }, "geometry": { "type": "Point", "coordinates": [ -110.949391658439239, 32.428181426848532 ] } },
{ "type": "Feature", "properties": { "fid": 168, "hospital_name": "TUCSON MEDICAL CENTER", "address": "5301 EAST GRANT ROAD", "city": "TUCSON", "zip": 85712, "placekey": "222@8ts-3mx-s3q", "hospital_pk": "030006", "Longitude": -110.88106601865131, "Latitude": 32.252702772150592, "geometry": "POINT (-110.8810660186513 32.25270277215059)" }, "geometry": { "type": "Point", "coordinates": [ -110.88106601865131, 32.252702772150592 ] } },
{ "type": "Feature", "properties": { "fid": 169, "hospital_name": "SANTA CRUZ VALLEY REGIONAL HOSPITAL", "address": "4455 SOUTH I-19 FRONTAGE ROAD", "city": "GREEN VALLEY", "zip": 85614, "placekey": "222@8ts-7dg-q2k", "hospital_pk": "030137", "Longitude": -111.00982089815236, "Latitude": 31.806440873391015, "geometry": "POINT (-111.0098208981524 31.80644087339101)" }, "geometry": { "type": "Point", "coordinates": [ -111.009820898152356, 31.806440873391015 ] } },
{ "type": "Feature", "properties": { "fid": 170, "hospital_name": "BANNER-UNIVERSITY MEDICAL CENTER SOUTH CAMPUS", "address": "2800 EAST AJO WAY", "city": "TUCSON", "zip": 85713, "placekey": "225@8ts-3pw-s5z", "hospital_pk": "030111", "Longitude": -110.92851315187822, "Latitude": 32.174754157306118, "geometry": "POINT (-110.9285131518782 32.17475415730612)" }, "geometry": { "type": "Point", "coordinates": [ -110.928513151878221, 32.174754157306118 ] } },
{ "type": "Feature", "properties": { "fid": 171, "hospital_name": "NORTHWEST MEDICAL CENTER", "address": "6200 NORTH LA CHOLLA BOULEVARD", "city": "TUCSON", "zip": 85741, "placekey": "222@8tr-zbf-qxq", "hospital_pk": "030085", "Longitude": -111.01067900872458, "Latitude": 32.320455218953683, "geometry": "POINT (-111.0106790087246 32.32045521895368)" }, "geometry": { "type": "Point", "coordinates": [ -111.01067900872458, 32.320455218953683 ] } },
{ "type": "Feature", "properties": { "fid": 172, "hospital_name": "CURAHEALTH TUCSON", "address": "355 NORTH WILMOT ROAD", "city": "TUCSON", "zip": 85711, "placekey": "222@8ts-3n9-5xq", "hospital_pk": "032002", "Longitude": -110.85838292344836, "Latitude": 32.225498768488691, "geometry": "POINT (-110.8583829234484 32.22549876848869)" }, "geometry": { "type": "Point", "coordinates": [ -110.85838292344836, 32.225498768488691 ] } },
{ "type": "Feature", "properties": { "fid": 173, "hospital_name": "ST. MARY'S HOSPITAL", "address": "1601 WEST ST MARY'S ROAD", "city": "TUCSON", "zip": 85745, "placekey": "222@8ts-3pc-5xq", "hospital_pk": "030010", "Longitude": -110.99988013571036, "Latitude": 32.227904194104418, "geometry": "POINT (-110.9998801357104 32.22790419410442)" }, "geometry": { "type": "Point", "coordinates": [ -110.999880135710356, 32.227904194104418 ] } },
{ "type": "Feature", "properties": { "fid": 174, "hospital_name": "BANNER IRONWOOD MEDICAL CENTER", "address": "37000 NORTH GANTZEL ROAD", "city": "QUEEN CREEK", "zip": 85140, "placekey": "222@8tt-254-6tv", "hospital_pk": "030130", "Longitude": -111.56516561265515, "Latitude": 33.214323738439511, "geometry": "POINT (-111.5651656126552 33.21432373843951)" }, "geometry": { "type": "Point", "coordinates": [ -111.56516561265515, 33.214323738439511 ] } },
{ "type": "Feature", "properties": { "fid": 175, "hospital_name": "BANNER GOLDFIELD MEDICAL CENTER", "address": "2050 WEST SOUTHERN AVENUE", "city": "APACHE JUNCTION", "zip": 85120, "placekey": "223@8ts-zk5-9pv", "hospital_pk": "030134", "Longitude": -111.56688492251924, "Latitude": 33.394467610721129, "geometry": "POINT (-111.5668849225192 33.39446761072113)" }, "geometry": { "type": "Point", "coordinates": [ -111.566884922519236, 33.394467610721129 ] } },
{ "type": "Feature", "properties": { "fid": 176, "hospital_name": "BANNER CASA GRANDE MEDICAL CENTER", "address": "1800 EAST FLORENCE BOULEVARD", "city": "CASA GRANDE", "zip": 85122, "placekey": "222@8ts-cjw-6rk", "hospital_pk": "030016", "Longitude": -111.70886576712101, "Latitude": 32.881155414026409, "geometry": "POINT (-111.708865767121 32.88115541402641)" }, "geometry": { "type": "Point", "coordinates": [ -111.708865767121011, 32.881155414026409 ] } },
{ "type": "Feature", "properties": { "fid": 177, "hospital_name": "HOLY CROSS HOSPITAL", "address": "1171 WEST TARGET RANGE ROAD", "city": "NOGALES", "zip": 85621, "placekey": "222@8tt-7z4-btv", "hospital_pk": "031313", "Longitude": -110.95882808847735, "Latitude": 31.33957848434294, "geometry": "POINT (-110.9588280884773 31.33957848434294)" }, "geometry": { "type": "Point", "coordinates": [ -110.958828088477347, 31.33957848434294 ] } },
{ "type": "Feature", "properties": { "fid": 178, "hospital_name": "VERDE VALLEY MEDICAL CENTER", "address": "269 SOUTH CANDY LANE", "city": "COTTONWOOD", "zip": 86326, "placekey": "222@5z9-t65-bx5", "hospital_pk": "030007", "Longitude": -112.02999628786323, "Latitude": 34.735203889437138, "geometry": "POINT (-112.0299962878632 34.73520388943714)" }, "geometry": { "type": "Point", "coordinates": [ -112.029996287863227, 34.735203889437138 ] } },
{ "type": "Feature", "properties": { "fid": 179, "hospital_name": "YAVAPAI REGIONAL MEDICAL CENTER", "address": "1003 WILLOW CREEK ROAD", "city": "PRESCOTT", "zip": 86301, "placekey": "222@5zb-t2h-mkz", "hospital_pk": "030012", "Longitude": -112.48124654418577, "Latitude": 34.558652053827466, "geometry": "POINT (-112.4812465441858 34.55865205382747)" }, "geometry": { "type": "Point", "coordinates": [ -112.481246544185765, 34.558652053827466 ] } },
{ "type": "Feature", "properties": { "fid": 180, "hospital_name": "YUMA REGIONAL MEDICAL CENTER", "address": "2400 SOUTH AVENUE A", "city": "YUMA", "zip": 85364, "placekey": "222@8sc-xfx-85f", "hospital_pk": "030013", "Longitude": -114.63586249448895, "Latitude": 32.682205671252888, "geometry": "POINT (-114.6358624944889 32.68220567125289)" }, "geometry": { "type": "Point", "coordinates": [ -114.635862494488947, 32.682205671252888 ] } },
{ "type": "Feature", "properties": { "fid": 181, "hospital_name": "BAPTIST HEALTH MEDICAL CENTER-STUTTGART", "address": "1703 NORTH BUERKLE ST", "city": "STUTTGART", "zip": 72160, "placekey": "222@5ps-gzp-2tv", "hospital_pk": "040072", "Longitude": -91.559366460515733, "Latitude": 34.517736583563291, "geometry": "POINT (-91.55936646051573 34.51773658356329)" }, "geometry": { "type": "Point", "coordinates": [ -91.559366460515733, 34.517736583563291 ] } },
{ "type": "Feature", "properties": { "fid": 182, "hospital_name": "DEWITT HOSPITAL & NURSING HOME, INC", "address": "1641 WHITEHEAD DRIVE", "city": "DE WITT", "zip": 72042, "placekey": "222@5ps-h2p-tgk", "hospital_pk": "041314", "Longitude": -91.338757018361633, "Latitude": 34.278986974043825, "geometry": "POINT (-91.33875701836163 34.27898697404382)" }, "geometry": { "type": "Point", "coordinates": [ -91.338757018361633, 34.278986974043825 ] } },
{ "type": "Feature", "properties": { "fid": 183, "hospital_name": "NEA BAPTIST MEMORIAL HOSPITAL", "address": "4800 EAST JOHNSON AVENUE", "city": "JONESBORO", "zip": 72405, "placekey": "222@5pt-4rm-zvf", "hospital_pk": "040118", "Longitude": -90.637256574209118, "Latitude": 35.865931666463482, "geometry": "POINT (-90.63725657420912 35.86593166646348)" }, "geometry": { "type": "Point", "coordinates": [ -90.637256574209118, 35.865931666463482 ] } },
{ "type": "Feature", "properties": { "fid": 184, "hospital_name": "ASHLEY COUNTY MEDICAL CENTER", "address": "1015 UNITY ROAD", "city": "CROSSETT", "zip": 71635, "placekey": "222@8f2-zhq-xnq", "hospital_pk": "041323", "Longitude": -91.939092463716804, "Latitude": 33.138685507830075, "geometry": "POINT (-91.9390924637168 33.13868550783008)" }, "geometry": { "type": "Point", "coordinates": [ -91.939092463716804, 33.138685507830075 ] } },
{ "type": "Feature", "properties": { "fid": 185, "hospital_name": "BAXTER REGIONAL MEDICAL CENTER", "address": "624 HOSPITAL DRIVE", "city": "MOUNTAIN HOME", "zip": 72653, "placekey": "222@5pt-c33-4gk", "hospital_pk": "04T027", "Longitude": -92.395835133453758, "Latitude": 36.34303279050765, "geometry": "POINT (-92.39583513345376 36.34303279050765)" }, "geometry": { "type": "Point", "coordinates": [ -92.395835133453758, 36.34303279050765 ] } },
{ "type": "Feature", "properties": { "fid": 186, "hospital_name": "BAXTER REGIONAL MEDICAL CENTER", "address": "624 HOSPITAL DRIVE", "city": "MOUNTAIN HOME", "zip": 72653, "placekey": "222@5pt-c33-4gk", "hospital_pk": "040027", "Longitude": -92.396330261276304, "Latitude": 36.342253805416149, "geometry": "POINT (-92.3963302612763 36.34225380541615)" }, "geometry": { "type": "Point", "coordinates": [ -92.396330261276304, 36.342253805416149 ] } },
{ "type": "Feature", "properties": { "fid": 187, "hospital_name": "OZARKS COMMUNITY HOSPITAL OF GRAVETTE", "address": "1101 JACKSON STREET SW", "city": "GRAVETTE", "zip": 72736, "placekey": "222@5r8-77g-hyv", "hospital_pk": "041331", "Longitude": -94.461077688627043, "Latitude": 36.408656388732723, "geometry": "POINT (-94.46107768862704 36.40865638873272)" }, "geometry": { "type": "Point", "coordinates": [ -94.461077688627043, 36.408656388732723 ] } },
{ "type": "Feature", "properties": { "fid": 188, "hospital_name": "MERCY HOSPITAL NORTHWEST ARKANSAS", "address": "2710 SOUTH RIFE MEDICAL LANE", "city": "ROGERS", "zip": 72758, "placekey": "222@5r8-759-zcq", "hospital_pk": "040010", "Longitude": -94.183530468538208, "Latitude": 36.309274634875514, "geometry": "POINT (-94.18353046853821 36.30927463487551)" }, "geometry": { "type": "Point", "coordinates": [ -94.183530468538208, 36.309274634875514 ] } },
{ "type": "Feature", "properties": { "fid": 189, "hospital_name": "SILOAM SPRINGS REGIONAL HOSPITAL", "address": "603 NORTH PROGRESS AVENUE", "city": "SILOAM SPRINGS", "zip": 72761, "placekey": "222@5r6-wyk-xbk", "hospital_pk": "040001", "Longitude": -94.507730583177192, "Latitude": 36.189635956237183, "geometry": "POINT (-94.50773058317719 36.18963595623718)" }, "geometry": { "type": "Point", "coordinates": [ -94.507730583177192, 36.189635956237183 ] } },
{ "type": "Feature", "properties": { "fid": 190, "hospital_name": "NORTH ARKANSAS REGIONAL MEDICAL CENTER", "address": "620 NORTH MAIN STREET", "city": "HARRISON", "zip": 72601, "placekey": "222@5r8-9ky-6rk", "hospital_pk": "040017", "Longitude": -93.109061200668719, "Latitude": 36.235825824774402, "geometry": "POINT (-93.10906120066872 36.2358258247744)" }, "geometry": { "type": "Point", "coordinates": [ -93.109061200668719, 36.235825824774402 ] } },
{ "type": "Feature", "properties": { "fid": 191, "hospital_name": "BRADLEY COUNTY MEDICAL CENTER", "address": "404 SOUTH BRADLEY STREET", "city": "WARREN", "zip": 71671, "placekey": "223@8dz-sjf-cnq", "hospital_pk": "041327", "Longitude": -92.059180434100583, "Latitude": 33.610640845540964, "geometry": "POINT (-92.05918043410058 33.61064084554096)" }, "geometry": { "type": "Point", "coordinates": [ -92.059180434100583, 33.610640845540964 ] } },
{ "type": "Feature", "properties": { "fid": 192, "hospital_name": "MERCY HOSPITAL BERRYVILLE", "address": "214 CARTER STREET", "city": "BERRYVILLE", "zip": 72616, "placekey": "222@5r8-57k-nh5", "hospital_pk": "041329", "Longitude": -93.551262251113755, "Latitude": 36.358270687808236, "geometry": "POINT (-93.55126225111376 36.35827068780824)" }, "geometry": { "type": "Point", "coordinates": [ -93.551262251113755, 36.358270687808236 ] } },
{ "type": "Feature", "properties": { "fid": 193, "hospital_name": "EUREKA SPRINGS HOSPITAL COMMISSION", "address": "24 NORRIS STREET", "city": "EUREKA SPRINGS", "zip": 72632, "placekey": "222@5r8-52m-qs5", "hospital_pk": "041304", "Longitude": -93.744089456035653, "Latitude": 36.400555210520729, "geometry": "POINT (-93.74408945603565 36.40055521052073)" }, "geometry": { "type": "Point", "coordinates": [ -93.744089456035653, 36.400555210520729 ] } },
{ "type": "Feature", "properties": { "fid": 194, "hospital_name": "BAPTIST HEALTH MEDICAL CENTER-ARKADELPHIA", "address": "3050 TWIN RIVERS DRIVE", "city": "ARKADELPHIA", "zip": 71923, "placekey": "223@8f2-72d-t7q", "hospital_pk": "041321", "Longitude": -93.08812895443441, "Latitude": 34.12328692599975, "geometry": "POINT (-93.08812895443441 34.12328692599975)" }, "geometry": { "type": "Point", "coordinates": [ -93.08812895443441, 34.12328692599975 ] } },
{ "type": "Feature", "properties": { "fid": 195, "hospital_name": "PIGGOTT COMMUNITY HOSPITAL ", "address": "216 EAST MAIN STREET", "city": "PIGGOTT", "zip": 72454, "placekey": "22c@5pt-23q-btv", "hospital_pk": "041330", "Longitude": -90.188360495770397, "Latitude": 36.382556448309266, "geometry": "POINT (-90.1883604957704 36.38255644830927)" }, "geometry": { "type": "Point", "coordinates": [ -90.188360495770397, 36.382556448309266 ] } },
{ "type": "Feature", "properties": { "fid": 196, "hospital_name": "BAPTIST HEALTH MEDICAL CENTER HEBER SPINGS", "address": "1800 BYPASS ROAD", "city": "HEBER SPRINGS", "zip": 72543, "placekey": "222@5pr-qqy-6kz", "hospital_pk": "041312", "Longitude": -91.998211854479734, "Latitude": 35.503345717530365, "geometry": "POINT (-91.99821185447973 35.50334571753037)" }, "geometry": { "type": "Point", "coordinates": [ -91.998211854479734, 35.503345717530365 ] } },
{ "type": "Feature", "properties": { "fid": 197, "hospital_name": "MAGNOLIA REGIONAL MEDICAL CENTER", "address": "101 HOSPITAL DRIVE", "city": "MAGNOLIA", "zip": 71753, "placekey": "223@8dz-7ym-tn5", "hospital_pk": "040067", "Longitude": -93.238544883414448, "Latitude": 33.274750535990684, "geometry": "POINT (-93.23854488341445 33.27475053599068)" }, "geometry": { "type": "Point", "coordinates": [ -93.238544883414448, 33.274750535990684 ] } },
{ "type": "Feature", "properties": { "fid": 198, "hospital_name": "CHI ST VINCENT MORRILTON", "address": "#4 HOSPITAL DRIVE", "city": "MORRILTON", "zip": 72110, "placekey": "222@5ps-7cj-p7q", "hospital_pk": "041324", "Longitude": -92.720951639851918, "Latitude": 35.167852212996856, "geometry": "POINT (-92.72095163985192 35.16785221299686)" }, "geometry": { "type": "Point", "coordinates": [ -92.720951639851918, 35.167852212996856 ] } },
{ "type": "Feature", "properties": { "fid": 199, "hospital_name": "ST BERNARDS MEDICAL CENTER", "address": "225 E WASHIINGTON AVENUE", "city": "JONESBORO", "zip": 72401, "placekey": "222@5pt-4q8-cdv", "hospital_pk": "040020", "Longitude": -90.7029493948517, "Latitude": 35.837062793221605, "geometry": "POINT (-90.7029493948517 35.83706279322161)" }, "geometry": { "type": "Point", "coordinates": [ -90.7029493948517, 35.837062793221605 ] } },
{ "type": "Feature", "properties": { "fid": 200, "hospital_name": "ARKANSAS CONTINUED CARE HOSPITAL OF JONESBORO", "address": "3024 RED WOLF BOULEVARD, SUITE 1", "city": "JONESBORO", "zip": 72401, "placekey": "224@5pt-4py-vxq", "hospital_pk": "042013", "Longitude": -90.666352166209279, "Latitude": 35.808316452473626, "geometry": "POINT (-90.66635216620928 35.80831645247363)" }, "geometry": { "type": "Point", "coordinates": [ -90.666352166209279, 35.808316452473626 ] } },
{ "type": "Feature", "properties": { "fid": 201, "hospital_name": "BAPTIST HEALTH - VAN BUREN", "address": "211 CRAWFORD MEMORIAL DRIVE", "city": "VAN BUREN", "zip": 72956, "placekey": "222@5r7-7jx-2zf", "hospital_pk": "040018", "Longitude": -94.338070319934843, "Latitude": 35.435328321420641, "geometry": "POINT (-94.33807031993484 35.43532832142064)" }, "geometry": { "type": "Point", "coordinates": [ -94.338070319934843, 35.435328321420641 ] } },
{ "type": "Feature", "properties": { "fid": 202, "hospital_name": "BAPTIST MEMORIAL HOSPITAL-CRITTENDEN, INC", "address": "2100 NORTH SEVENTH STREET", "city": "WEST MEMPHIS", "zip": 72301, "placekey": "222@5ps-3yy-8sq", "hospital_pk": "040156", "Longitude": -90.177341991544424, "Latitude": 35.167302438950301, "geometry": "POINT (-90.17734199154442 35.1673024389503)" }, "geometry": { "type": "Point", "coordinates": [ -90.177341991544424, 35.167302438950301 ] } },
{ "type": "Feature", "properties": { "fid": 203, "hospital_name": "CROSSRIDGE COMMUNITY HOSPITAL", "address": "310 SOUTH FALLS BOULEVARD", "city": "WYNNE", "zip": 72396, "placekey": "224@5pr-yy8-g6k", "hospital_pk": "041307", "Longitude": -90.786403815165272, "Latitude": 35.22483871346418, "geometry": "POINT (-90.78640381516527 35.22483871346418)" }, "geometry": { "type": "Point", "coordinates": [ -90.786403815165272, 35.22483871346418 ] } },
{ "type": "Feature", "properties": { "fid": 204, "hospital_name": "DALLAS COUNTY MEDICAL CENTER", "address": "201 CLIFTON STREET", "city": "FORDYCE", "zip": 71742, "placekey": "227@8dz-xy3-52k", "hospital_pk": "041317", "Longitude": -92.425951026572676, "Latitude": 33.811159914660301, "geometry": "POINT (-92.42595102657268 33.8111599146603)" }, "geometry": { "type": "Point", "coordinates": [ -92.425951026572676, 33.811159914660301 ] } },
{ "type": "Feature", "properties": { "fid": 205, "hospital_name": "MCGEHEE HOSPITAL", "address": "900 SOUTH THIRD STREET", "city": "MCGEHEE", "zip": 71654, "placekey": "225@8dz-vsf-ht9", "hospital_pk": "041308", "Longitude": -91.392982399751077, "Latitude": 33.617621458964216, "geometry": "POINT (-91.39298239975108 33.61762145896422)" }, "geometry": { "type": "Point", "coordinates": [ -91.392982399751077, 33.617621458964216 ] } },
{ "type": "Feature", "properties": { "fid": 206, "hospital_name": "DELTA MEMORIAL HOSPITAL", "address": "811 HIGHWAY 65 SOUTH", "city": "DUMAS", "zip": 71639, "placekey": "222@8dz-vc7-x5z", "hospital_pk": "041326", "Longitude": -91.480430961589761, "Latitude": 33.873451789048019, "geometry": "POINT (-91.48043096158976 33.87345178904802)" }, "geometry": { "type": "Point", "coordinates": [ -91.480430961589761, 33.873451789048019 ] } },
{ "type": "Feature", "properties": { "fid": 207, "hospital_name": "DREW MEMORIAL HOSPITAL", "address": "778 SCOGIN DRIVE", "city": "MONTICELLO", "zip": 71655, "placekey": "222@8dz-srx-t35", "hospital_pk": "040051", "Longitude": -91.816957772155718, "Latitude": 33.610791909625874, "geometry": "POINT (-91.81695777215572 33.61079190962587)" }, "geometry": { "type": "Point", "coordinates": [ -91.816957772155718, 33.610791909625874 ] } },
{ "type": "Feature", "properties": { "fid": 208, "hospital_name": "CONWAY REGIONAL HEALTH SYSTEM", "address": "2302 COLLEGE AVENUE", "city": "CONWAY", "zip": 72034, "placekey": "225@5ps-78r-jgk", "hospital_pk": "040029", "Longitude": -92.458473543791328, "Latitude": 35.085822685377096, "geometry": "POINT (-92.45847354379133 35.0858226853771)" }, "geometry": { "type": "Point", "coordinates": [ -92.458473543791328, 35.085822685377096 ] } },
{ "type": "Feature", "properties": { "fid": 209, "hospital_name": "BAPTIST HEALTH MEDICAL CENTER- CONWAY", "address": "1555 EXCHANGE AVENUE", "city": "CONWAY", "zip": 72032, "placekey": "222@5ps-79d-kzz", "hospital_pk": "040154", "Longitude": -92.418933789353659, "Latitude": 35.056279749713077, "geometry": "POINT (-92.41893378935366 35.05627974971308)" }, "geometry": { "type": "Point", "coordinates": [ -92.418933789353659, 35.056279749713077 ] } },
{ "type": "Feature", "properties": { "fid": 210, "hospital_name": "MERCY HOSPITAL TURNER MEMORIAL", "address": "801 WEST RIVER STREET", "city": "OZARK", "zip": 72949, "placekey": "227@5r7-5q5-hbk", "hospital_pk": "041303", "Longitude": -93.83409720024126, "Latitude": 35.486723654686166, "geometry": "POINT (-93.83409720024126 35.48672365468617)" }, "geometry": { "type": "Point", "coordinates": [ -93.83409720024126, 35.486723654686166 ] } },
{ "type": "Feature", "properties": { "fid": 211, "hospital_name": "FULTON COUNTY HOSPITAL", "address": "679 NORTH MAIN STREET", "city": "SALEM", "zip": 72576, "placekey": "222@5pr-v72-c89", "hospital_pk": "041322", "Longitude": -91.811101149745951, "Latitude": 36.382843566648098, "geometry": "POINT (-91.81110114974595 36.3828435666481)" }, "geometry": { "type": "Point", "coordinates": [ -91.811101149745951, 36.382843566648098 ] } },
{ "type": "Feature", "properties": { "fid": 212, "hospital_name": "CHI ST. VINCENT HOSPITAL HOT SPRINGS", "address": "300 WERNER STREET", "city": "HOT SPRINGS", "zip": 71903, "placekey": "222@8f2-2wv-hyv", "hospital_pk": "040026", "Longitude": -93.067177481429283, "Latitude": 34.467054339668962, "geometry": "POINT (-93.06717748142928 34.46705433966896)" }, "geometry": { "type": "Point", "coordinates": [ -93.067177481429283, 34.467054339668962 ] } },
{ "type": "Feature", "properties": { "fid": 213, "hospital_name": "LEVI HOSPITAL", "address": "300 PROSPECT AVE", "city": "HOT SPRINGS", "zip": 71901, "placekey": "222@8f2-2wt-249", "hospital_pk": "040132", "Longitude": -93.05721410089933, "Latitude": 34.510662658380141, "geometry": "POINT (-93.05721410089933 34.51066265838014)" }, "geometry": { "type": "Point", "coordinates": [ -93.05721410089933, 34.510662658380141 ] } },
{ "type": "Feature", "properties": { "fid": 214, "hospital_name": "CHRISTUS DUBUIS HOSPITAL OF HOT SPRINGS", "address": "300 WERNER STREET, 3RD FLOOR", "city": "HOT SPRINGS", "zip": 71913, "placekey": "222@8f2-2wv-hyv", "hospital_pk": "042004", "Longitude": -93.067177481429283, "Latitude": 34.467054339668962, "geometry": "POINT (-93.06717748142928 34.46705433966896)" }, "geometry": { "type": "Point", "coordinates": [ -93.067177481429283, 34.467054339668962 ] } },
{ "type": "Feature", "properties": { "fid": 215, "hospital_name": "NATIONAL PARK MEDICAL CENTER", "address": "1910 MALVERN AVENUE", "city": "HOT SPRINGS", "zip": 71901, "placekey": "222@8f2-2wr-b49", "hospital_pk": "040078", "Longitude": -93.035294561762058, "Latitude": 34.485778262514877, "geometry": "POINT (-93.03529456176206 34.48577826251488)" }, "geometry": { "type": "Point", "coordinates": [ -93.035294561762058, 34.485778262514877 ] } },
{ "type": "Feature", "properties": { "fid": 216, "hospital_name": "ARKANSAS METHODIST MEDICAL CENTER", "address": "900 WEST KINGSHIGHWAY", "city": "PARAGOULD", "zip": 72450, "placekey": "222@5pt-529-59f", "hospital_pk": "040039", "Longitude": -90.497925109245912, "Latitude": 36.052073058964822, "geometry": "POINT (-90.49792510924591 36.05207305896482)" }, "geometry": { "type": "Point", "coordinates": [ -90.497925109245912, 36.052073058964822 ] } },
{ "type": "Feature", "properties": { "fid": 217, "hospital_name": "WADLEY REGIONAL MEDICAL CENTER AT HOPE", "address": "2001 SOUTH MAIN", "city": "HOPE", "zip": 71801, "placekey": "222@8dz-94f-vj9", "hospital_pk": "040153", "Longitude": -93.583862803205434, "Latitude": 33.648555069742713, "geometry": "POINT (-93.58386280320543 33.64855506974271)" }, "geometry": { "type": "Point", "coordinates": [ -93.583862803205434, 33.648555069742713 ] } },
{ "type": "Feature", "properties": { "fid": 218, "hospital_name": "BAPTIST HEALTH MEDICAL CENTER-HOT SPRINGS COUNTY", "address": "1001 SCHNEIDER DRIVE", "city": "MALVERN", "zip": 72104, "placekey": "222@8f2-3kv-5cq", "hospital_pk": "040076", "Longitude": -92.78579997104859, "Latitude": 34.357920016747357, "geometry": "POINT (-92.78579997104859 34.35792001674736)" }, "geometry": { "type": "Point", "coordinates": [ -92.78579997104859, 34.357920016747357 ] } },
{ "type": "Feature", "properties": { "fid": 219, "hospital_name": "HOWARD MEMORIAL HOSPITAL", "address": "130 MEDICAL CIRCLE", "city": "NASHVILLE", "zip": 71852, "placekey": "222@8dz-krf-j35", "hospital_pk": "041311", "Longitude": -93.880720942675495, "Latitude": 33.949305238337622, "geometry": "POINT (-93.8807209426755 33.94930523833762)" }, "geometry": { "type": "Point", "coordinates": [ -93.880720942675495, 33.949305238337622 ] } },
{ "type": "Feature", "properties": { "fid": 220, "hospital_name": "WHITE RIVER MEDICAL CENTER", "address": "1710 HARRISON STREET", "city": "BATESVILLE", "zip": 72503, "placekey": "223@5pr-mxs-whq", "hospital_pk": "040119", "Longitude": -91.634459238897108, "Latitude": 35.768089716721342, "geometry": "POINT (-91.63445923889711 35.76808971672134)" }, "geometry": { "type": "Point", "coordinates": [ -91.634459238897108, 35.768089716721342 ] } },
{ "type": "Feature", "properties": { "fid": 221, "hospital_name": "IZARD COUNTY MEDICAL CENTER, LLC", "address": "61 GRASSE STREET", "city": "CALICO ROCK", "zip": 72519, "placekey": "222@5pt-bgt-j35", "hospital_pk": "041306", "Longitude": -92.128214344314102, "Latitude": 36.126341689312405, "geometry": "POINT (-92.1282143443141 36.1263416893124)" }, "geometry": { "type": "Point", "coordinates": [ -92.128214344314102, 36.126341689312405 ] } },