{"010001": {"hospital_name": "SOUTHEAST HEALTH MEDICAL CENTER", "address": "1108 ROSS CLARK CIRCLE", "lat": 31.215827150000003, "lon": -85.36343255478354}, "010005": {"hospital_name": "MARSHALL MEDICAL CENTERS SOUTH CAMPUS", "address": "2505 U S HIGHWAY 431 NORTH", "lat": -999, "lon": -999}, "010006": {"hospital_name": "NORTH ALABAMA MEDICAL CENTER", "address": "1701 VETERANS DRIVE", "lat": 39.4372194, "lon": -77.4248185}, "010007": {"hospital_name": "MIZELL MEMORIAL HOSPITAL", "address": "702 N MAIN ST", "lat": 40.9379415, "lon": -73.059056}, "010008": {"hospital_name": "CRENSHAW COMMUNITY HOSPITAL", "address": "101 HOSPITAL CIRCLE", "lat": 34.2316292, "lon": -84.4796167}, "010011": {"hospital_name": "ST VINCENT'S EAST", "address": "50 MEDICAL PARK EAST DRIVE", "lat": 40.06682453571428, "lon": -80.69579405357143}, "010012": {"hospital_name": "DEKALB REGIONAL MEDICAL CENTER", "address": "200 MED CENTER DRIVE", "lat": 35.2029544, "lon": -80.8367983}, "010016": {"hospital_name": "SHELBY BAPTIST MEDICAL CENTER", "address": "1000 FIRST STREET NORTH", "lat": 38.8999696, "lon": -77.0121718}, "010019": {"hospital_name": "HELEN KELLER MEMORIAL HOSPITAL", "address": "1300 SOUTH MONTGOMERY AVENUE", "lat": 34.746119, "lon": -87.70076056923517}, "010021": {"hospital_name": "DALE MEDICAL CENTER", "address": "126 HOSPITAL AVE", "lat": 31.4511675, "lon": -85.6320623498164}, "010022": {"hospital_name": "FLOYD CHEROKEE MEDICAL CENTER", "address": "400 NORTHWOOD DR", "lat": 35.8478626, "lon": -78.64051859209837}, "010023": {"hospital_name": "BAPTIST MEDICAL CENTER SOUTH", "address": "2105 EAST SOUTH BOULEVARD", "lat": 32.327953050000005, "lon": -86.27778199599958}, "010024": {"hospital_name": "JACKSON HOSPITAL & CLINIC INC", "address": "1725 PINE STREET", "lat": -26.1263477, "lon": 27.8351736}, "010029": {"hospital_name": "EAST ALABAMA MEDICAL CENTER", "address": "2000 PEPPERELL PARKWAY", "lat": 32.63807215789474, "lon": -85.40540268421053}, "010033": {"hospital_name": "UNIVERSITY OF ALABAMA HOSPITAL", "address": "619 SOUTH 19TH STREET", "lat": 40.73527036, "lon": -74.21152011999999}, "010034": {"hospital_name": "COMMUNITY HOSPITAL INC", "address": "805 FRIENDSHIP ROAD", "lat": 33.59650829785315, "lon": -85.81991071525098}, "010035": {"hospital_name": "CULLMAN REGIONAL MEDICAL CENTER", "address": "1912 ALABAMA HIGHWAY 157", "lat": 30.2676584, "lon": -87.6400477}, "010036": {"hospital_name": "ANDALUSIA HEALTH", "address": "849 SOUTH THREE NOTCH STREET", "lat": 31.2958801, "lon": -86.49431123981623}, "010038": {"hospital_name": "STRINGFELLOW MEMORIAL HOSPITAL", "address": "301 EAST 18TH ST", "lat": 44.96530097058823, "lon": -93.27259585294118}, "010039": {"hospital_name": "HUNTSVILLE HOSPITAL", "address": "101 SIVLEY RD", "lat": 34.131545, "lon": -93.962329}, "010040": {"hospital_name": "GADSDEN REGIONAL MEDICAL CENTER", "address": "1007 GOODYEAR AVENUE", "lat": 34.00778505, "lon": -85.9663095796017}, "010044": {"hospital_name": "MARION REGIONAL MEDICAL CENTER", "address": "1256 MILITARY STREET SOUTH", "lat": 34.12608455, "lon": -87.9908673187085}, "010045": {"hospital_name": "FAYETTE MEDICAL CENTER", "address": "1653 TEMPLE AVENUE NORTH", "lat": 33.70823085, "lon": -87.82478450057539}, "010046": {"hospital_name": "RIVERVIEW REGIONAL MEDICAL CENTER", "address": "600 SOUTH THIRD STREET", "lat": 38.777376, "lon": -90.485912}, "010049": {"hospital_name": "MEDICAL CENTER ENTERPRISE", "address": "400 N EDWARDS STREET", "lat": 43.221326, "lon": -75.467027}, "010051": {"hospital_name": "GREENE COUNTY HOSPITAL", "address": "509 WILSON AVENUE", "lat": 41.8088657, "lon": -72.6568298}, "010052": {"hospital_name": "LAKE MARTIN COMMUNITY HOSPITAL", "address": "201 MARIARDEN ROAD", "lat": 32.8187446, "lon": -85.74108716258237}, "010055": {"hospital_name": "FLOWERS HOSPITAL", "address": "4370 WEST MAIN STREET", "lat": 42.99975266129032, "lon": -84.25248298387098}, "010056": {"hospital_name": "ST VINCENT'S BIRMINGHAM", "address": "810 ST VINCENT'S DRIVE", "lat": 33.507493249999996, "lon": -86.78806756794808}, "010058": {"hospital_name": "BIBB MEDICAL CENTER", "address": "208 PIERSON AVE", "lat": 32.9513204, "lon": -87.14820513875142}, "010059": {"hospital_name": "LAWRENCE MEDICAL CENTER", "address": "202 HOSPITAL STREET", "lat": -26.1904241, "lon": 28.0438122}, "010061": {"hospital_name": "HIGHLANDS MEDICAL CENTER", "address": "380 WOODS COVE ROAD", "lat": 34.66148285, "lon": -86.04827417427157}, "010062": {"hospital_name": "WIREGRASS MEDICAL CENTER", "address": "1200 W MAPLE AVENUE", "lat": 42.959481162641055, "lon": -83.70145970702521}, "010065": {"hospital_name": "RUSSELL MEDICAL CENTER", "address": "3316 HIGHWAY 280", "lat": 38.8423941, "lon": -86.7599691}, "010069": {"hospital_name": "MEDICAL CENTER BARBOUR", "address": "820 W WASHINGTON ST", "lat": 37.5575704, "lon": -77.33029077772035}, "010073": {"hospital_name": "CLAY COUNTY HOSPITAL", "address": "83825 HIGHWAY 9    P O BOX 1270", "lat": -999, "lon": -999}, "010078": {"hospital_name": "NORTHEAST ALABAMA REGIONAL MEDICAL CENTER", "address": "400 EAST 10TH STREET", "lat": 42.127469000000005, "lon": -76.81534344871795}, "010079": {"hospital_name": "ATHENS LIMESTONE HOSPITAL", "address": "700 WEST MARKET STREET", "lat": 40.61107892032125, "lon": -76.73463589829288}, "010083": {"hospital_name": "SOUTH BALDWIN REGIONAL MEDICAL CENTER", "address": "1613 NORTH MCKENZIE STREET", "lat": -26.9536508, "lon": 24.7220013}, "010085": {"hospital_name": "DECATUR MORGAN HOSPITAL-DECATUR CAMPUS", "address": "1201 7TH STREET SE", "lat": 34.59085815, "lon": -86.97139352672316}, "010086": {"hospital_name": "NORTHWEST MEDICAL CENTER", "address": "1530 U S HIGHWAY 43", "lat": 34.2902757, "lon": -87.8102121}, "010087": {"hospital_name": "USA HEALTH UNIVERSITY HOSPITAL", "address": "2451 FILLINGIM STREET", "lat": 30.70796176357067, "lon": -88.0999185592132}, "010089": {"hospital_name": "WALKER BAPTIST MEDICAL CENTER", "address": "3400 HIGHWAY 78 EAST", "lat": 34.70818604547071, "lon": -90.95377812072873}, "010090": {"hospital_name": "PROVIDENCE HOSPITAL", "address": "6801 AIRPORT BOULEVARD", "lat": 35.8283194, "lon": -78.8610859}, "010091": {"hospital_name": "GROVE HILL MEMORIAL HOSPITAL", "address": "295 JACKSON HWY S", "lat": 46.42335786444965, "lon": -122.83995611801271}, "010092": {"hospital_name": "DCH REGIONAL MEDICAL CENTER", "address": "809 UNIVERSITY BOULEVARD EAST", "lat": 38.996447198701404, "lon": -76.9931450251133}, "010095": {"hospital_name": "HALE COUNTY HOSPITAL", "address": "508 GREEN STREET", "lat": 42.269739630669214, "lon": -89.09922543052474}, "010097": {"hospital_name": "ELMORE COMMUNITY HOSPITAL", "address": "500 HOSPITAL DRIVE", "lat": 44.44614035150462, "lon": -72.02136995066996}, "010099": {"hospital_name": "D W MCMILLAN MEMORIAL HOSPITAL", "address": "1301 BELLEVILLE AVENUE", "lat": 31.1267347, "lon": -87.07360549235025}, "010100": {"hospital_name": "THOMAS HOSPITAL", "address": "750 MORPHY AVENUE", "lat": 30.51903605, "lon": -87.88835174705152}, "010101": {"hospital_name": "CITIZENS BAPTIST MEDICAL CENTER", "address": "604 STONE AVENUE", "lat": 35.8652951, "lon": -92.1414717}, "010102": {"hospital_name": "J PAUL JONES HOSPITAL", "address": "317 MCWILLIAMS AVENUE", "lat": 31.99745625, "lon": -87.30017061185626}, "010103": {"hospital_name": "PRINCETON BAPTIST MEDICAL CENTER", "address": "701 PRINCETON AVENUE SOUTHWEST", "lat": 33.4974069, "lon": -86.84793758297522}, "010104": {"hospital_name": "GRANDVIEW MEDICAL CENTER", "address": "3690 GRANDVIEW PARKWAY", "lat": 33.433370249999996, "lon": -86.71804887123079}, "010108": {"hospital_name": "PRATTVILLE BAPTIST HOSPITAL", "address": "124 S MEMORIAL DR", "lat": 35.61756778970042, "lon": -77.39097665444075}, "010110": {"hospital_name": "BULLOCK COUNTY HOSPITAL", "address": "102 WEST CONECUH AVENUE", "lat": 32.14623282498443, "lon": -85.71357450093427}, "010112": {"hospital_name": "WHITFIELD REGIONAL HOSPITAL", "address": "105 HIGHWAY 80 EAST", "lat": 31.876814, "lon": -102.305738}, "010113": {"hospital_name": "MOBILE INFIRMARY MEDICAL CENTER", "address": "5 MOBILE INFIRMARY CIRCLE", "lat": 30.69599325, "lon": -88.07939325749618}, "010114": {"hospital_name": "MEDICAL WEST, AN AFFILIATE OF UAB HEALTH SYSTEM", "address": "995 9TH AVENUE SOUTHWEST", "lat": 33.37231525, "lon": -86.990704594639}, "010118": {"hospital_name": "VAUGHAN REGIONAL MEDICAL CENTER PARKWAY CAMPUS", "address": "1015 MEDICAL CENTER PARKWAY", "lat": 32.429399599999996, "lon": -87.05590344058078}, "010120": {"hospital_name": "MONROE COUNTY HOSPITAL", "address": "2016 SOUTH ALABAMA AVENUE", "lat": 27.9274795, "lon": -82.4840023}, "010125": {"hospital_name": "LAKELAND COMMUNITY HOSPITAL", "address": "42024 HIGHWAY 195 E", "lat": 38.891919, "lon": -86.766876}, "010126": {"hospital_name": "TROY REGIONAL MEDICAL CENTER", "address": "1330 HIGHWAY 231 SOUTH", "lat": 36.39547289184836, "lon": -91.05692620961037}, "010128": {"hospital_name": "JACKSON MEDICAL CENTER", "address": "220 HOSPITAL DRIVE", "lat": 36.833215949999996, "lon": -76.08310048632612}, "010129": {"hospital_name": "NORTH BALDWIN INFIRMARY", "address": "1815 HAND AVENUE", "lat": 30.746675207660903, "lon": -88.11366136084366}, "010130": {"hospital_name": "ST VINCENT'S ST CLAIR", "address": "7063 VETERANS PARKWAY", "lat": 32.0201633, "lon": -81.1732613}, "010131": {"hospital_name": "CRESTWOOD MEDICAL CENTER", "address": "ONE HOSPITAL DR SE", "lat": 51.142634099999995, "lon": 0.9116207010719803}, "010138": {"hospital_name": "HILL HOSPITAL OF SUMTER COUNTY", "address": "751 DERBY DRIVE", "lat": 52.5892071, "lon": -0.226087}, "010139": {"hospital_name": "BROOKWOOD BAPTIST MEDICAL CENTER", "address": "2010 BROOKWOOD MEDICAL CENTER DRIVE", "lat": 33.464377999999996, "lon": -86.77609579963199}, "010144": {"hospital_name": "SPRINGHILL MEMORIAL HOSPITAL", "address": "3719 DAUPHIN STREET", "lat": 30.6847189, "lon": -88.13015691580881}, "010148": {"hospital_name": "EVERGREEN MEDICAL CENTER", "address": "101 CRESTVIEW AVENUE", "lat": 41.0886858, "lon": -73.5263038}, "010149": {"hospital_name": "BAPTIST MEDICAL CENTER EAST", "address": "400 TAYLOR ROAD", "lat": 31.185532423636975, "lon": -85.42770964855413}, "010150": {"hospital_name": "REGIONAL MEDICAL CENTER OF CENTRAL ALABAMA", "address": "29 L V STABLER DRIVE", "lat": 39.121738, "lon": -76.983497}, "010157": {"hospital_name": "SHOALS HOSPITAL", "address": "201 WEST AVALON AVENUE", "lat": 34.74703315, "lon": -87.6769365378488}, "010158": {"hospital_name": "RUSSELLVILLE HOSPITAL", "address": "15155 HIGHWAY 43", "lat": 44.8954633, "lon": -75.9179496}, "010164": {"hospital_name": "COOSA VALLEY MEDICAL CENTER", "address": "315 W HICKORY ST", "lat": 33.1651887, "lon": -86.25564905054785}, "010168": {"hospital_name": "JACK HUGHSTON MEMORIAL HOSPITAL", "address": "4401 RIVER CHASE DRIVE", "lat": 32.507977249999996, "lon": -85.00878469067558}, "010169": {"hospital_name": "ATMORE COMMUNITY HOSPITAL", "address": "401 MEDICAL PARK DRIVE", "lat": 33.574013936724555, "lon": -81.76067976045049}, "010173": {"hospital_name": "ST VINCENT'S CHILTON", "address": "2030 LAY DAM ROAD", "lat": 32.870039201789474, "lon": -86.62176974210608}, "010174": {"hospital_name": "THOMASVILLE REGIONAL MEDICAL CENTER", "address": "300 MED PARK DRIVE", "lat": 36.42547643291962, "lon": -81.45847449619419}, "010175": {"hospital_name": "EAMC - LANIER", "address": "4800 48TH STREET", "lat": 36.875626, "lon": -75.984685}, "011300": {"hospital_name": "WASHINGTON COUNTY HOSPITAL", "address": "14600 ST. STEPHENS AVENUE", "lat": 31.458815350000002, "lon": -88.23550266412317}, "011302": {"hospital_name": "RED BAY HOSPITAL", "address": "211 HOSPITAL ROAD", "lat": 14.0085911, "lon": -60.9959987}, "011304": {"hospital_name": "CHOCTAW GENERAL HOSPITAL", "address": "401 VANITY FAIR LANE, PO BOX 618", "lat": -999, "lon": -999}, "011305": {"hospital_name": "ST VINCENTS BLOUNT", "address": "150 GILBREATH DRIVE", "lat": 33.93026625, "lon": -86.49386236657949}, "011306": {"hospital_name": "TANNER MEDICAL CENTER-EAST ALABAMA", "address": "1032 MAIN STREET SOUTH", "lat": 41.515988327235874, "lon": -73.20442705094028}, "012006": {"hospital_name": "INFIRMARY LTAC HOSPITAL", "address": "5 MOBILE INFIRMARY CIRCLE", "lat": 30.69599325, "lon": -88.07939325749618}, "012007": {"hospital_name": "NOLAND HOSPITAL MONTGOMERY II, LLC", "address": "1725 PINE STREET 5TH FLOOR NORTH WING", "lat": -999, "lon": -999}, "012008": {"hospital_name": "SELECT SPECIALTY HOSPITAL - BIRMINGHAM", "address": "2010 BROOKWOOD MEDICAL CENTER DRIVE, 3RD FLOOR", "lat": -999, "lon": -999}, "012009": {"hospital_name": "NOLAND HOSPITAL BIRMINGHAM II, LLC", "address": "50 MEDICAL PARK EAST DRIVE 8TH FLOOR", "lat": 41.2236561, "lon": -81.7126443}, "012010": {"hospital_name": "NOLAND HOSPITAL DOTHAN II, LLC", "address": "1108 ROSS CLARK CIRCLE, 4TH FLOOR", "lat": 40.8897391, "lon": -75.4024051}, "012011": {"hospital_name": "NOLAND HOSPITAL ANNISTON II, LLC", "address": "400 EAST 10TH STREET, 4TH FLOOR", "lat": -999, "lon": -999}, "012012": {"hospital_name": "NOLAND HOSPITAL TUSCALOOSA II, LLC", "address": "809 UNIVERSITY BOULEVARD EAST, 4TH FLOOR", "lat": 9.0938313, "lon": 76.4911275}, "012014": {"hospital_name": "NORTH ALABAMA SPECIALTY HOSPITAL", "address": "700 WEST MARKET STREET, 2ND FLOOR", "lat": 49.8179461, "lon": 8.6471449}, "013300": {"hospital_name": "CHILDREN'S HOSPITAL OF ALABAMA", "address": "1600 SEVENTH AVENUE SOUTH", "lat": -35.2233169, "lon": 138.5454919}, "013301": {"hospital_name": "USA HEALTH CHILDREN'S & WOMEN'S HOSPITAL", "address": "1700 CENTER STREET", "lat": 34.732625, "lon": -92.275938}, "020001": {"hospital_name": "PROVIDENCE ALASKA MEDICAL CENTER", "address": "3200 PROVIDENCE DRIVE", "lat": 35.179996, "lon": -80.81704}, "020006": {"hospital_name": "MAT-SU REGIONAL MEDICAL CENTER", "address": "2500 SOUTH WOODWORTH LOOP", "lat": 61.5627638, "lon": -149.2578912431361}, "020008": {"hospital_name": "BARTLETT REGIONAL HOSPITAL", "address": "3260 HOSPITAL DR", "lat": 42.274696, "lon": -71.77304}, "020012": {"hospital_name": "FAIRBANKS MEMORIAL HOSPITAL", "address": "1650 COWLES STREET", "lat": 64.83173225, "lon": -147.7402732108773}, "020017": {"hospital_name": "ALASKA REGIONAL HOSPITAL", "address": "2801 DEBARR ROAD", "lat": 61.21045645, "lon": -149.8286313242076}, "020024": {"hospital_name": "CENTRAL PENINSULA GENERAL HOSPITAL", "address": "250 HOSPITAL PLACE", "lat": 60.49352565, "lon": -151.07850281621722}, "021301": {"hospital_name": "PROVIDENCE VALDEZ MEDICAL CENTER", "address": "PO BOX 550", "lat": 40.0434073, "lon": -75.4619552}, "021302": {"hospital_name": "PROVIDENCE SEWARD HOSPITAL", "address": "417 FIRST AVENUE, PO BOX 365", "lat": -37.7993122, "lon": 145.1409917}, "021304": {"hospital_name": "PETERSBURG MEDICAL CENTER", "address": "PO BOX 589", "lat": 40.0434073, "lon": -75.4619552}, "021306": {"hospital_name": "PROVIDENCE KODIAK ISLAND MEDICAL CTR", "address": "1915 EAST REZANOF DRIVE", "lat": 57.800758, "lon": -152.374242}, "021307": {"hospital_name": "CORDOVA COMMUNITY MEDICAL CENTER", "address": "PO BOX 160 - 602 CHASE AVENUE", "lat": 40.0434073, "lon": -75.4619552}, "021311": {"hospital_name": "KETCHIKAN MEDICAL CENTER", "address": "3100 TONGASS AVENUE", "lat": 55.3535231, "lon": -131.68702157090547}, "021313": {"hospital_name": "SOUTH PENINSULA HOSPITAL", "address": "4300 BARTLETT ST", "lat": 51.3626809, "lon": -0.0969303}, "022001": {"hospital_name": "ST ELIAS SPECIALTY HOSPITAL", "address": "4800 CORDOVA STREET", "lat": 32.803393, "lon": -96.743103}, "02d4a73785e74f88490f05c473b39d9054e5cb4e2ddbcb2b85b64d2502d69e01": {"hospital_name": "Kaiser Permanente San Diego Medical Center", "address": "9455 Clairemont Mesa Blvd", "lat": 32.83012995, "lon": -117.12487010260082}, "030002": {"hospital_name": "BANNER - UNIVERSITY MEDICAL CENTER PHOENIX", "address": "1111 EAST MCDOWELL ROAD", "lat": 33.4656266, "lon": -112.0579565}, "030006": {"hospital_name": "TUCSON MEDICAL CENTER", "address": "5301 EAST GRANT ROAD", "lat": 32.252712599999995, "lon": -110.87823963504334}, "030007": {"hospital_name": "VERDE VALLEY MEDICAL CENTER", "address": "269 SOUTH CANDY LANE", "lat": 34.73851199152543, "lon": -112.03100325423729}, "030010": {"hospital_name": "ST. MARY'S HOSPITAL", "address": "1601 WEST ST MARY'S ROAD", "lat": 32.22744275, "lon": -111.00017933488373}, "030011": {"hospital_name": "ST JOSEPH'S HOSPITAL", "address": "350 NORTH WILMOT ROAD", "lat": 32.22691825, "lon": -110.855436239915}, "030012": {"hospital_name": "YAVAPAI REGIONAL MEDICAL CENTER", "address": "1003 WILLOW CREEK ROAD", "lat": 31.265081, "lon": -96.426179}, "030013": {"hospital_name": "YUMA REGIONAL MEDICAL CENTER", "address": "2400 SOUTH AVENUE A", "lat": 32.5049769, "lon": -94.7926128}, "030014": {"hospital_name": "HONORHEALTH JOHN C. LINCOLN MEDICAL CENTER", "address": "250 EAST DUNLAP AVENUE", "lat": 33.5693337, "lon": -112.07065095818291}, "030016": {"hospital_name": "BANNER CASA GRANDE MEDICAL CENTER", "address": "1800 EAST FLORENCE BOULEVARD", "lat": 32.88093395, "lon": -111.70982761090613}, "030022": {"hospital_name": "VALLEYWISE HEALTH MEDICAL CENTER", "address": "2601 EAST ROOSEVELT STREET", "lat": 30.4218294, "lon": -91.1769923}, "030023": {"hospital_name": "FLAGSTAFF MEDICAL CENTER", "address": "1200 NORTH BEAVER STREET", "lat": 35.20878985, "lon": -111.64402185590313}, "030024": {"hospital_name": "ST. JOSEPH'S HOSPITAL AND MEDICAL CENTER", "address": "350 WEST THOMAS ROAD", "lat": 26.13105, "lon": -98.198796}, "030030": {"hospital_name": "ABRAZO CENTRAL CAMPUS", "address": "2000 WEST BETHANY HOME ROAD", "lat": 33.52506635, "lon": -112.10216139596028}, "030036": {"hospital_name": "CHANDLER REGIONAL MEDICAL CENTER", "address": "1955 WEST FRYE ROAD", "lat": 33.2972376, "lon": -111.8743867}, "030037": {"hospital_name": "ST LUKE'S MEDICAL CENTER", "address": "1800 EAST VAN BUREN STREET", "lat": 43.619373, "lon": -85.751763}, "030038": {"hospital_name": "HONORHEALTH SCOTTSDALE OSBORN MEDICAL CENTER", "address": "7400 EAST OSBORN ROAD", "lat": 33.4885727, "lon": -111.92298318765714}, "030043": {"hospital_name": "CANYON VISTA MEDICAL CENTER", "address": "5700 EAST HIGHWAY 90", "lat": 29.355282, "lon": -98.856973}, "030055": {"hospital_name": "KINGMAN REGIONAL MEDICAL CENTER", "address": "3269 STOCKTON HILL ROAD", "lat": 35.2201076, "lon": -114.03799747458334}, "030061": {"hospital_name": "BANNER BOSWELL MEDICAL CENTER", "address": "10401 WEST THUNDERBIRD BOULEVARD", "lat": 33.602772349999995, "lon": -112.28377236992543}, "030062": {"hospital_name": "SUMMIT HEALTHCARE REGIONAL MEDICAL CENTER", "address": "2200 EAST SHOW LOW LAKE ROAD", "lat": 34.202886050000004, "lon": -110.01746316138596}, "030064": {"hospital_name": "BANNER - UNIVERSITY MEDICAL CENTER TUCSON CAMPUS", "address": "1625 NORTH CAMPBELL AVENUE", "lat": 41.91109725, "lon": -87.68933029972551}, "030065": {"hospital_name": "BANNER DESERT MEDICAL CENTER", "address": "1400 SOUTH  DOBSON ROAD", "lat": 43.91071742424242, "lon": -82.9722033939394}, "030068": {"hospital_name": "MT. GRAHAM REGIONAL MEDICAL CENTER", "address": "1600 SOUTH 20TH AVENUE", "lat": 25.997404, "lon": -80.14678}, "030069": {"hospital_name": "HAVASU REGIONAL MEDICAL CENTER", "address": "101 CIVIC CENTER LANE", "lat": 34.48044445, "lon": -114.33813392209615}, "030083": {"hospital_name": "ABRAZO SCOTTSDALE CAMPUS", "address": "3929 EAST BELL ROAD", "lat": 33.6407738, "lon": -111.9950885}, "030085": {"hospital_name": "NORTHWEST MEDICAL CENTER", "address": "6200 NORTH LA CHOLLA BOULEVARD", "lat": 32.2282798, "lon": -111.0117163}, "030087": {"hospital_name": "HONORHEALTH SCOTTSDALE SHEA MEDICAL CENTER", "address": "9003 EAST SHEA BOULEVARD", "lat": 33.5827597, "lon": -111.9959038}, "030088": {"hospital_name": "BANNER BAYWOOD MEDICAL CENTER", "address": "6644 EAST BAYWOOD AVENUE", "lat": 33.4113149, "lon": -111.68910374761177}, "030089": {"hospital_name": "BANNER THUNDERBIRD MEDICAL CENTER", "address": "5555 WEST THUNDERBIRD ROAD", "lat": 33.6110108, "lon": -112.1052396}, "030092": {"hospital_name": "HONORHEALTH DEER VALLEY MEDICAL CENTER", "address": "19829 NORTH 27TH AVENUE", "lat": 25.8100315, "lon": -80.240188}, "030093": {"hospital_name": "BANNER DEL E. WEBB MEDICAL CENTER", "address": "14502 WEST MEEKER BOULEVARD", "lat": 33.65982925, "lon": -112.37282369643022}, "030094": {"hospital_name": "ABRAZO ARROWHEAD CAMPUS", "address": "18701 NORTH 67TH AVENUE", "lat": 25.943519182423646, "lon": -80.30690615278554}, "030101": {"hospital_name": "WESTERN ARIZONA REGIONAL MEDICAL CENTER", "address": "2735 SILVER CREEK ROAD", "lat": 37.2939404, "lon": -121.7879191}, "030103": {"hospital_name": "MAYO CLINIC HOSPITAL", "address": "5777 EAST MAYO BOULEVARD", "lat": 33.65725275, "lon": -111.95589166996007}, "030105": {"hospital_name": "BANNER HEART HOSPITAL", "address": "6750 EAST BAYWOOD AVENUE", "lat": 33.411304900000005, "lon": -111.68552809669092}, "030107": {"hospital_name": "ARIZONA SPINE AND JOINT HOSPITAL", "address": "4620 EAST BASELINE ROAD", "lat": 43.64235309789746, "lon": -86.16712292047747}, "030108": {"hospital_name": "CORE INSTITUTE SPECIALTY HOSPITAL, THE", "address": "6501 NORTH 19TH AVENUE", "lat": 25.83428595, "lon": -80.22890173630103}, "030110": {"hospital_name": "ABRAZO WEST CAMPUS", "address": "13677 WEST MCDOWELL ROAD", "lat": 33.4658378, "lon": -112.0870517}, "030111": {"hospital_name": "BANNER-UNIVERSITY MEDICAL CENTER SOUTH CAMPUS", "address": "2800 EAST AJO WAY", "lat": 32.17532285, "lon": -110.93032276201352}, "030112": {"hospital_name": "ARIZONA SPECIALTY HOSPITAL", "address": "2905 WEST WARNER ROAD, SUITE 1", "lat": -999, "lon": -999}, "030114": {"hospital_name": "ORO VALLEY HOSPITAL", "address": "1551 EAST TANGERINE ROAD", "lat": 32.429294600000006, "lon": -110.94906748599385}, "030115": {"hospital_name": "BANNER ESTRELLA MEDICAL CENTER", "address": "9201 WEST THOMAS ROAD", "lat": 43.562491, "lon": -86.50896}, "030117": {"hospital_name": "VALLEY VIEW MEDICAL CENTER", "address": "5330 SOUTH HIGHWAY 95", "lat": 47.6868281, "lon": -116.7972932}, "030119": {"hospital_name": "MERCY GILBERT MEDICAL CENTER", "address": "3555 SOUTH VAL VISTA DRIVE", "lat": 33.3867849, "lon": -111.7540174}, "030121": {"hospital_name": "MOUNTAIN VISTA MEDICAL CENTER, LP", "address": "1301 SOUTH CRISMON ROAD", "lat": 33.3647112, "lon": -111.6187601}, "030122": {"hospital_name": "BANNER GATEWAY MEDICAL CENTER", "address": "1900 NORTH HIGLEY ROAD", "lat": 33.3850106, "lon": -111.72296660105481}, "030123": {"hospital_name": "HONORHEALTH SCOTTSDALE THOMPSON PEAK MED CTR", "address": "7400 EAST THOMPSON PEAK PARKWAY", "lat": 33.66987972176956, "lon": -111.92216067438272}, "030130": {"hospital_name": "BANNER IRONWOOD MEDICAL CENTER", "address": "37000 NORTH GANTZEL ROAD", "lat": 33.21493905, "lon": -111.5650733597528}, "030131": {"hospital_name": "O.A.S.I.S. HOSPITAL", "address": "750 NORTH 40TH STREET", "lat": 26.17550036356618, "lon": -80.15314750270205}, "030134": {"hospital_name": "BANNER GOLDFIELD MEDICAL CENTER", "address": "2050 WEST SOUTHERN AVENUE", "lat": 31.69446803669558, "lon": -92.1444452892689}, "030136": {"hospital_name": "DIGNITY HEALTH - ARIZONA GENERAL HOSPITAL", "address": "7171 SOUTH 51ST AVENUE", "lat": 33.3653111, "lon": -112.1690404}, "030137": {"hospital_name": "SANTA CRUZ VALLEY REGIONAL HOSPITAL", "address": "4455 SOUTH I-19 FRONTAGE ROAD", "lat": 31.80672665, "lon": -111.00967200529269}, "030138": {"hospital_name": "WESTERN REGIONAL MEDICAL CENTER", "address": "14200 WEST CELEBRATE LIFE WAY", "lat": 33.453982249999996, "lon": -112.36443040018784}, "030139": {"hospital_name": "DIGNITY HEALTH ARIZONA GENERAL HOSPITAL", "address": "9130 EAST ELLIOT ROAD", "lat": 33.3491777, "lon": -111.9729554}, "030147": {"hospital_name": "BANNER OCOTILLO MEDICAL CENTER", "address": "1405 SOUTH ALMA SCHOOL ROAD", "lat": 33.2852538, "lon": -111.85728706702002}, "031300": {"hospital_name": "WICKENBURG COMMUNITY HOSPITAL", "address": "520 ROSE LANE", "lat": 31.5332837, "lon": 74.382428}, "031301": {"hospital_name": "BENSON HOSPITAL", "address": "450 SOUTH OCOTILLO AVENUE", "lat": 31.9649327, "lon": -110.3081116069948}, "031302": {"hospital_name": "NORTHERN COCHISE COMMUNITY HOSPITAL, INC.", "address": "901 WEST REX ALLEN DRIVE", "lat": 32.2651761, "lon": -109.83836365010092}, "031304": {"hospital_name": "PAGE HOSPITAL", "address": "501 NORTH NAVAJO DRIVE", "lat": 36.91771730000001, "lon": -111.46314800070749}, "031311": {"hospital_name": "LITTLE COLORADO MEDICAL CENTER", "address": "1501 NORTH WILLIAMSON AVENUE", "lat": 35.03517685, "lon": -110.69241904681954}, "031312": {"hospital_name": "COPPER QUEEN COMMUNITY HOSPITAL", "address": "101 COLE AVENUE", "lat": 41.706544, "lon": -71.442643}, "031313": {"hospital_name": "HOLY CROSS HOSPITAL", "address": "1171 WEST TARGET RANGE ROAD", "lat": 31.34004855, "lon": -110.95960971473919}, "031314": {"hospital_name": "COBRE VALLEY REGIONAL MEDICAL CENTER", "address": "5880 SOUTH HOSPITAL DRIVE", "lat": 26.1254317, "lon": -80.2034998}, "031315": {"hospital_name": "WHITE MOUNTAIN REGIONAL MEDICAL CENTER", "address": "118 SOUTH MOUNTAIN AVENUE", "lat": 40.8121112, "lon": -74.2286487}, "031317": {"hospital_name": "LA PAZ REGIONAL HOSPITAL", "address": "1200 WEST MOHAVE ROAD", "lat": 32.268776, "lon": -110.990854}, "031318": {"hospital_name": "BANNER PAYSON MEDICAL CENTER", "address": "807 SOUTH PONDEROSA DRIVE", "lat": 35.880628751968125, "lon": -84.53609983610129}, "032000": {"hospital_name": "CURAHEALTH NORTHWEST PHOENIX", "address": "13216 NORTH PLAZA DEL RIO BLVD", "lat": 33.602489531924476, "lon": -112.26096969301557}, "032001": {"hospital_name": "SELECT SPECIALTY HOSPITAL PHOENIX", "address": "350 WEST THOMAS ROAD, 3RD FLOOR", "lat": -999, "lon": -999}, "032002": {"hospital_name": "CURAHEALTH TUCSON", "address": "355 NORTH WILMOT ROAD", "lat": 32.225554, "lon": -110.858027}, "032004": {"hospital_name": "CORNERSTONE SPECIALTY HOSPITALS TUCSON", "address": "7220 EAST ROSEWOOD STREET", "lat": 32.231315, "lon": -110.83809096641758}, "032005": {"hospital_name": "SELECT SPECIALTY HOSPITAL ARIZONA", "address": "1111 EAST MCDOWELL RD, 11TH FLOOR", "lat": -999, "lon": -999}, "032006": {"hospital_name": "KPC PROMISE HOSPITAL OF PHOENIX, LLC", "address": "433 EAST 6TH STREET", "lat": 39.73978981085876, "lon": -75.5449065381667}, "033302": {"hospital_name": "PHOENIX CHILDREN'S HOSPITAL", "address": "1919 EAST THOMAS ROAD", "lat": 33.48080917356042, "lon": -111.78963466470759}, "040001": {"hospital_name": "SILOAM SPRINGS REGIONAL HOSPITAL", "address": "603 NORTH PROGRESS AVENUE", "lat": 36.1900317, "lon": -94.50772670921572}, "040002": {"hospital_name": "JOHNSON REGIONAL MEDICAL CENTER", "address": "1100 EAST POPLAR STREET", "lat": 37.963777, "lon": -121.279011}, "040004": {"hospital_name": "WASHINGTON REGIONAL MEDICAL CENTER", "address": "3215 N NORTH HILLS BOULEVARD", "lat": 34.96384045241694, "lon": -88.51096490345643}, "040007": {"hospital_name": "CHI-ST VINCENT INFIRMARY", "address": "TWO ST VINCENT CIRCLE", "lat": -999, "lon": -999}, "040010": {"hospital_name": "MERCY HOSPITAL NORTHWEST ARKANSAS", "address": "2710 SOUTH RIFE MEDICAL LANE", "lat": 36.308679049999995, "lon": -94.18336046289184}, "040011": {"hospital_name": "CHAMBERS MEMORIAL HOSPITAL", "address": "719 DETROIT STREET", "lat": 30.331202434782607, "lon": -81.71819960869566}, "040014": {"hospital_name": "WHITE COUNTY MEDICAL CENTER", "address": "3214 EAST RACE AVENUE", "lat": 35.251945649999996, "lon": -91.69660718602938}, "040015": {"hospital_name": "MENA REGIONAL HEALTH SYSTEM", "address": "311 NORTH MORROW STREET", "lat": 34.58928535, "lon": -94.22138337999284}, "040016": {"hospital_name": "UAMS MEDICAL CENTER", "address": "4301 WEST MARKHAM STREET MAIL SLOT 612", "lat": -999, "lon": -999}, "040017": {"hospital_name": "NORTH ARKANSAS REGIONAL MEDICAL CENTER", "address": "620 NORTH MAIN STREET", "lat": 40.7358061, "lon": -73.4462061}, "040018": {"hospital_name": "BAPTIST HEALTH - VAN BUREN", "address": "211 CRAWFORD MEMORIAL DRIVE", "lat": 35.436200711482165, "lon": -94.33879362249925}, "040019": {"hospital_name": "FORREST CITY MEDICAL CENTER", "address": "1601 NEWCASTLE ROAD", "lat": 52.9461322, "lon": -2.3383281}, "040020": {"hospital_name": "ST BERNARDS MEDICAL CENTER", "address": "225 E WASHIINGTON AVENUE", "lat": -999, "lon": -999}, "040022": {"hospital_name": "NORTHWEST MEDICAL CENTER", "address": "609 WEST MAPLE AVENUE", "lat": 43.039792, "lon": -77.1059295}, "040026": {"hospital_name": "CHI ST. VINCENT HOSPITAL HOT SPRINGS", "address": "300 WERNER STREET", "lat": 34.467362699999995, "lon": -93.06722507102515}, "040027": {"hospital_name": "BAXTER REGIONAL MEDICAL CENTER", "address": "624 HOSPITAL DRIVE", "lat": 44.44728714003072, "lon": -72.02176521971538}, "040029": {"hospital_name": "CONWAY REGIONAL HEALTH SYSTEM", "address": "2302 COLLEGE AVENUE", "lat": 31.533167122781837, "lon": -87.8902292945049}, "040036": {"hospital_name": "BAPTIST HEALTH MEDICAL CENTER NORTH LITTLE ROCK", "address": "3333 SPRINGHILL DRIVE", "lat": 37.280088, "lon": -76.78191}, "040039": {"hospital_name": "ARKANSAS METHODIST MEDICAL CENTER", "address": "900 WEST KINGSHIGHWAY", "lat": 39.705224, "lon": -91.378033}, "040041": {"hospital_name": "ST MARYS REGIONAL MEDICAL CENTER", "address": "1808 WEST MAIN STREET", "lat": 39.9262343125, "lon": -83.840550375}, "040047": {"hospital_name": "FIVE RIVERS MEDICAL CENTER", "address": "2801 MEDICAL CENTER DRIVE", "lat": 35.2029544, "lon": -80.8367983}, "040050": {"hospital_name": "OUACHITA COUNTY MEDICAL CENTER", "address": "638 CALIFORNIA AVENUE", "lat": 34.84678890156466, "lon": -114.61701935183844}, "040051": {"hospital_name": "DREW MEMORIAL HOSPITAL", "address": "778 SCOGIN DRIVE", "lat": 33.61062, "lon": -91.81668965089801}, "040055": {"hospital_name": "BAPTIST HEALTH - FORT SMITH", "address": "1001 TOWSON AVENUE", "lat": 35.3753217, "lon": -94.4195416103866}, "040062": {"hospital_name": "MERCY HOSPITAL FORT SMITH", "address": "7301 ROGERS AVE", "lat": 51.5360847, "lon": -3.1223027}, "040067": {"hospital_name": "MAGNOLIA REGIONAL MEDICAL CENTER", "address": "101 HOSPITAL DRIVE", "lat": 42.66581527180083, "lon": -72.04230310194527}, "040069": {"hospital_name": "GREAT RIVER MEDICAL CENTER", "address": "1520 N DIVISION STREET", "lat": 42.8831616, "lon": -78.8751802}, "040071": {"hospital_name": "JEFFERSON REGIONAL MEDICAL CENTER", "address": "1600 WEST 40TH AVENUE", "lat": 34.18804475, "lon": -92.01778763263852}, "040072": {"hospital_name": "BAPTIST HEALTH MEDICAL CENTER-STUTTGART", "address": "1703 NORTH BUERKLE ST", "lat": 34.5177111, "lon": -91.55907166987961}, "040076": {"hospital_name": "BAPTIST HEALTH MEDICAL CENTER-HOT SPRINGS COUNTY", "address": "1001 SCHNEIDER DRIVE", "lat": 34.358098049999995, "lon": -92.78571755528573}, "040078": {"hospital_name": "NATIONAL PARK MEDICAL CENTER", "address": "1910 MALVERN AVENUE", "lat": 40.032005, "lon": -75.523441}, "040084": {"hospital_name": "SALINE MEMORIAL HOSPITAL", "address": "#1 MEDICAL PARK DRIVE", "lat": 34.68435555, "lon": -81.18318910082725}, "040085": {"hospital_name": "HELENA REGIONAL MEDICAL CENTER", "address": "1801 MARTIN LUTHER KING JR DRIVE", "lat": 36.050959, "lon": -79.779435}, "040088": {"hospital_name": "MEDICAL CENTER OF SOUTH ARKANSAS", "address": "700 WEST GROVE STREET", "lat": 40.66382178338929, "lon": -74.23543368131352}, "040114": {"hospital_name": "BAPTIST HEALTH MEDICAL CENTER-LITTLE ROCK", "address": "9601 INTERSTATE", "lat": 33.619894, "lon": -85.648818}, "040118": {"hospital_name": "NEA BAPTIST MEMORIAL HOSPITAL", "address": "4800 EAST JOHNSON AVENUE", "lat": 35.86593345, "lon": -90.63716902101888}, "040119": {"hospital_name": "WHITE RIVER MEDICAL CENTER", "address": "1710 HARRISON STREET", "lat": 32.55908265531122, "lon": -94.37077526515166}, "040132": {"hospital_name": "LEVI HOSPITAL", "address": "300 PROSPECT AVE", "lat": 41.75510715365097, "lon": -72.71474013725194}, "040134": {"hospital_name": "ARKANSAS HEART HOSPITAL, LLC", "address": "1701 S SHACKLEFORD ROAD", "lat": 34.73932405, "lon": -92.393248425}, "040137": {"hospital_name": "ST VINCENT MEDICAL CENTER/NORTH", "address": "2215 WILDWOOD AVENUE", "lat": 42.285182, "lon": -83.767794}, "040147": {"hospital_name": "ARKANSAS SURGICAL HOSPITAL", "address": "5201 NORTH SHORE DRIVE", "lat": 39.26471957166968, "lon": -86.34075452647379}, "040152": {"hospital_name": "NORTHWEST HEALTH PHYSICIANS SPECIALTY HOSPITAL", "address": "3873 NORTH PARKVIEW DRIVE", "lat": 36.12129955, "lon": -94.13407155920248}, "040153": {"hospital_name": "WADLEY REGIONAL MEDICAL CENTER AT HOPE", "address": "2001 SOUTH MAIN", "lat": 38.6275992, "lon": -97.6131519}, "040154": {"hospital_name": "BAPTIST HEALTH MEDICAL CENTER- CONWAY", "address": "1555 EXCHANGE AVENUE", "lat": 38.62896811235955, "lon": -90.13415022471911}, "040156": {"hospital_name": "BAPTIST MEMORIAL HOSPITAL-CRITTENDEN, INC", "address": "2100 NORTH SEVENTH STREET", "lat": 32.5016319, "lon": -94.728046}, "041300": {"hospital_name": "NORTH LOGAN MERCY HOSPITAL", "address": "500 EAST ACADEMY", "lat": 38.6584211, "lon": -90.2672264}, "041302": {"hospital_name": "DARDANELLE HOSPITAL", "address": "200 NORTH THIRD STREET", "lat": 38.783063, "lon": -90.482983}, "041303": {"hospital_name": "MERCY HOSPITAL TURNER MEMORIAL", "address": "801 WEST RIVER STREET", "lat": 32.0884678989899, "lon": -81.10587466161617}, "041304": {"hospital_name": "EUREKA SPRINGS HOSPITAL COMMISSION", "address": "24 NORRIS STREET", "lat": 42.39541835, "lon": -71.12934590141194}, "041305": {"hospital_name": "MERCY HOSPITAL WALDRON", "address": "1341 WEST SIXTH STREET", "lat": 42.3388509, "lon": -71.0562363}, "041306": {"hospital_name": "IZARD COUNTY MEDICAL CENTER, LLC", "address": "61 GRASSE STREET", "lat": 36.126718049999994, "lon": -92.12786155157846}, "041307": {"hospital_name": "CROSSRIDGE COMMUNITY HOSPITAL", "address": "310 SOUTH FALLS BOULEVARD", "lat": 42.23794804781255, "lon": -70.98608144446555}, "041308": {"hospital_name": "MCGEHEE HOSPITAL", "address": "900 SOUTH THIRD STREET", "lat": 38.775545, "lon": -90.48687}, "041309": {"hospital_name": "LAWRENCE MEMORIAL HOSPITAL", "address": "1309 WEST MAIN STREET", "lat": 38.0337313, "lon": -78.498416}, "041310": {"hospital_name": "STONE COUNTY MEDICAL CENTER", "address": "2106 EAST MAIN STREET", "lat": 36.33028836058677, "lon": -119.26955833902812}, "041311": {"hospital_name": "HOWARD MEMORIAL HOSPITAL", "address": "130 MEDICAL CIRCLE", "lat": 33.9507369, "lon": -93.87973891886071}, "041312": {"hospital_name": "BAPTIST HEALTH MEDICAL CENTER HEBER SPINGS", "address": "1800 BYPASS ROAD", "lat": 53.2388494, "lon": -2.9643843}, "041313": {"hospital_name": "OZARK HEALTH", "address": "2500 HIGHWAY 65 SOUTH", "lat": 33.883828, "lon": -79.0404752}, "041314": {"hospital_name": "DEWITT HOSPITAL & NURSING HOME, INC", "address": "1641 WHITEHEAD DRIVE", "lat": 52.5305223, "lon": -1.7690018}, "041316": {"hospital_name": "SOUTH MISSISSISSPI COUNTY REGIONAL MEDICAL CENTER", "address": "611 WEST LEE AVENUE", "lat": 35.6996791, "lon": -89.9757573834128}, "041317": {"hospital_name": "DALLAS COUNTY MEDICAL CENTER", "address": "201 CLIFTON STREET", "lat": 39.56943339870485, "lon": -97.28061741258541}, "041318": {"hospital_name": "MERCY HOSPITAL BOONEVILLE", "address": "880 WEST MAIN", "lat": 42.073378236343615, "lon": -90.88749701428517}, "041320": {"hospital_name": "LITTLE RIVER MEMORIAL HOSPITAL", "address": "451 WEST LOCKE STREET", "lat": 33.66908905, "lon": -94.13489675}, "041321": {"hospital_name": "BAPTIST HEALTH MEDICAL CENTER-ARKADELPHIA", "address": "3050 TWIN RIVERS DRIVE", "lat": 34.1229453, "lon": -93.08887741675285}, "041322": {"hospital_name": "FULTON COUNTY HOSPITAL", "address": "679 NORTH MAIN STREET", "lat": 40.7358061, "lon": -73.4462061}, "041323": {"hospital_name": "ASHLEY COUNTY MEDICAL CENTER", "address": "1015 UNITY ROAD", "lat": 38.84482408763978, "lon": -83.54154896516899}, "041324": {"hospital_name": "CHI ST VINCENT MORRILTON", "address": "#4 HOSPITAL DRIVE", "lat": 42.64542572916666, "lon": -71.30058208333334}, "041326": {"hospital_name": "DELTA MEMORIAL HOSPITAL", "address": "811 HIGHWAY 65 SOUTH", "lat": 33.883828, "lon": -79.0404752}, "041327": {"hospital_name": "BRADLEY COUNTY MEDICAL CENTER", "address": "404 SOUTH BRADLEY STREET", "lat": 33.6108031, "lon": -92.05963367409396}, "041328": {"hospital_name": "CHICOT MEMORIAL MEDICAL CENTER", "address": "2729 SOUTH HIGHWAY 65 & 82", "lat": -16.49647225, "lon": -68.15186753999745}, "041329": {"hospital_name": "MERCY HOSPITAL BERRYVILLE", "address": "214 CARTER STREET", "lat": 51.4854248, "lon": -0.0998544}, "041330": {"hospital_name": "PIGGOTT COMMUNITY HOSPITAL ", "address": "216 EAST MAIN STREET", "lat": 32.74565910204081, "lon": -97.00176977551021}, "041331": {"hospital_name": "OZARKS COMMUNITY HOSPITAL OF GRAVETTE", "address": "1101 JACKSON STREET SW", "lat": 36.4086921, "lon": -94.4604384}, "042004": {"hospital_name": "CHRISTUS DUBUIS HOSPITAL OF HOT SPRINGS", "address": "300 WERNER STREET, 3RD FLOOR", "lat": -999, "lon": -999}, "042006": {"hospital_name": "SELECT SPECIALITY HOSPITAL-FORT SMITH INC", "address": "1001 TOWSON AVENUE", "lat": 35.3753217, "lon": -94.4195416103866}, "042008": {"hospital_name": "CHRISTUS DUBUIS HOSPITAL OF FORT SMITH", "address": "7301 ROGERS AVENUE, # 4", "lat": 42.399344, "lon": -71.111519}, "042009": {"hospital_name": "REGENCY HOSPITAL OF NORTHWEST ARKANSAS", "address": "609 WEST MAPLE AVENUE", "lat": 43.039792, "lon": -77.1059295}, "042010": {"hospital_name": "CORNERSTONE HOSPITAL LITTLE ROCK", "address": "2 ST VINCENT CIRCLE, 6TH FLOOR", "lat": 34.75184029879753, "lon": -92.33754228829319}, "042011": {"hospital_name": "ADVANCED CARE HOSPITAL WHITE COUNTY", "address": "1200 SOUTH MAIN STREET", "lat": 35.47976, "lon": -80.625789}, "042012": {"hospital_name": "BAPTIST HEALTH EXTENDED CARE HOSPITAL-LR INC", "address": "9601 BAPTIST HEALTH DRIVE, 1OTH FLOOR", "lat": -999, "lon": -999}, "042013": {"hospital_name": "ARKANSAS CONTINUED CARE HOSPITAL OF JONESBORO", "address": "3024 RED WOLF BOULEVARD, SUITE 1", "lat": -999, "lon": -999}, "043300": {"hospital_name": "ARKANSAS CHILDREN'S HOSPITAL", "address": "1 CHILDREN'S WAY, SLOT 301", "lat": -999, "lon": -999}, "043301": {"hospital_name": "ARKANSAS CHILDREN'S NORTHWEST, INC", "address": "2601 GENE GEORGE BOULEVARD", "lat": 36.16251145, "lon": -94.19001151854488}, "04L115": {"hospital_name": "WOODRIDGE BEHAVIORAL CARE OF FORREST CITY", "address": "1521 ALBERT ST", "lat": 51.7398081, "lon": 11.969765}, "04L120": {"hospital_name": "WOODRIDGE OF THE OZARKS", "address": "2466 S 48TH STREET", "lat": 36.1639272, "lon": -94.1854778757282}, "04T027": {"hospital_name": "BAXTER REGIONAL MEDICAL CENTER", "address": "624 HOSPITAL DRIVE", "lat": 44.44728714003072, "lon": -72.02176521971538}, "050002": {"hospital_name": "ST ROSE HOSPITAL", "address": "27200 CALAROGA AVE", "lat": 37.63320025, "lon": -122.08790356843016}, "050006": {"hospital_name": "ST JOSEPH HOSPITAL", "address": "2700 DOLBEER ST", "lat": 40.784236199999995, "lon": -124.14211247180504}, "050007": {"hospital_name": "MILLS-PENINSULA MEDICAL CENTER", "address": "1501 TROUSDALE DRIVE", "lat": 37.5920174, "lon": -122.38367483626453}, "050008": {"hospital_name": "CALIFORNIA PACIFIC MEDICAL CTR-DAVIES CAMPUS HOSP", "address": "601 DUBOCE AVENUE", "lat": 37.76866605, "lon": -122.43460028072064}, "050009": {"hospital_name": "QUEEN OF THE VALLEY MEDICAL CENTER", "address": "1000 TRANCAS ST", "lat": 38.325328, "lon": -122.29608913388623}, "050013": {"hospital_name": "ADVENTIST HEALTH ST HELENA", "address": "10 WOODLAND ROAD", "lat": 41.49013835420291, "lon": -74.48945523343909}, "050014": {"hospital_name": "SUTTER AMADOR HOSPITAL", "address": "200 MISSION BLVD", "lat": 31.9259051, "lon": -102.2787734}, "050016": {"hospital_name": "MARIAN REGIONAL MEDICAL CENTER, ARROYO GRANDE", "address": "345 S HALCYON RD", "lat": 35.11332565, "lon": -120.59043311129251}, "050017": {"hospital_name": "MERCY GENERAL HOSPITAL", "address": "4001 J ST", "lat": 40.8065294, "lon": -73.8556515}, "050022": {"hospital_name": "RIVERSIDE COMMUNITY HOSPITAL", "address": "4445 MAGNOLIA AVENUE", "lat": 42.5801699, "lon": -70.71513}, "050024": {"hospital_name": "PARADISE VALLEY HOSPITAL", "address": "2400 EAST 4TH ST", "lat": 37.087338, "lon": -94.487977}, "050025": {"hospital_name": "UC SAN DIEGO HEALTH HILLCREST - HILLCREST MED CTR", "address": "200 WEST ARBOR DRIVE", "lat": 32.75531155, "lon": -117.16552466018484}, "050026": {"hospital_name": "GROSSMONT HOSPITAL", "address": "5555 GROSSMONT CENTER DRIVE BOX 58", "lat": -999, "lon": -999}, "050028": {"hospital_name": "MAD RIVER COMMUNITY HOSPITAL", "address": "3800 JANES RD", "lat": 40.8963453, "lon": -124.09127125057753}, "050030": {"hospital_name": "OROVILLE HOSPITAL", "address": "2767 OLIVE HIGHWAY", "lat": 39.5055825, "lon": -121.54115642975147}, "050036": {"hospital_name": "BAKERSFIELD MEMORIAL HOSPITAL", "address": "420 34TH ST", "lat": 46.87031593939394, "lon": -96.83526935353535}, "050038": {"hospital_name": "SANTA CLARA VALLEY MEDICAL CENTER", "address": "751 SOUTH BASCOM AVENUE", "lat": 37.31312855, "lon": -121.935317957676}, "050039": {"hospital_name": "ENLOE MEDICAL CENTER", "address": "1531 ESPLANADE", "lat": 47.3282162, "lon": 12.7969423}, "050040": {"hospital_name": "LAC/OLIVE VIEW-UCLA MEDICAL CENTER", "address": "14445 OLIVE VIEW DRIVE", "lat": 34.3265933, "lon": -118.44542718240601}, "050042": {"hospital_name": "ST ELIZABETH COMMUNITY HOSPITAL", "address": "2550 SISTER MARY COLUMBA DRIVE", "lat": 40.148280150000005, "lon": -122.21964386964095}, "050043": {"hospital_name": "ALTA BATES SUMMIT MEDICAL CENTER", "address": "350 HAWTHORNE AVENUE", "lat": 40.95550679310345, "lon": -74.14760510344829}, "050045": {"hospital_name": "EL CENTRO REGIONAL MEDICAL CENTER", "address": "1415 ROSS AVENUE", "lat": 51.562468, "lon": 0.1429435}, "050047": {"hospital_name": "CALIFORNIA PACIFIC MEDICAL CENTER- VAN NESS CAMPUS", "address": "1101 VAN NESS AVENUE", "lat": 34.0985096, "lon": -118.3157854}, "050054": {"hospital_name": "SAN GORGONIO MEMORIAL HOSPITAL", "address": "600 NORTH HIGHLAND SPRINGS AVENUE", "lat": 33.9321577, "lon": -116.9456731511499}, "050055": {"hospital_name": "CALIFORNIA PACIFIC MEDICAL CENTER - MISSION BERNAL", "address": "3555 CESAR CHAVEZ STREET", "lat": 37.7482104, "lon": -122.4138778}, "050056": {"hospital_name": "ANTELOPE VALLEY HOSPITAL", "address": "1600 W AVE J", "lat": 34.68673875, "lon": -118.15954859770837}, "050057": {"hospital_name": "KAWEAH DELTA MEDICAL CENTER", "address": "400 W MINERAL KING AVE", "lat": 36.328594, "lon": -119.29410951801157}, "050058": {"hospital_name": "GLENDALE MEM HOSPITAL & HLTH CENTER", "address": "1420 S CENTRAL AVE", "lat": -34.905159, "lon": 138.6732047}, "050060": {"hospital_name": "COMMUNITY REGIONAL MEDICAL CENTER", "address": "2823 FRESNO STREET", "lat": 36.7433526, "lon": -119.78408779817215}, "050063": {"hospital_name": "HOLLYWOOD PRESBYTERIAN MEDICAL CENTER", "address": "1300 N VERMONT AVE", "lat": 34.096256, "lon": -118.29009001997089}, "050067": {"hospital_name": "OAK VALLEY HOSPITAL DISTRICT", "address": "350 S OAK AVE", "lat": 27.894546499999997, "lon": -81.8376275}, "050069": {"hospital_name": "PROVIDENCE ST. JOSEPH HOSPITAL", "address": "1100 WEST STEWART DR", "lat": 33.78213355, "lon": -117.86402636297188}, "050070": {"hospital_name": "KAISER FOUNDATION HOSPITAL - SOUTH SAN FRANCISCO", "address": "1200 EL CAMINO REAL", "lat": -34.6725488, "lon": -58.45014300479079}, "050071": {"hospital_name": "KAISER FOUNDATION HOSPITAL-SANTA CLARA", "address": "700 LAWRENCE EXPRESSWAY", "lat": 37.335906550000004, "lon": -121.9990092}, "050072": {"hospital_name": "KAISER FOUNDATION HOSPITAL - WALNUT CREEK", "address": "1425 S MAIN STREET", "lat": 35.47409950712672, "lon": -80.62392175853375}, "050073": {"hospital_name": "KAISER FOUNDATION HOSPITAL AND REHAB CENTER", "address": "975 SERENO DR", "lat": 38.12641065, "lon": -122.24779446374484}, "050075": {"hospital_name": "KAISER FOUNDATION HOSPITAL - OAKLAND/RICHMOND", "address": "275 WEST MACARTHUR BOULEVARD", "lat": 37.823935703636046, "lon": -122.25792091892124}, "050076": {"hospital_name": "KAISER FOUNDATION HOSPITAL - SAN FRANCISCO", "address": "2425 GEARY BLVD", "lat": 37.7841128, "lon": -122.4344661}, "050077": {"hospital_name": "SCRIPPS MERCY HOSPITAL", "address": "4077 5TH AVE", "lat": 44.9642474, "lon": -93.2689107}, "050078": {"hospital_name": "PROVIDENCE LITTLE CO OF MARY MED CTR SAN PEDRO", "address": "1300 W 7TH ST", "lat": 37.08437865656566, "lon": -94.527955}, "050082": {"hospital_name": "ST JOHNS REGIONAL MEDICAL CENTER", "address": "1600 N ROSE AVE", "lat": 34.216721750000005, "lon": -119.15617690239208}, "050084": {"hospital_name": "ST JOSEPH'S MEDICAL CENTER OF STOCKTON", "address": "1800 N CALIFORNIA ST", "lat": 34.13213631617647, "lon": -117.33121336029413}, "050089": {"hospital_name": "COMMUNITY HOSPITAL OF SAN BERNARDINO", "address": "1805 MEDICAL CENTER DRIVE", "lat": 34.131437950000006, "lon": -117.3203731049922}, "050090": {"hospital_name": "SONOMA VALLEY HOSPITAL", "address": "347 ANDRIEUX ST", "lat": 38.288078, "lon": -122.46536254346142}, "050091": {"hospital_name": "COMMUNITY HOSPITAL OF HUNTINGTON PARK", "address": "2623 E SLAUSON AVE", "lat": 33.9892184, "lon": -118.2717759}, "050093": {"hospital_name": "SAINT AGNES MEDICAL CENTER", "address": "1303 E HERNDON AVE", "lat": 36.835121599999994, "lon": -119.76551513240092}, "050096": {"hospital_name": "WEST COVINA MEDICAL CENTER, INC", "address": "725 S ORANGE AVE", "lat": 28.5331558528435, "lon": -81.37688227894469}, "050099": {"hospital_name": "SAN ANTONIO REGIONAL HOSPITAL", "address": "999 SAN BERNARDINO ROAD", "lat": 34.1018422, "lon": -117.6375642036996}, "050100": {"hospital_name": "SHARP MEMORIAL HOSPITAL", "address": "7901 FROST ST", "lat": 53.4828526, "lon": -2.2135772}, "050101": {"hospital_name": "SUTTER SOLANO MEDICAL CENTER", "address": "300 HOSPITAL DR", "lat": 36.83258415, "lon": -76.08203381527338}, "050102": {"hospital_name": "DOCTORS HOSPITAL OF RIVERSIDE, LLC", "address": "3865 JACKSON STREET", "lat": 35.6217602, "lon": -88.8119303}, "050103": {"hospital_name": "WHITE MEMORIAL MEDICAL CENTER", "address": "1720 E CESAR AVENUE", "lat": 10.6525011, "lon": 122.9623997}, "050104": {"hospital_name": "SAINT FRANCIS MEDICAL CENTER", "address": "3630 EAST IMPERIAL HIGHWAY", "lat": 33.917361, "lon": -117.9924273}, "050107": {"hospital_name": "MARIAN REGIONAL MEDICAL CENTER", "address": "1400 E CHURCH ST", "lat": 42.095916, "lon": -76.7870313}, "050108": {"hospital_name": "SUTTER MEDICAL CENTER, SACRAMENTO", "address": "2825 CAPITOL AVENUE", "lat": 41.0415187, "lon": -85.0998177}, "050110": {"hospital_name": "LOMPOC VALLEY MEDICAL CENTER", "address": "1515 E OCEAN AVENUE", "lat": 34.64120565, "lon": -120.43958180144693}, "050112": {"hospital_name": "SANTA MONICA - UCLA MED CTR & ORTHOPAEDIC HOSPITAL", "address": "1250 16TH STREET", "lat": 43.585647606060604, "lon": -83.88099672727273}, "050113": {"hospital_name": "SAN MATEO MEDICAL CENTER", "address": "222 W 39TH AVE", "lat": 41.54774316762314, "lon": -87.33921843198655}, "050115": {"hospital_name": "PALOMAR HEALTH DOWNTOWN CAMPUS", "address": "555 EAST VALLEY PARKWAY", "lat": 33.1308493, "lon": -117.0660973}, "050116": {"hospital_name": "NORTHRIDGE HOSPITAL MEDICAL CENTER", "address": "18300 ROSCOE BLVD", "lat": 34.2215814, "lon": -118.4478132}, "050118": {"hospital_name": "DOCTORS HOSPITAL OF MANTECA", "address": "1205 E NORTH STREET", "lat": 34.5698805, "lon": -92.57277925}, "050121": {"hospital_name": "ADVENTIST HEALTH HANFORD", "address": "115 MALL DRIVE", "lat": 36.59189143468932, "lon": -79.42395164477384}, "050122": {"hospital_name": "DAMERON HOSPITAL", "address": "525 WEST ACACIA STREET", "lat": 36.668015374708354, "lon": -121.66970373894418}, "050124": {"hospital_name": "USC VERDUGO HILLS HOSPITAL", "address": "1812 VERDUGO BLVD", "lat": 34.2045076, "lon": -118.21622331598934}, "050125": {"hospital_name": "REGIONAL MEDICAL CENTER OF SAN JOSE", "address": "225 N JACKSON AVENUE", "lat": 39.114265979591835, "lon": -94.53251069387755}, "050126": {"hospital_name": "VALLEY PRESBYTERIAN HOSPITAL", "address": "15107 VANOWEN ST", "lat": 34.1937533, "lon": -118.6103631}, "050127": {"hospital_name": "WOODLAND MEMORIAL HOSPITAL", "address": "1325 COTTONWOOD STREET", "lat": 32.81421383108105, "lon": -79.9528854826571}, "050128": {"hospital_name": "TRI-CITY MEDICAL CENTER", "address": "4002 VISTA WAY", "lat": 42.8020115, "lon": -106.3284354}, "050129": {"hospital_name": "ST BERNARDINE MEDICAL CENTER", "address": "2101 N WATERMAN AVE", "lat": 36.0730841, "lon": -94.1860813}, "050131": {"hospital_name": "NOVATO COMMUNITY HOSPITAL", "address": "180 ROWLAND WAY", "lat": 38.09924865, "lon": -122.56013488843266}, "050132": {"hospital_name": "SAN GABRIEL VALLEY MEDICAL CENTER", "address": "438 W LAS TUNAS DRIVE", "lat": 32.3010233, "lon": -106.7266388}, "050133": {"hospital_name": "ADVENTIST HEALTH AND RIDEOUT", "address": "726 4TH ST", "lat": 43.35168291836735, "lon": -97.42865587755102}, "050135": {"hospital_name": "SOUTHERN CALIFORNIA HOSPITAL AT HOLLYWOOD", "address": "6245 DE LONGPRE AVE", "lat": 34.09665955, "lon": -118.32532039012489}, "050136": {"hospital_name": "PETALUMA VALLEY HOSPITAL", "address": "400 N MCDOWELL BLVD", "lat": 38.254765899999995, "lon": -122.63164750061051}, "050137": {"hospital_name": "KAISER FOUNDATION HOSPITAL - PANORAMA CITY", "address": "13652 CANTARA ST", "lat": 34.21976159264281, "lon": -118.42969205865565}, "050138": {"hospital_name": "KAISER FOUNDATION HOSPITAL - LOS ANGELES", "address": "4867 SUNSET BLVD", "lat": 44.946134, "lon": -73.3075251}, "050139": {"hospital_name": "KAISER FOUNDATION HOSPITAL - DOWNEY", "address": "9333 IMPERIAL HIGHWAY", "lat": 32.7676852, "lon": -116.075225}, "050140": {"hospital_name": "KAISER FOUNDATION HOSPITAL FONTANA", "address": "9961 SIERRA AVE", "lat": 33.9259374, "lon": -117.4927327}, "050145": {"hospital_name": "COMMUNITY HOSPITAL OF THE MONTEREY PENINSULA", "address": "23625 W R HOLMAN HIGHWAY", "lat": 45.2937333, "lon": -72.5652886}, "050146": {"hospital_name": "CITY OF HOPE HELFORD CLINICAL RESEARCH HOSPITAL", "address": "1500 E DUARTE ROAD", "lat": 34.1276438, "lon": -117.97324485000001}, "050149": {"hospital_name": "CALIFORNIA HOSPITAL MEDICAL CENTER LA", "address": "1401 SOUTH GRAND AVENUE", "lat": 42.98816719192235, "lon": -88.23243806562704}, "050150": {"hospital_name": "SIERRA NEVADA MEMORIAL HOSPITAL", "address": "155 GLASSON WAY", "lat": 39.228164250000006, "lon": -121.0471166273954}, "050152": {"hospital_name": "SAINT FRANCIS MEMORIAL HOSPITAL", "address": "900 HYDE ST", "lat": 51.0685478, "lon": -1.3149709}, "050158": {"hospital_name": "ENCINO HOSPITAL MEDICAL CENTER", "address": "16237 VENTURA BLVD", "lat": 34.2456755, "lon": -119.196062}, "050159": {"hospital_name": "VENTURA COUNTY MEDICAL CENTER", "address": "300 HILLMONT AVENUE", "lat": 34.2792501, "lon": -119.25354679663658}, "050167": {"hospital_name": "SAN JOAQUIN GENERAL HOSPITAL", "address": "500 W HOSPITAL ROAD", "lat": 37.886327, "lon": -121.28297548125127}, "050168": {"hospital_name": "PROVIDENCE ST. JUDE MEDICAL CENTER", "address": "101 E VALENCIA MESA DRIVE", "lat": 33.89466005, "lon": -117.9270646239013}, "050169": {"hospital_name": "PIH HEALTH HOSPITAL-WHITTIER", "address": "12401 WASHINGTON BLVD", "lat": 38.884468, "lon": -77.060687}, "050174": {"hospital_name": "SANTA ROSA MEMORIAL HOSPITAL", "address": "1165 MONTGOMERY DR", "lat": 39.0115573, "lon": -77.1119986}, "050179": {"hospital_name": "EMANUEL MEDICAL CENTER", "address": "825 DELBON AVE", "lat": 37.51171915, "lon": -120.83807733516551}, "050180": {"hospital_name": "JOHN MUIR MEDICAL CENTER - WALNUT CREEK CAMPUS", "address": "1601 YGNACIO VALLEY RD", "lat": 37.913848, "lon": -122.04265}, "050189": {"hospital_name": "GEORGE L MEE MEMORIAL HOSPITAL", "address": "300 CANAL STREET", "lat": 40.34923050091569, "lon": -76.41569945513137}, "050191": {"hospital_name": "ST MARY MEDICAL CENTER", "address": "1050 LINDEN AVE", "lat": 38.014394481851596, "lon": -78.46957512442401}, "050192": {"hospital_name": "ADVENTIST HEALTH REEDLEY", "address": "372 W CYPRESS AVE", "lat": 34.13889789795918, "lon": -118.00672104081632}, "050194": {"hospital_name": "WATSONVILLE COMMUNITY HOSPITAL", "address": "75 NIELSON STREET", "lat": -27.3848705, "lon": 153.0379307}, "050195": {"hospital_name": "WASHINGTON HOSPITAL", "address": "2000 MOWRY AVE", "lat": 37.5635127, "lon": -121.9790589}, "050197": {"hospital_name": "SEQUOIA HOSPITAL", "address": "170 ALAMEDA DE LAS PULGAS", "lat": 37.5403884, "lon": -122.3143054}, "050204": {"hospital_name": "PALMDALE REGIONAL MEDICAL CENTER", "address": "38600 MEDICAL CENTER DRIVE", "lat": 35.2029544, "lon": -80.8367983}, "050205": {"hospital_name": "GLENDORA OAKS BEHAVIORAL HEALTH HOSPITAL", "address": "150 WEST ROUTE 66", "lat": 35.2484745, "lon": -112.1963395}, "050211": {"hospital_name": "ALAMEDA HOSPITAL", "address": "2070 CLINTON AVENUE", "lat": 41.9612623, "lon": -90.8182449}, "050222": {"hospital_name": "SHARP CHULA VISTA MEDICAL CENTER", "address": "751 MEDICAL CENTER COURT", "lat": 32.6188528, "lon": -117.0230189178402}, "050224": {"hospital_name": "HOAG MEMORIAL HOSPITAL PRESBYTERIAN", "address": "ONE HOAG DRIVE", "lat": 33.6217415, "lon": -117.9332757}, "050226": {"hospital_name": "AHMC ANAHEIM REGIONAL MEDICAL CENTER", "address": "1111 W LA PALMA AVENUE", "lat": 33.848169049999996, "lon": -117.93439068729162}, "050228": {"hospital_name": "ZUCKERBERG SAN FRANCISCO GENERAL HOSP & TRAUMA CTR", "address": "1001 POTRERO AVENUE", "lat": 34.042333, "lon": -118.055709}, "050230": {"hospital_name": "GARDEN GROVE HOSPITAL & MEDICAL CENTER", "address": "12601 GARDEN GROVE BLVD", "lat": 33.7738142, "lon": -117.9811855}, "050231": {"hospital_name": "POMONA VALLEY HOSPITAL MEDICAL CENTER", "address": "1798 N GAREY AVE", "lat": 34.07721975, "lon": -117.75058962241243}, "050232": {"hospital_name": "FRENCH HOSPITAL MEDICAL CENTER", "address": "1911 JOHNSON AVE", "lat": 31.838412, "lon": -102.393998}, "050234": {"hospital_name": "SHARP CORONADO HOSPITAL AND HLTHCR CTR", "address": "250 PROSPECT PLACE", "lat": 51.5909649, "lon": 0.1675605}, "050235": {"hospital_name": "PROVIDENCE SAINT JOSEPH MEDICAL CTR", "address": "501 SOUTH BUENA VISTA STREET", "lat": 34.15594575, "lon": -118.32832890181228}, "050236": {"hospital_name": "ADVENTIST HEALTH SIMI VALLEY", "address": "2975 N SYCAMORE DR", "lat": 43.650507, "lon": -116.244864}, "050238": {"hospital_name": "METHODIST HOSPITAL OF SOUTHERN CA", "address": "300 W HUNTINGTON DR", "lat": 35.070151, "lon": -81.676522}, "050239": {"hospital_name": "GLENDALE ADVENTIST MEDICAL CENTER", "address": "1509 E WILSON TERRACE", "lat": 34.15114345, "lon": -118.23038682320198}, "050242": {"hospital_name": "DOMINICAN HOSPITAL", "address": "1555 SOQUEL DRIVE", "lat": 36.9877919, "lon": -121.9394038}, "050243": {"hospital_name": "DESERT REGIONAL MEDICAL CENTER", "address": "1150 NORTH INDIAN CANYON DRIVE", "lat": 33.839248, "lon": -116.54244075327415}, "050245": {"hospital_name": "ARROWHEAD REGIONAL MEDICAL CENTER", "address": "400 NORTH PEPPER AVENUE", "lat": 34.106915, "lon": -117.353027}, "050248": {"hospital_name": "NATIVIDAD MEDICAL CENTER", "address": "1441 CONSTITUTION BOULEVARD", "lat": 34.189655, "lon": -77.928249}, "050254": {"hospital_name": "MARSHALL MEDICAL CENTER", "address": "1100 MARSHALL WAY", "lat": 38.7247519, "lon": -120.79125968885688}, "050257": {"hospital_name": "GOOD SAMARITAN HOSPITAL", "address": "901 OLIVE DRIVE", "lat": 28.688641, "lon": -81.325828}, "050261": {"hospital_name": "SIERRA VIEW MEDICAL CENTER", "address": "465 W PUTNAM AVE", "lat": 36.068604199999996, "lon": -119.02597760625369}, "050262": {"hospital_name": "RONALD REAGAN U C L A MEDICAL CENTER", "address": "757 WESTWOOD PLAZA", "lat": 34.0664646, "lon": -118.4465072643477}, "050272": {"hospital_name": "REDLANDS COMMUNITY HOSPITAL", "address": "350 TERRACINA BLVD", "lat": 34.03754215, "lon": -117.20650506569149}, "050276": {"hospital_name": "CONTRA COSTA REGIONAL MEDICAL CENTER", "address": "2500 ALHAMBRA AVENUE", "lat": 34.06408, "lon": -118.211319}, "050278": {"hospital_name": "PROVIDENCE HOLY CROSS MEDICAL CENTER", "address": "15031 RINALDI ST", "lat": 34.280816200000004, "lon": -118.45887934751701}, "050279": {"hospital_name": "HI-DESERT MEDICAL CENTER", "address": "6601 WHITE FEATHER ROAD", "lat": 34.131822, "lon": -116.27504867355569}, "050280": {"hospital_name": "MERCY MEDICAL CENTER REDDING", "address": "2175 ROSALINE AVE, CLAIRMONT HGTS", "lat": -999, "lon": -999}, "050281": {"hospital_name": "ALHAMBRA HOSPITAL MEDICAL CENTER", "address": "100 S RAYMOND AVE", "lat": 34.144398, "lon": -118.148778}, "050283": {"hospital_name": "STANFORD HEALTH CARE - VALLEYCARE", "address": "5555 WEST LAS POSITAS BOULEVARD", "lat": 37.69357625, "lon": -121.88050938479208}, "050289": {"hospital_name": "SETON MEDICAL CENTER", "address": "1900 SULLIVAN AVENUE", "lat": 51.518199, "lon": 0.0384342}, "050290": {"hospital_name": "PROVIDENCE SAINT JOHN'S HEALTH CENTER", "address": "2121 SANTA MONICA BLVD", "lat": 34.03059945, "lon": -118.47945850177965}, "050291": {"hospital_name": "SUTTER SANTA ROSA REGIONAL HOSPITAL", "address": "30 MARK WEST SPRINGS ROAD", "lat": 38.494594, "lon": -122.75190236949636}, "050292": {"hospital_name": "RIVERSIDE UNIVERSITY HEALTH SYSTEM-MEDICAL CENTER", "address": "26520 CACTUS AVENUE", "lat": 34.069296, "lon": -81.120844}, "050295": {"hospital_name": "MERCY HOSPITAL", "address": "2215 TRUXTUN AVENUE", "lat": 35.37267355, "lon": -119.0276306}, "050298": {"hospital_name": "BARSTOW COMMUNITY HOSPITAL", "address": "820 E MOUNTAIN VIEW STREET", "lat": 33.851777, "lon": -118.1907745}, "050300": {"hospital_name": "ST MARY MEDICAL CENTER", "address": "18300 HIGHWAY 18", "lat": 32.2571385, "lon": -90.0016553}, "050301": {"hospital_name": "ADVENTIST HEALTH UKIAH VALLEY", "address": "275 HOSPITAL DRIVE", "lat": 36.83278790385941, "lon": -76.08276708175399}, "050305": {"hospital_name": "ALTA BATES SUMMIT MEDICAL CENTER - ALTA BATES CAMP", "address": "2450 ASHBY AVENUE", "lat": 51.3607505, "lon": -0.2892486}, "050308": {"hospital_name": "EL CAMINO HOSPITAL", "address": "2500 GRANT ROAD", "lat": 27.924509, "lon": -80.566924}, "050309": {"hospital_name": "SUTTER ROSEVILLE MEDICAL CENTER", "address": "ONE MEDICAL PLAZA", "lat": 43.723956, "lon": -79.33630416835443}, "050313": {"hospital_name": "SUTTER TRACY COMMUNITY HOSPITAL", "address": "1420 NORTH TRACY BLVD", "lat": 37.7436921122449, "lon": -121.43516835714286}, "050315": {"hospital_name": "KERN MEDICAL CENTER", "address": "1700 MOUNT VERNON AVENUE", "lat": 38.82161, "lon": -77.057921}, "050320": {"hospital_name": "HIGHLAND HOSPITAL", "address": "1411 EAST 31ST STREET", "lat": 32.055690265306126, "lon": -81.07632802040817}, "050324": {"hospital_name": "SCRIPPS MEMORIAL HOSPITAL LA JOLLA", "address": "9888 GENESEE AVENUE", "lat": 32.88462355, "lon": -117.22494990922448}, "050327": {"hospital_name": "LOMA LINDA UNIVERSITY MEDICAL CENTER", "address": "11234 ANDERSON ST", "lat": 36.6463819, "lon": -94.4530414}, "050329": {"hospital_name": "CORONA REGIONAL MEDICAL CENTER", "address": "800 SOUTH MAIN STREET", "lat": 35.484598, "lon": -80.627789}, "050334": {"hospital_name": "SALINAS VALLEY MEMORIAL HOSPITAL", "address": "450 EAST ROMIE LANE", "lat": 36.6590978, "lon": -121.6463386833344}, "050335": {"hospital_name": "ADVENTIST HEALTH SONORA", "address": "1000 GREENLEY ROAD", "lat": 37.97723643487633, "lon": -120.36996265006367}, "050336": {"hospital_name": "ADVENTIST HEALTH LODI MEMORIAL", "address": "975 S FAIRMONT AVENUE", "lat": 39.473536126219415, "lon": -80.15287512398906}, "050342": {"hospital_name": "PIONEERS MEMORIAL HEALTHCARE DISTRICT", "address": "207 WEST LEGION ROAD", "lat": 32.95867375, "lon": -115.55433124879434}, "050348": {"hospital_name": "UNIVERSITY OF CALIFORNIA IRVINE MEDICAL CENTER", "address": "101 CITY DRIVE SOUTH", "lat": 33.785812, "lon": -117.889175}, "050350": {"hospital_name": "BEVERLY HOSPITAL", "address": "309 W BEVERLY BLVD", "lat": 34.0153327, "lon": -118.10091707687258}, "050351": {"hospital_name": "TORRANCE MEMORIAL MEDICAL CENTER", "address": "3330 LOMITA BLVD", "lat": 33.8030548, "lon": -118.3215497}, "050352": {"hospital_name": "BARTON MEMORIAL HOSPITAL", "address": "2170 SOUTH AVENUE", "lat": -34.849868, "lon": 138.6208337}, "050353": {"hospital_name": "PROVIDENCE LITTLE COMPANY OF MARY MED CTR TORRANCE", "address": "4101 TORRANCE BLVD", "lat": 33.83880825, "lon": -118.35718500621408}, "050357": {"hospital_name": "GOLETA VALLEY COTTAGE HOSPITAL", "address": "351 S PATTERSON AVE", "lat": 31.84920875510204, "lon": -102.34775873469388}, "050360": {"hospital_name": "MARINHEALTH MEDICAL CENTER", "address": "250 BON AIR ROAD, PO BOX 8010", "lat": -999, "lon": -999}, "050367": {"hospital_name": "NORTHBAY MEDICAL CENTER", "address": "1200 B  GALE WILSON BLVD", "lat": 38.262131749999995, "lon": -122.04777683246526}, "050373": {"hospital_name": "LAC+USC MEDICAL CENTER", "address": "1200 N STATE ST, ROOM C2K100", "lat": -999, "lon": -999}, "050376": {"hospital_name": "LAC/HARBOR-UCLA MED CENTER", "address": "1000 W CARSON ST", "lat": 33.8316125, "lon": -118.287259}, "050378": {"hospital_name": "PACIFICA HOSPITAL OF THE VALLEY", "address": "9449 SAN FERNANDO RD", "lat": 34.28359, "lon": -118.4423316}, "050380": {"hospital_name": "GOOD SAMARITAN HOSPITAL", "address": "2425 SAMARITAN DRIVE", "lat": 37.25229515, "lon": -121.94571392384154}, "050382": {"hospital_name": "EMANATE HEALTH INTER-COMMUNITY HOSPITAL", "address": "210 W  SAN BERNARDINO ROAD", "lat": 34.08834565, "lon": -117.89343076496034}, "050390": {"hospital_name": "HEMET GLOBAL MEDICAL CENTER", "address": "1117 EAST DEVONSHIRE", "lat": 50.7360269, "lon": -3.4163328}, "050393": {"hospital_name": "PIH HOSPITAL - DOWNEY", "address": "11500 BROOKSHIRE AVENUE", "lat": 33.93460875, "lon": -118.13103901614653}, "050394": {"hospital_name": "COMMUNITY MEMORIAL HOSPITAL SAN BUENAVENTURA", "address": "147 N BRENT ST", "lat": 34.2738274, "lon": -119.25809120695367}, "050396": {"hospital_name": "SANTA BARBARA COTTAGE HOSPITAL", "address": "400 WEST PUEBLO", "lat": 42.57066572643798, "lon": -83.59805051796025}, "050407": {"hospital_name": "CHINESE HOSPITAL", "address": "845 JACKSON ST", "lat": 37.932938458811265, "lon": -89.23865739737204}, "050411": {"hospital_name": "KAISER FOUNDATION HOSPITAL - SOUTH BAY", "address": "25825 SOUTH VERMONT AVENUE", "lat": 33.9112805, "lon": -118.2915773}, "050414": {"hospital_name": "MERCY HOSPITAL OF FOLSOM", "address": "1650 CREEKSIDE DRIVE", "lat": 42.0468521, "lon": -88.1175547}, "050417": {"hospital_name": "SUTTER COAST HOSPITAL", "address": "800 E WASHINGTON BLVD", "lat": 41.078738, "lon": -85.127462}, "050423": {"hospital_name": "PALO VERDE HOSPITAL", "address": "250 NORTH FIRST STREET", "lat": 40.11757616326531, "lon": -88.23864104081633}, "050424": {"hospital_name": "SCRIPPS GREEN HOSPITAL", "address": "10666 NORTH TORREY PINES ROAD", "lat": 32.89631765, "lon": -117.24263914897723}, "050425": {"hospital_name": "KAISER FOUNDATION HOSPITAL - SACRAMENTO", "address": "2025 MORSE AVENUE", "lat": 30.118143, "lon": -92.495752}, "050426": {"hospital_name": "WEST ANAHEIM MEDICAL CENTER", "address": "3033 W ORANGE AVENUE", "lat": 33.82562935, "lon": -117.99514038284622}, "050438": {"hospital_name": "HUNTINGTON MEMORIAL HOSPITAL", "address": "100 W  CALIFORNIA BLVD", "lat": 34.133226050000005, "lon": -118.15224362882289}, "050441": {"hospital_name": "STANFORD HEALTH CARE", "address": "300 PASTEUR DRIVE", "lat": 37.4327332, "lon": -122.1755}, "050444": {"hospital_name": "MERCY MEDICAL CENTER", "address": "333 MERCY AVENUE", "lat": 37.33991415, "lon": -120.46701377237329}, "050454": {"hospital_name": "UCSF MEDICAL CENTER", "address": "505 PARNASSUS AVE, BOX 0296", "lat": -999, "lon": -999}, "050455": {"hospital_name": "ADVENTIST HEALTH BAKERSFIELD", "address": "2615 CHESTER AVENUE", "lat": 39.983716, "lon": -75.809055}, "050457": {"hospital_name": "ST MARY'S MEDICAL CENTER", "address": "450 STANYAN ST", "lat": 37.77376535, "lon": -122.45361575351124}, "050464": {"hospital_name": "DOCTORS MEDICAL CENTER", "address": "1441 FLORIDA AVENUE", "lat": 26.700343459938736, "lon": -80.0570168443778}, "050468": {"hospital_name": "MEMORIAL HOSPITAL OF GARDENA", "address": "1145 W REDONDO BEACH BLVD", "lat": 33.89312165, "lon": -118.29505014585055}, "050471": {"hospital_name": "GOOD SAMARITAN HOSPITAL", "address": "1225 WILSHIRE BOULEVARD", "lat": 31.9844075, "lon": -81.1351598}, "050481": {"hospital_name": "WEST HILLS HOSPITAL & MEDICAL CENTER", "address": "7300 MEDICAL CENTER DR", "lat": 35.2029544, "lon": -80.8367983}, "050485": {"hospital_name": "LONG BEACH MEMORIAL MEDICAL CENTER", "address": "2801 ATLANTIC AVE", "lat": 54.7238932, "lon": -6.226415}, "050488": {"hospital_name": "EDEN MEDICAL CENTER", "address": "20103 LAKE CHABOT ROAD", "lat": 37.698084449999996, "lon": -122.08927136875985}, "050492": {"hospital_name": "CLOVIS COMMUNITY MEDICAL CENTER", "address": "2755 HERNDON AVE", "lat": 36.8412855, "lon": -119.66061004453275}, "050496": {"hospital_name": "JOHN MUIR MEDICAL CENTER - CONCORD CAMPUS", "address": "2540 EAST ST", "lat": 39.74658859756098, "lon": -105.20742454878048}, "050498": {"hospital_name": "SUTTER AUBURN FAITH HOSPITAL", "address": "11815 EDUCATION STREET", "lat": 38.94503815, "lon": -121.10093116567297}, "050503": {"hospital_name": "SCRIPPS MEMORIAL HOSPITAL - ENCINITAS", "address": "354 SANTA FE DRIVE", "lat": 36.550628892880106, "lon": -82.2316196496611}, "050506": {"hospital_name": "SIERRA VISTA REGIONAL MEDICAL CENTER", "address": "1010 MURRAY ST", "lat": -32.739364, "lon": 115.8776274}, "050510": {"hospital_name": "KAISER FOUNDATION HOSPITAL", "address": "99 MONTECILLO RD", "lat": 38.00466675, "lon": -122.5551133569173}, "050512": {"hospital_name": "KAISER FOUNDATION HOSPITAL - FREMONT", "address": "39400 PASEO PADRE PKWY", "lat": 37.5413464, "lon": -121.9556449}, "050515": {"hospital_name": "KAISER FOUNDATION HOSPITAL - ZION", "address": "4647 ZION AVE", "lat": 32.79141215, "lon": -117.09498300667414}, "050516": {"hospital_name": "MERCY SAN JUAN MEDICAL CENTER", "address": "6501 COYLE AVE", "lat": 38.66952005, "lon": -121.31317653001221}, "050517": {"hospital_name": "VICTOR VALLEY GLOBAL MEDICAL CENTER", "address": "15248 11TH ST", "lat": -34.1283899, "lon": 18.8528305}, "050523": {"hospital_name": "SUTTER DELTA MEDICAL CENTER", "address": "3901 LONE TREE WAY", "lat": 37.9842214, "lon": -121.8058528}, "050526": {"hospital_name": "HUNTINGTON BEACH HOSPITAL", "address": "17772 BEACH BLVD", "lat": 29.939316650000002, "lon": -85.39868211026155}, "050528": {"hospital_name": "MEMORIAL HOSPITAL LOS BANOS", "address": "520 WEST I ST", "lat": 33.78100520408163, "lon": -118.26795802040816}, "050534": {"hospital_name": "JOHN F KENNEDY MEMORIAL HOSPITAL", "address": "47111 MONROE STREET", "lat": 38.452692, "lon": -85.661805}, "050537": {"hospital_name": "SUTTER DAVIS HOSPITAL", "address": "2000 SUTTER PLACE", "lat": 34.17160443243243, "lon": -119.15352135135136}, "050541": {"hospital_name": "KAISER FOUNDATION HOSPITAL - REDWOOD CITY", "address": "1100 VETERANS BOULEVARD", "lat": 32.544175, "lon": -82.961551}, "050543": {"hospital_name": "COLLEGE HOSPITAL COSTA MESA", "address": "301 VICTORIA STREET", "lat": 51.4966576, "lon": -0.1436243}, "050546": {"hospital_name": "PORTERVILLE DEVELOPMENTAL CENTER", "address": "26501 AVENUE 140", "lat": 36.043808, "lon": -118.93755}, "050549": {"hospital_name": "LOS ROBLES HOSPITAL & MEDICAL CENTER", "address": "215 W JANSS RD", "lat": 34.20779005, "lon": -118.88314660772305}, "050551": {"hospital_name": "LOS ALAMITOS MEDICAL CENTER", "address": "3751 KATELLA AVENUE", "lat": 33.804075850000004, "lon": -118.0671432174315}, "050557": {"hospital_name": "MEMORIAL MEDICAL CENTER", "address": "1700 COFFEE RD", "lat": 33.74581550192376, "lon": -84.11347377836816}, "050561": {"hospital_name": "KAISER FOUNDATION HOSPITAL - WEST LA", "address": "6041 CADILLAC AVE", "lat": 34.038716300000004, "lon": -118.37481035336512}, "050567": {"hospital_name": "PROVIDENCE MISSION HOSPITAL", "address": "27700 MEDICAL CENTER RD", "lat": 33.56148575, "lon": -117.66511926788004}, "050568": {"hospital_name": "MADERA COMMUNITY HOSPITAL", "address": "1250 E ALMOND AVE", "lat": 36.94433135, "lon": -120.04464020126885}, "050570": {"hospital_name": "FOUNTAIN VALLEY REGIONAL HOSPITAL & MEDICAL CENTER", "address": "17100 EUCLID STREET", "lat": 42.2885018, "lon": -71.0718535}, "050573": {"hospital_name": "EISENHOWER MEDICAL CENTER", "address": "39-000 BOB HOPE DRIVE", "lat": -999, "lon": -999}, "050580": {"hospital_name": "LA PALMA INTERCOMMUNITY HOSPITAL", "address": "7901 WALKER STREET", "lat": 50.2846555, "lon": -107.7794316}, "050581": {"hospital_name": "LAKEWOOD REGIONAL MEDICAL CENTER", "address": "3700 E SOUTH ST", "lat": 38.8343344, "lon": -97.6079614}, "050586": {"hospital_name": "CHINO VALLEY MEDICAL CENTER", "address": "5451 WALNUT AVE", "lat": 33.7106033, "lon": -117.7959818}, "050588": {"hospital_name": "SAN DIMAS COMMUNITY HOSPITAL", "address": "1350 W COVINA BLVD", "lat": 34.097127150000006, "lon": -117.83438815417705}, "050589": {"hospital_name": "PLACENTIA LINDA HOSPITAL", "address": "1301 N ROSE DRIVE", "lat": 33.88655895, "lon": -117.84324990647133}, "050590": {"hospital_name": "METHODIST HOSPITAL OF SACRAMENTO", "address": "7500 HOSPITAL DRIVE", "lat": 37.4194, "lon": -76.54334}, "050597": {"hospital_name": "EMANATE HEALTH FOOTHILL PRESBYTERIAN HOSPITAL", "address": "250 S GRAND AVE", "lat": 37.97494307850002, "lon": -87.54903797944283}, "050599": {"hospital_name": "UNIVERSITY OF CALIFORNIA DAVIS MEDICAL CENTER", "address": "2315 STOCKTON BOULEVARD", "lat": 38.5526924, "lon": -121.45179003143164}, "050603": {"hospital_name": "MEMORIALCARE SADDLEBACK MEDICAL CENTER", "address": "24451 HEALTH CENTER DRIVE", "lat": 33.60863405, "lon": -117.7094042451472}, "050604": {"hospital_name": "KAISER FOUNDATION HOSPITAL-SAN JOSE", "address": "250 HOSPITAL PARKWAY", "lat": 37.23995685, "lon": -121.8008585558468}, "050608": {"hospital_name": "ADVENTIST HEALTH DELANO", "address": "1401 GARCES HIGHWAY", "lat": 35.76202, "lon": -119.23931287742049}, "050609": {"hospital_name": "KAISER FOUNDATION HOSPITAL - ORANGE COUNTY - ANAHE", "address": "3440 E LA PALMA AVE", "lat": 33.8472713, "lon": -117.8879114}, "050616": {"hospital_name": "ST JOHNS PLEASANT VALLEY HOSPITAL", "address": "2309 ANTONIO AVE", "lat": 34.24352825, "lon": -119.01987410094888}, "050624": {"hospital_name": "HENRY MAYO NEWHALL  HOSPITAL", "address": "23845  MCBEAN PKWY", "lat": 34.39798435, "lon": -118.5532808870174}, "050625": {"hospital_name": "CEDARS-SINAI MEDICAL CENTER", "address": "8700 BEVERLY BLVD", "lat": 34.0623164, "lon": -118.2606396}, "050633": {"hospital_name": "TWIN CITIES COMMUNITY HOSPITAL", "address": "1100 LAS TABLAS RD", "lat": 35.554775, "lon": -120.720007}, "050636": {"hospital_name": "PALOMAR MEDICAL CENTER POWAY", "address": "15615 POMERADO ROAD", "lat": 32.8932424, "lon": -117.1145425}, "050641": {"hospital_name": "EAST LOS ANGELES DOCTORS HOSPITAL", "address": "4060 WHITTIER BLVD", "lat": 33.956354, "lon": -118.0209112}, "050660": {"hospital_name": "USC KENNETH NORRIS JR CANCER HOSPITAL", "address": "1441 EASTLAKE AVE", "lat": 34.06143675, "lon": -118.20541166805805}, "050663": {"hospital_name": "LOS ANGELES COMMUNITY HOSPITAL", "address": "4081 E OLYMPIC BLVD", "lat": 34.0271236, "lon": -118.2373132}, "050668": {"hospital_name": "LAGUNA HONDA HOSPITAL & REHABILITATION CENTER", "address": "375 LAGUNA HONDA BLVD", "lat": 37.7494814, "lon": -122.45729651523612}, "050674": {"hospital_name": "KAISER FOUNDATION HOSP SO SACRAMENTO", "address": "6600 BRUCEVILLE ROAD", "lat": 38.4694359, "lon": -121.4236793}, "050677": {"hospital_name": "KAISER FOUNDATION HOSPITAL - WOODLAND HILLS", "address": "5601 DE SOTO AVENUE", "lat": 34.1961285, "lon": -118.5884689}, "050678": {"hospital_name": "MEMORIALCARE ORANGE COAST MEDICAL CENTER", "address": "9920 TALBERT AVENUE", "lat": 33.7011469, "lon": -117.95630165982409}, "050684": {"hospital_name": "MENIFEE GLOBAL MEDICAL CENTER", "address": "28400 MCCALL BOULEVARD", "lat": 33.7193976, "lon": -117.1680930126495}, "050686": {"hospital_name": "KAISER FOUNDATION HOSPITAL, RIVERSIDE", "address": "10800 MAGNOLIA AVENUE", "lat": 42.5801699, "lon": -70.71513}, "050689": {"hospital_name": "SAN RAMON REGIONAL MEDICAL CENTER", "address": "6001 NORRIS CANYON ROAD", "lat": 37.77621565, "lon": -121.95861021536575}, "050690": {"hospital_name": "KAISER FOUNDATION HOSPITAL-SANTA ROSA", "address": "401 BICENTENNIAL WAY", "lat": 38.471815649999996, "lon": -122.72719315082125}, "050696": {"hospital_name": "KECK HOSPITAL OF USC", "address": "1500 SAN PABLO STREET", "lat": 34.0627257, "lon": -118.20188823929675}, "050697": {"hospital_name": "PATIENTS' HOSPITAL OF REDDING", "address": "2900 EUREKA WAY", "lat": 40.58587755, "lon": -122.4167848463959}, "050701": {"hospital_name": "SOUTHWEST HEALTHCARE SYSTEM", "address": "25500 MEDICAL CENTER DRIVE", "lat": 35.2029544, "lon": -80.8367983}, "050704": {"hospital_name": "MISSION COMMUNITY HOSPITAL", "address": "14850 ROSCOE BLVD", "lat": 34.22036305, "lon": -118.45647402657065}, "050708": {"hospital_name": "FRESNO SURGICAL HOSPITAL", "address": "6125 NORTH FRESNO ST", "lat": 36.82496036380463, "lon": -119.7814280493874}, "050709": {"hospital_name": "DESERT VALLEY HOSPITAL", "address": "16850 BEAR VALLEY RD", "lat": 34.4714691, "lon": -117.1988852}, "050710": {"hospital_name": "KAISER FOUNDATION HOSPITAL - FRESNO", "address": "7300 NORTH FRESNO ST", "lat": 36.84282535, "lon": -119.78130614428252}, "050714": {"hospital_name": "SUTTER MATERNITY & SURGERY CENTER OF SANTA CRUZ", "address": "2900 CHANTICLEER AVENUE", "lat": 36.9880172, "lon": -121.97744755627402}, "050717": {"hospital_name": "LAC/RANCHO LOS AMIGOS NATIONAL REHABILITATION  CTR", "address": "7601 EAST IMPERIAL HIGHWAY", "lat": 33.917361, "lon": -117.9924273}, "050723": {"hospital_name": "KAISER FOUNDATION HOSPITAL - BALDWIN PARK", "address": "1011 BALDWIN PARK BLVD", "lat": 34.065076700000006, "lon": -117.98636036887852}, "050724": {"hospital_name": "BAKERSFIELD HEART HOSPITAL", "address": "3001 SILLECT AVENUE", "lat": 35.3849601, "lon": -119.03990575419954}, "050726": {"hospital_name": "STANISLAUS SURGICAL HOSPITAL", "address": "1421 OAKDALE ROAD", "lat": 35.294996235543486, "lon": -80.89357406852034}, "050732": {"hospital_name": "FRESNO HEART AND SURGICAL HOSPITAL", "address": "15 EAST AUDUBON DRIVE", "lat": 36.8599472, "lon": -119.78836026727862}, "050735": {"hospital_name": "WHITTIER HOSPITAL MEDICAL CENTER", "address": "9080 COLIMA RD", "lat": 33.95018415, "lon": -118.00391928088087}, "050736": {"hospital_name": "MONTEREY PARK HOSPITAL", "address": "900 S ATLANTIC BLVD", "lat": 34.04980485, "lon": -118.13808529561979}, "050737": {"hospital_name": "GARFIELD MEDICAL CENTER", "address": "525 N GARFIELD AVE", "lat": 40.12051173491006, "lon": -88.26945862341448}, "050738": {"hospital_name": "GREATER EL MONTE COMMUNITY HOSPITAL", "address": "1701 SANTA ANITA AVE", "lat": 34.0481508, "lon": -118.04338127947682}, "050739": {"hospital_name": "CENTINELA HOSPITAL MEDICAL CENTER", "address": "555 EAST HARDY STREET", "lat": 33.950461149999995, "lon": -118.34830662377192}, "050740": {"hospital_name": "CEDAR-SINAI MARINA DEL REY HOSPITAL", "address": "4650 LINCOLN BLVD", "lat": 38.8760501, "lon": -121.2968328}, "050742": {"hospital_name": "OLYMPIA MEDICAL CENTER", "address": "5900 WEST OLYMPIC BOULEVARD", "lat": 34.0454546, "lon": -118.2659045}, "050744": {"hospital_name": "ANAHEIM GLOBAL MEDICAL CENTER", "address": "1025 S ANAHEIM BLVD", "lat": 33.820504099999994, "lon": -117.90963023664295}, "050745": {"hospital_name": "CHAPMAN GLOBAL MEDICAL CENTER", "address": "2601 E CHAPMAN AVE", "lat": 33.8740067, "lon": -117.918776}, "050746": {"hospital_name": "ORANGE COUNTY GLOBAL MEDICAL CENTER", "address": "1001 NORTH TUSTIN AVENUE", "lat": 33.7539445, "lon": -117.83302742324665}, "050747": {"hospital_name": "SOUTH COAST GLOBAL MEDICAL CENTER", "address": "2701 S BRISTOL ST", "lat": 33.7109311, "lon": -117.884387}, "050748": {"hospital_name": "KAISER FOUNDATION HOSPITAL MANTECA", "address": "1777 WEST YOSEMITE AVE", "lat": 37.3321962, "lon": -120.4851364}, "050755": {"hospital_name": "SHERMAN OAKS HOSPITAL", "address": "4929 VAN NUYS BLVD", "lat": 34.1817431, "lon": -118.4487269}, "050757": {"hospital_name": "ALVARADO HOSPITAL MEDICAL CENTER", "address": "6655 ALVARADO ROAD", "lat": 32.776616000000004, "lon": -117.05720835253514}, "050758": {"hospital_name": "MONTCLAIR HOSPITAL MEDICAL CENTER", "address": "5000 SAN BERNARDINO ST", "lat": 34.07903925, "lon": -117.69579950586069}, "050760": {"hospital_name": "KAISER FOUNDATION HOSPITAL - ANTIOCH", "address": "4501 SAND CREEK ROAD", "lat": 33.424443, "lon": -89.127957}, "050761": {"hospital_name": "PROVIDENCE-CEDARS SINAI TARZANA MEDICAL CENTER", "address": "18321 CLARK STREET", "lat": 36.0932204, "lon": -115.0439506}, "050763": {"hospital_name": "L A DOWNTOWN MEDICAL CENTER, LLC", "address": "1711 WEST TEMPLE STREET", "lat": 34.069422599999996, "lon": -118.26360959634485}, "050764": {"hospital_name": "SHASTA REGIONAL MEDICAL CENTER", "address": "1100 BUTTE ST", "lat": 44.6780973, "lon": -103.8503306}, "050765": {"hospital_name": "KAISER FOUNDATION HOSPITAL-MORENO VALLEY", "address": "27300 IRIS AVENUE", "lat": 51.4503052, "lon": 0.134691}, "050766": {"hospital_name": "SUTTER SURGICAL HOSPITAL - NORTH VALLEY", "address": "455 PLUMAS BLVD", "lat": 39.1320368, "lon": -121.6133067}, "050767": {"hospital_name": "KAISER FOUNDATION HOSPITAL - VACAVILLE", "address": "1 QUALITY DRIVE", "lat": 42.2569195, "lon": -83.1357154}, "050769": {"hospital_name": "HOAG ORTHOPEDIC INSTITUTE", "address": "16250 SAND CANYON AVENUE", "lat": 33.6884346, "lon": -117.7475933}, "050770": {"hospital_name": "LOMA LINDA UNIVERSITY MEDICAL CENTER-MURRIETA", "address": "28062 BAXTER ROAD", "lat": 39.2127608, "lon": -120.7815861}, "050771": {"hospital_name": "COAST PLAZA HOSPITAL", "address": "13100 STUDERBAKER ROAD", "lat": -999, "lon": -999}, "050772": {"hospital_name": "KAISER FOUNDATION HOSPITAL - ROSEVILLE", "address": "1600 EUREKA ROAD", "lat": 38.4956399, "lon": -90.6252347}, "050775": {"hospital_name": "TEMECULA VALLEY HOSPITAL", "address": "31700 TEMECULA PKWY", "lat": 33.4810738, "lon": -117.10616979081323}, "050776": {"hospital_name": "COLLEGE MEDICAL CENTER", "address": "2776 PACIFIC AVENUE", "lat": 40.17538073128231, "lon": -74.07503137640036}, "050777": {"hospital_name": "KAISER FOUNDATION HOSPITAL - SAN LEANDRO", "address": "2500 MERCED STREET", "lat": 37.517818, "lon": -120.437918}, "050778": {"hospital_name": "LOMA LINDA UNIVERSITY CHILDREN'S HOSPITAL", "address": "11234 ANDERSON STREET SUITE A", "lat": -999, "lon": -999}, "050779": {"hospital_name": "MARTIN LUTHER KING, JR. COMMUNITY HOSPITAL", "address": "1680 EAST 120TH STREET", "lat": 33.92289615, "lon": -118.24269392395072}, "050780": {"hospital_name": "FOOTHILL REGIONAL MEDICAL CENTER", "address": "14662 NEWPORT AVE", "lat": 41.497966, "lon": -71.309524}, "050782": {"hospital_name": "CASA COLINA HOSPITAL", "address": "255 E BONITA AVE", "lat": 35.25456763636363, "lon": -101.83096072727272}, "050783": {"hospital_name": "COLUSA MEDICAL CENTER", "address": "199 E WEBSTER STREET", "lat": 36.25142490840802, "lon": -86.71623514926758}, "050784": {"hospital_name": "ADVENTIST HEALTH TULARE", "address": "869 NORTH CHERRY STREET", "lat": 36.22040314097195, "lon": -119.33748776988766}, "051300": {"hospital_name": "EASTERN PLUMAS HOSPITAL - PORTOLA CAMPUS", "address": "500 FIRST AVENUE", "lat": 51.5385146, "lon": 0.6786564}, "051301": {"hospital_name": "ADVENTIST HEALTH TEHACHAPI VALLEY", "address": "1100 MAGELLAN", "lat": 29.522981, "lon": -98.367759}, "051302": {"hospital_name": "SOUTHERN INYO HOSPITAL", "address": "501 EAST LOCUST STREET", "lat": 43.220318, "lon": -75.442377}, "051303": {"hospital_name": "MAMMOTH HOSPITAL", "address": "85 SIERRA PARK ROAD PO BOX 660", "lat": -999, "lon": -999}, "051304": {"hospital_name": "JOHN C FREMONT HEALTHCARE DISTRICT", "address": "5189 HOSPITAL ROAD", "lat": 14.0085911, "lon": -60.9959987}, "051305": {"hospital_name": "MAYERS MEMORIAL HOSPITAL", "address": "43563 HWY 299 EAST", "lat": 40.624679, "lon": -122.301056}, "051306": {"hospital_name": "GLENN MEDICAL CENTER", "address": "1133 W SYCAMORE ST", "lat": 40.48628002369095, "lon": -86.14348270713015}, "051307": {"hospital_name": "CATALINA ISLAND MEDICAL CENTER", "address": "100 FALLS CANYON ROAD", "lat": 33.339157400000005, "lon": -118.33076763101307}, "051308": {"hospital_name": "SURPRISE VALLEY COMMUNITY HOSPITAL", "address": "741 NORTH MAIN STREET", "lat": 40.7358061, "lon": -73.4462061}, "051309": {"hospital_name": "JEROLD PHELPS COMMUNITY HOSPITAL", "address": "733 CEDAR ST", "lat": 41.77282, "lon": -91.12851471111111}, "051310": {"hospital_name": "ADVENTIST HEALTH HOWARD MEMORIAL", "address": "1 MARCELA DR", "lat": 35.285241, "lon": -81.16344}, "051311": {"hospital_name": "ORCHARD HOSPITAL", "address": "240 SPRUCE STREET", "lat": 38.02524759183674, "lon": -78.47102734693877}, "051312": {"hospital_name": "MOUNTAINS COMMUNITY HOSPITAL", "address": "29101 HOSPITAL ROAD", "lat": 14.0085911, "lon": -60.9959987}, "051314": {"hospital_name": "KERN VALLEY HEALTHCARE DISTRICT", "address": "6412 LAUREL AVE", "lat": 37.7961327, "lon": -122.203319}, "051315": {"hospital_name": "TRINITY HOSPITAL", "address": "60 EASTER AVENUE", "lat": 40.73820365, "lon": -122.93979236596918}, "051316": {"hospital_name": "FAIRCHILD MEDICAL CENTER", "address": "444 BRUCE STREET", "lat": 55.9256024, "lon": -3.2150191}, "051317": {"hospital_name": "ADVENTIST HEALTH CLEARLAKE", "address": "15630 18TH AVE - HWY 53", "lat": -25.719014, "lon": 28.2183831}, "051318": {"hospital_name": "REDWOOD MEMORIAL HOSPITAL", "address": "3300 RENNER DRIVE", "lat": 40.58164295, "lon": -124.13631254438337}, "051319": {"hospital_name": "MERCY MEDICAL CENTER MT SHASTA", "address": "914 PINE STREET", "lat": 46.2798168, "lon": -92.6611715}, "051320": {"hospital_name": "BANNER LASSEN MEDICAL CENTER", "address": "1800 SPRING RIDGE DRIVE", "lat": 34.533208399640266, "lon": -92.3871915077499}, "051321": {"hospital_name": "HEALDSBURG DISTRICT HOSPITAL", "address": "1375 UNIVERSITY AVENUE", "lat": 34.3648976, "lon": -89.5309401}, "051323": {"hospital_name": "COLORADO RIVER MEDICAL CENTER", "address": "1401 BAILEY AVE", "lat": 40.8655424, "lon": -73.9084821}, "051324": {"hospital_name": "NORTHERN INYO HOSPITAL", "address": "150 PIONEER LANE", "lat": 27.934897028571427, "lon": -82.22557611428572}, "051325": {"hospital_name": "MENDOCINO COAST DISTRICT HOSPITAL", "address": "700 RIVER DRIVE", "lat": 51.1392026, "lon": 1.2814413}, "051326": {"hospital_name": "PLUMAS DISTRICT HOSPITAL", "address": "1065 BUCKS LAKE ROAD", "lat": 39.9398008, "lon": -120.96153293140262}, "051327": {"hospital_name": "SENECA DISTRICT HOSPITAL", "address": "130 BRENTWOOD DRIVE", "lat": 42.152471292273134, "lon": -88.04729592070044}, "051328": {"hospital_name": "TAHOE FOREST HOSPITAL", "address": "10121 PINE AVE", "lat": 46.3400632, "lon": -92.5884177}, "051329": {"hospital_name": "SUTTER LAKESIDE HOSPITAL", "address": "5176 HILL ROAD EAST", "lat": 39.10482185, "lon": -122.90645570108993}, "051330": {"hospital_name": "MODOC MEDICAL CENTER", "address": "228 W MCDOWELL AVE", "lat": 41.4801377, "lon": -120.5453854}, "051331": {"hospital_name": "SANTA YNEZ VALLEY COTTAGE HOSPITAL", "address": "2050 VIBORG RD", "lat": 34.60202715, "lon": -120.12590678163124}, "051332": {"hospital_name": "MARK TWAIN MEDICAL CENTER", "address": "768 MOUNTAIN RANCH RD", "lat": 38.1902534, "lon": -120.67023736556023}, "051333": {"hospital_name": "RIDGECREST REGIONAL HOSPITAL", "address": "1081 NORTH CHINA LAKE BLVD", "lat": 35.641292449999995, "lon": -117.67114969002662}, "051334": {"hospital_name": "OJAI VALLEY COMMUNITY HOSPITAL", "address": "1306 MARICOPA HWY", "lat": 35.0583582, "lon": -119.3942259}, "051335": {"hospital_name": "BEAR VALLEY COMMUNITY HOSPITAL", "address": "41870 GARSTIN DR", "lat": 34.24649945, "lon": -116.88863961779208}, "051336": {"hospital_name": "GEORGE L MEE MEMORIAL HOSPITAL", "address": "300 CANAL STREET", "lat": 40.34923050091569, "lon": -76.41569945513137}, "051337": {"hospital_name": "HAZEL HAWKINS MEMORIAL HOSPITAL", "address": "911 SUNSET DRIVE", "lat": 40.763164, "lon": -82.4820929948981}, "052031": {"hospital_name": "BARLOW RESPIRATORY HOSPITAL", "address": "2000 STADIUM WAY", "lat": 51.5568985, "lon": -0.2855722}, "052032": {"hospital_name": "KINDRED HOSPITAL - LOS ANGELES", "address": "5525  W SLAUSON AVENUE", "lat": 33.9891838, "lon": -118.2795085}, "052033": {"hospital_name": "VIBRA HOSPITAL OF SACRAMENTO", "address": "330 MONTROSE DRIVE", "lat": -29.5783761, "lon": 30.3378688}, "052034": {"hospital_name": "KINDRED HOSPITAL - SAN FRANCISCO BAY AREA", "address": "2800 BENEDICT DRIVE", "lat": 37.716703300000006, "lon": -122.13080865946188}, "052035": {"hospital_name": "KINDRED HOSPITAL WESTMINSTER", "address": "200 HOSPITAL CIRCLE", "lat": 36.297105, "lon": -88.308984}, "052036": {"hospital_name": "KINDRED HOSPITAL - SAN DIEGO", "address": "1940 EL CAJON BLVD", "lat": 32.7890008, "lon": -116.9734471}, "052037": {"hospital_name": "KINDRED HOSPITAL ONTARIO", "address": "550 NORTH MONTEREY", "lat": 44.03041828571428, "lon": -85.02734383673469}, "052038": {"hospital_name": "KINDRED HOSPITAL -- LA MIRADA", "address": "14900 E IMPERIAL HWY", "lat": 33.917361, "lon": -117.9924273}, "052039": {"hospital_name": "KINDRED HOSPITAL BREA", "address": "875 N BREA BLVD", "lat": 33.9349157, "lon": -117.89386520607448}, "052043": {"hospital_name": "KENTFIELD HOSPITAL", "address": "1125 SIR FRANCIS DRAKE BLVD", "lat": 38.0964908, "lon": -122.8516038}, "052044": {"hospital_name": "VIBRA HOSPITAL OF SAN DIEGO", "address": "555 WASHINGTON STREET", "lat": 41.28946361244637, "lon": -91.55556533008676}, "052045": {"hospital_name": "KINDRED HOSPITAL BALDWIN PARK", "address": "14148 FRANCISQUITO AVENUE", "lat": 34.06255465, "lon": -117.96774447903846}, "052046": {"hospital_name": "KINDRED HOSPITAL PARAMOUNT", "address": "16453  COLORADO AVENUE", "lat": 40.007311, "lon": -105.2459371}, "052047": {"hospital_name": "VIBRA HOSPITAL OF NORTHERN CALIFORNIA", "address": "2801 EUREKA WAY", "lat": 40.585120200000006, "lon": -122.41373435917106}, "052049": {"hospital_name": "KINDRED HOSPITAL RANCHO", "address": "10841 WHITE OAK AVENUE", "lat": 41.422157046942296, "lon": -87.48929496695492}, "052050": {"hospital_name": "KINDRED HOSPITAL SOUTH BAY", "address": "1246 WEST 155TH STREET", "lat": 33.890009, "lon": -118.29742513416963}, "052052": {"hospital_name": "KINDRED HOSPITAL RIVERSIDE", "address": "2224 MEDICAL CENTER DRIVE", "lat": 34.13693187699713, "lon": -117.32247261441061}, "052054": {"hospital_name": "MONROVIA MEMORIAL HOSPITAL", "address": "323 SOUTH HELIOTROPE AVENUE", "lat": 34.14859495, "lon": -117.99258484718483}, "052055": {"hospital_name": "CENTRAL VALLEY SPECIALTY HOSPITAL", "address": "730 17TH STREET", "lat": -26.2027031, "lon": 28.1047487}, "052057": {"hospital_name": "SONOMA SPECIALTY HOSPITAL", "address": "501 PETALUMA AVENUE", "lat": 38.397187349999996, "lon": -122.81931198673055}, "053300": {"hospital_name": "VALLEY CHILDREN'S HOSPITAL", "address": "9300 VALLEY CHILDRENS PLACE", "lat": 36.8839332, "lon": -119.8011825580725}, "053301": {"hospital_name": "UCSF BENIOFF CHILDREN'S HOSPITAL OAKLAND", "address": "747 52ND STREET", "lat": -23.8443202, "lon": 29.3943608}, "053302": {"hospital_name": "CHILDREN'S HOSP OF LOS ANGELES", "address": "4650 SUNSET BLVD, MS 108", "lat": 31.5618871, "lon": -91.3747372}, "053303": {"hospital_name": "RADY CHILDREN'S HOSPITAL - SAN DIEGO", "address": "3020 CHILDRENS WAY", "lat": 32.798230399999994, "lon": -117.15211336905435}, "053304": {"hospital_name": "CHILDREN'S HOSPITAL OF ORANGE COUNTY", "address": "1201 W LA VETA AVE", "lat": 33.7809052, "lon": -117.86608986474641}, "053305": {"hospital_name": "LUCILE SALTER PACKARD CHILDREN'S HSP AT STANFORD", "address": "725 WELCH ROAD", "lat": 50.7846534, "lon": -1.075041}, "053306": {"hospital_name": "CHILDREN'S HOSPITAL AT MISSION", "address": "27700 MEDICAL CENTER RD, 5TH FLOOR", "lat": 41.23967014285714, "lon": -81.68592385714285}, "053308": {"hospital_name": "HEALTHBRIDGE CHILDREN'S HOSPITAL - ORANGE", "address": "393 S TUSTIN STREET", "lat": 33.78304425, "lon": -117.8349555145858}, "053309": {"hospital_name": "MEMORIAL CARE MILLER CHILDREN'S &  WOMEN'S HOSP LB", "address": "2801 ATLANTIC AVENUE", "lat": 54.7238932, "lon": -6.226415}, "053311": {"hospital_name": "SHRINERS HOSPITALS FOR CHILDREN NORTHERN CALIF", "address": "2425 STOCKTON BOULEVARD", "lat": 38.5034421, "lon": -121.4326487}, "05T485": {"hospital_name": "MEMORIACARE LONG BEACH MEDICAL CENTER", "address": "2801 ATLANTIC AVENUE", "lat": 54.7238932, "lon": -6.226415}, "060001": {"hospital_name": "NORTH COLORADO MEDICAL CENTER", "address": "1801 - 16TH ST", "lat": 43.585764, "lon": -83.874952}, "060003": {"hospital_name": "LONGMONT UNITED HOSPITAL", "address": "1950 MOUNTAIN VIEW AVE", "lat": 37.3874396, "lon": -122.089736}, "060004": {"hospital_name": "PLATTE VALLEY MEDICAL CENTER", "address": "1600 PRAIRIE CENTER PKWY", "lat": 39.964003000000005, "lon": -104.76888807654464}, "060006": {"hospital_name": "MONTROSE MEMORIAL HOSPITAL", "address": "800 S 3RD ST", "lat": 44.974986, "lon": -93.255109}, "060008": {"hospital_name": "SAN LUIS VALLEY HEALTH", "address": "106 BLANCA AVE", "lat": 37.47177575, "lon": -105.8824422841815}, "060009": {"hospital_name": "LUTHERAN MEDICAL CENTER", "address": "8300 W 38TH AVE", "lat": 39.7694611, "lon": -105.0399303}, "060010": {"hospital_name": "POUDRE VALLEY HOSPITAL", "address": "1024 S LEMAY AVE", "lat": 40.5719165, "lon": -105.05636311850762}, "060011": {"hospital_name": "DENVER HEALTH MEDICAL CENTER", "address": "777 BANNOCK ST", "lat": 39.72731935, "lon": -104.99119835138615}, "060012": {"hospital_name": "CENTURA HEALTH-ST MARY CORWIN MEDICAL CENTER", "address": "1008 MINNEQUA AVE", "lat": 38.234342600000005, "lon": -104.62295518831019}, "060013": {"hospital_name": "MERCY REGIONAL MEDICAL CENTER", "address": "1010 THREE SPRINGS BLVD", "lat": 37.235971000000006, "lon": -107.82590421381526}, "060014": {"hospital_name": "PRESBYTERIAN ST LUKE'S MEDICAL CENTER", "address": "1719 E 19TH AVE", "lat": 41.58346513322674, "lon": -87.316462096192}, "060015": {"hospital_name": "CENTURA HEALTH-ST ANTHONY HOSPITAL", "address": "11600 W 2ND PL", "lat": 39.7144552, "lon": -105.12949034818877}, "060020": {"hospital_name": "PARKVIEW MEDICAL CENTER, INC", "address": "400 W 16TH ST", "lat": 37.299845, "lon": -120.482591}, "060022": {"hospital_name": "UNIVERSITY COLO HEALTH MEMORIAL HOSPITAL CENTRAL", "address": "1400 E BOULDER ST", "lat": 38.8393776, "lon": -104.799593}, "060023": {"hospital_name": "ST MARYS MEDICAL CENTER", "address": "2635 N 7TH ST", "lat": 40.7177999, "lon": -73.9576688}, "060024": {"hospital_name": "UNIVERSITY OF COLORADO HOSPITAL AUTHORITY", "address": "12605 E 16TH AVE", "lat": 41.5869159, "lon": -87.3326944}, "060027": {"hospital_name": "FOOTHILLS HOSPITAL", "address": "4747 ARAPAHOE AVE", "lat": 30.2537027, "lon": -81.6987028}, "060028": {"hospital_name": "SAINT JOSEPH HOSPITAL", "address": "1375 E 19TH AVE", "lat": 41.583794952821336, "lon": -87.3204367307866}, "060030": {"hospital_name": "MCKEE MEDICAL CENTER", "address": "2000 BOISE AVE", "lat": 37.603087483877495, "lon": -121.00702751855991}, "060031": {"hospital_name": "CENTURA HEALTH-PENROSE-ST FRANCIS HEALTH SERVICES", "address": "6001 EAST WOODMEN ROAD", "lat": 38.9327408, "lon": -104.7967309}, "060032": {"hospital_name": "ROSE MEDICAL CENTER", "address": "4567 E 9TH AVE", "lat": 30.460118, "lon": -84.2702361}, "060034": {"hospital_name": "SWEDISH MEDICAL CENTER", "address": "501 E HAMPDEN AVE", "lat": 39.6542801, "lon": -104.98121539103656}, "060044": {"hospital_name": "COLORADO PLAINS MEDICAL CENTER", "address": "1000 LINCOLN ST", "lat": 43.179513, "lon": -99.28921}, "060049": {"hospital_name": "UCHEALTH YAMPA VALLEY MEDICAL CENTER", "address": "1024 CENTRAL PARK DR", "lat": 28.801779150175463, "lon": -81.3162382472364}, "060054": {"hospital_name": "COMMUNITY HOSPITAL", "address": "2351 'G' RD", "lat": 41.538144, "lon": -74.316036}, "060064": {"hospital_name": "CENTURA HEALTH-PORTER ADVENTIST HOSPITAL", "address": "2525 S DOWNING ST", "lat": 39.6699704, "lon": -104.97588317820552}, "060065": {"hospital_name": "NORTH SUBURBAN MEDICAL CENTER", "address": "9191 GRANT ST", "lat": 46.0345256, "lon": -96.098395}, "060071": {"hospital_name": "DELTA COUNTY MEMORIAL HOSPITAL", "address": "1501 E 3RD ST", "lat": 34.20055948678954, "lon": -119.16317598419565}, "060075": {"hospital_name": "VALLEY VIEW HOSPITAL ASSOCIATION", "address": "1906 BLAKE AVE", "lat": 51.5334754, "lon": 0.0949569}, "060076": {"hospital_name": "STERLING REGIONAL MEDCENTER", "address": "615 FAIRHURST ST", "lat": 40.61243945, "lon": -103.22063148603684}, "060096": {"hospital_name": "VAIL HEALTH HOSPITAL", "address": "181 W MEADOW DR", "lat": 39.64347535, "lon": -106.38232672907262}, "060100": {"hospital_name": "MEDICAL CENTER OF AURORA, THE", "address": "1501 S POTOMAC ST", "lat": 39.69024745, "lon": -104.83214374884406}, "060103": {"hospital_name": "CENTURA HEALTH-AVISTA ADVENTIST HOSPITAL", "address": "100 HEALTH PARK DR", "lat": 39.951636300000004, "lon": -105.15189102208683}, "060104": {"hospital_name": "ST ANTHONY NORTH HEALTH CAMPUS", "address": "14300 ORCHARD PKWY", "lat": 39.9554252, "lon": -104.9913966608369}, "060107": {"hospital_name": "NATIONAL JEWISH HEALTH", "address": "1400 JACKSON ST", "lat": 35.6217602, "lon": -88.8119303}, "060112": {"hospital_name": "SKY RIDGE MEDICAL CENTER", "address": "10101 RIDGEGATE PKWY", "lat": 39.528924, "lon": -104.87121250207079}, "060113": {"hospital_name": "CENTURA HEALTH-LITTLETON ADVENTIST HOSPITAL", "address": "7700 S BROADWAY", "lat": 38.546416, "lon": -90.2586544511301}, "060114": {"hospital_name": "PARKER ADVENTIST HOSPITAL", "address": "9395 CROWN CREST BLVD", "lat": 39.548590149999995, "lon": -104.76909222943029}, "060116": {"hospital_name": "GOOD SAMARITAN MEDICAL CENTER", "address": "200 EXEMPLA CIR", "lat": 39.96976445, "lon": -105.08660463304719}, "060117": {"hospital_name": "ANIMAS SURGICAL HOSPITAL, LLC", "address": "575 RIVERGATE LN", "lat": 37.24810375, "lon": -107.87086202862446}, "060118": {"hospital_name": "ST ANTHONY SUMMIT MEDICAL CENTER", "address": "340 PEAK ONE DR", "lat": 39.569978649999996, "lon": -106.07682552978616}, "060119": {"hospital_name": "MEDICAL CENTER OF THE ROCKIES", "address": "2500 ROCKY MOUNTAIN AVE", "lat": 40.415419799999995, "lon": -104.9974664214923}, "060124": {"hospital_name": "ORTHOCOLORADO HOSPITAL AT ST ANTHONY MED CAMPUS", "address": "11650 W 2ND PL", "lat": 39.717096, "lon": -105.12920259365032}, "060125": {"hospital_name": "CASTLE ROCK ADVENTIST HOSPITAL", "address": "2350 MEADOWS BLVD", "lat": 39.40534985, "lon": -104.88384714663559}, "060126": {"hospital_name": "BANNER FORT COLLINS MEDICAL CENTER", "address": "4700 LADY MOON DR", "lat": 40.521082, "lon": -105.0091269923357}, "060128": {"hospital_name": "LONGS PEAK HOSPITAL", "address": "1750 E KEN PRATT BLVD", "lat": 40.16077317210916, "lon": -105.02169169328748}, "060129": {"hospital_name": "UCHEALTH BROOMFIELD HOSPITAL", "address": "11820 DESTINATION DR", "lat": 39.91038845, "lon": -105.09144960911036}, "060130": {"hospital_name": "UCHEALTH GRANDVIEW HOSPITAL", "address": "5623 PULPIT PEAK VIEW", "lat": 38.9108255, "lon": -104.81710173320047}, "060131": {"hospital_name": "UCHEALTH GREELEY HOSPITAL", "address": "6767 W 29TH ST", "lat": 39.3206964, "lon": -76.6271043}, "060132": {"hospital_name": "UCHEALTH HIGHLANDS RANCH HOSPITAL", "address": "1500 PARK CENTRAL DR", "lat": 39.5523953, "lon": -105.00585026799914}, "061300": {"hospital_name": "WEISBROD MEMORIAL COUNTY HOSPITAL", "address": "1208 LUTHER ST", "lat": 52.1151639, "lon": 11.5997602}, "061301": {"hospital_name": "RIO GRANDE HOSPITAL", "address": "310 COUNTY ROAD 14", "lat": 40.75408566666667, "lon": -102.5550651124498}, "061302": {"hospital_name": "COLORADO CANYONS HOSPITAL AND MEDICAL CENTER", "address": "300 W OTTLEY AVE", "lat": 39.163757849999996, "lon": -108.7371512215622}, "061303": {"hospital_name": "EAST MORGAN COUNTY HOSPITAL", "address": "2400 W EDISON ST", "lat": 36.16118239393939, "lon": -96.01902635353537}, "061304": {"hospital_name": "HAXTUN HOSPITAL DISTRICT", "address": "235 W FLETCHER ST", "lat": 40.6418534, "lon": -102.631334325}, "061305": {"hospital_name": "MELISSA MEMORIAL HOSPITAL", "address": "1001 E JOHNSON ST", "lat": 31.074099091836736, "lon": -84.09252789795919}, "061306": {"hospital_name": "LINCOLN COMMUNITY HOSPITAL", "address": "111 6TH ST", "lat": 13.0475422, "lon": 80.2549922}, "061307": {"hospital_name": "RANGELY DISTRICT HOSPITAL", "address": "225 EAGLE CREST ST", "lat": 36.291884, "lon": -115.262436}, "061308": {"hospital_name": "SAN LUIS VALLEY HEALTH CONEJOS COUNTY HOSPITAL", "address": "19021 US HIGHWAY 285", "lat": 38.2490466, "lon": -105.9494039}, "061309": {"hospital_name": "WRAY COMMUNITY DISTRICT HOSPITAL", "address": "1017 W 7TH ST", "lat": 37.084272734693876, "lon": -94.52448320408163}, "061310": {"hospital_name": "SEDGWICK COUNTY MEMORIAL HOSPITAL", "address": "900 CEDAR ST", "lat": 41.774769, "lon": -91.128286}, "061311": {"hospital_name": "SOUTHEAST COLORADO HOSPITAL", "address": "373 E TENTH AVE", "lat": 33.1153299122294, "lon": -117.07212857319931}, "061312": {"hospital_name": "ESTES PARK MEDICAL CENTER", "address": "555 PROSPECT AVE", "lat": 26.619563702771742, "lon": -81.63759102502253}, "061313": {"hospital_name": "KIT CARSON COUNTY MEMORIAL HOSPITAL", "address": "286 16TH ST", "lat": 43.58576659183674, "lon": -83.89199240816326}, "061314": {"hospital_name": "MEMORIAL HOSPITAL, THE", "address": "750 HOSPITAL LOOP", "lat": 40.5183896, "lon": -107.57995637709541}, "061315": {"hospital_name": "YUMA DISTRICT HOSPITAL", "address": "1000 W 8TH AVE", "lat": 47.6483871, "lon": -117.414813}, "061316": {"hospital_name": "SPANISH PEAKS REGIONAL HEALTH CENTER", "address": "23500 US HWY 160", "lat": 37.1999051, "lon": -104.4684142}, "061317": {"hospital_name": "GRAND RIVER MEDICAL CENTER", "address": "501 AIRPORT RD", "lat": -23.9341942, "lon": 29.4735141}, "061318": {"hospital_name": "MIDDLE PARK MEDICAL CENTER", "address": "214 SOUTH 4TH STREET", "lat": 44.978564428571424, "lon": -93.26671357142857}, "061319": {"hospital_name": "ST VINCENT GENERAL HOSPITAL DISTRICT", "address": "822 W 4TH ST", "lat": 40.606053122448984, "lon": -74.43315267346938}, "061320": {"hospital_name": "GUNNISON VALLEY HOSPITAL", "address": "711 NORTH TAYLOR ST", "lat": 35.38302003740647, "lon": -77.96518157391522}, "061321": {"hospital_name": "MT SAN RAFAEL HOSPITAL", "address": "410 BENEDICTA AVE", "lat": 37.1737698, "lon": -104.48761271553875}, "061322": {"hospital_name": "HEART OF THE ROCKIES REGIONAL MEDICAL CENTER", "address": "1000 RUSH DR", "lat": 43.6912521, "lon": -79.5174782}, "061323": {"hospital_name": "PROWERS MEDICAL CENTER", "address": "401 KENDALL DR", "lat": 33.890763, "lon": -81.539343}, "061324": {"hospital_name": "ASPEN VALLEY HOSPITAL", "address": "401 CASTLE CREEK RD", "lat": 39.190596150000005, "lon": -106.83936305920894}, "061325": {"hospital_name": "PIONEERS MEDICAL CENTER", "address": "100 PIONEERS MEDICAL CENTER DR", "lat": 40.04635295, "lon": -107.88137273731118}, "061326": {"hospital_name": "UCHEALTH PIKES PEAK REGIONAL HOSPITAL", "address": "16420 W US HIGHWAY 24", "lat": 38.923393, "lon": -106.18222},