{"010001": {"hospital_name": "SOUTHEAST HEALTH MEDICAL CENTER", "address": "1108 ROSS CLARK CIRCLE", "lat": 31.2162886, "lon": -85.3633}, "010005": {"hospital_name": "MARSHALL MEDICAL CENTERS SOUTH CAMPUS", "address": "2505 U S HIGHWAY 431 NORTH", "lat": 34.22165000000007, "lon": -86.16004999999996}, "010006": {"hospital_name": "NORTH ALABAMA MEDICAL CENTER", "address": "1701 VETERANS DRIVE", "lat": 34.80438000000004, "lon": -87.65103999999997}, "010007": {"hospital_name": "MIZELL MEMORIAL HOSPITAL", "address": "702 N MAIN ST", "lat": 31.29215000000005, "lon": -86.25508999999994}, "010008": {"hospital_name": "CRENSHAW COMMUNITY HOSPITAL", "address": "101 HOSPITAL CIRCLE", "lat": 31.693350000000066, "lon": -86.26508999999999}, "010011": {"hospital_name": "ST VINCENT'S EAST", "address": "50 MEDICAL PARK EAST DRIVE", "lat": 33.59567000000004, "lon": -86.66766999999999}, "010012": {"hospital_name": "DEKALB REGIONAL MEDICAL CENTER", "address": "200 MED CENTER DRIVE", "lat": 34.44091000000003, "lon": -85.75602999999995}, "010016": {"hospital_name": "SHELBY BAPTIST MEDICAL CENTER", "address": "1000 FIRST STREET NORTH", "lat": 33.25210000000004, "lon": -86.81358999999998}, "010019": {"hospital_name": "HELEN KELLER MEMORIAL HOSPITAL", "address": "1300 SOUTH MONTGOMERY AVENUE", "lat": 37.91938000000005, "lon": -89.81138999999996}, "010021": {"hospital_name": "DALE MEDICAL CENTER", "address": "126 HOSPITAL AVE", "lat": 31.451820000000055, "lon": -85.63108999999997}, "010022": {"hospital_name": "FLOYD CHEROKEE MEDICAL CENTER", "address": "400 NORTHWOOD DR", "lat": 34.16196000000008, "lon": -85.65142999999995}, "010023": {"hospital_name": "BAPTIST MEDICAL CENTER SOUTH", "address": "2105 EAST SOUTH BOULEVARD", "lat": 30.138460000000066, "lon": -81.53444999999994}, "010024": {"hospital_name": "JACKSON HOSPITAL & CLINIC INC", "address": "1725 PINE STREET", "lat": 32.367020000000025, "lon": -86.28381999999993}, "010029": {"hospital_name": "EAST ALABAMA MEDICAL CENTER", "address": "2000 PEPPERELL PARKWAY", "lat": 33.84373574874685, "lon": -87.23759851867277}, "010033": {"hospital_name": "UNIVERSITY OF ALABAMA HOSPITAL", "address": "619 SOUTH 19TH STREET", "lat": 33.20521000000008, "lon": -87.52544999999998}, "010034": {"hospital_name": "COMMUNITY HOSPITAL INC", "address": "805 FRIENDSHIP ROAD", "lat": 32.53430000000003, "lon": -85.91221999999999}, "010035": {"hospital_name": "CULLMAN REGIONAL MEDICAL CENTER", "address": "1912 ALABAMA HIGHWAY 157", "lat": 34.20098000000007, "lon": -86.80504999999994}, "010036": {"hospital_name": "ANDALUSIA HEALTH", "address": "849 SOUTH THREE NOTCH STREET", "lat": 31.296290000000056, "lon": -86.49482999999998}, "010038": {"hospital_name": "STRINGFELLOW MEMORIAL HOSPITAL", "address": "301 EAST 18TH ST", "lat": 33.66769000000005, "lon": -85.82383999999996}, "010039": {"hospital_name": "HUNTSVILLE HOSPITAL", "address": "101 SIVLEY RD", "lat": 34.72105000000005, "lon": -86.58179999999999}, "010040": {"hospital_name": "GADSDEN REGIONAL MEDICAL CENTER", "address": "1007 GOODYEAR AVENUE", "lat": 34.008290000000045, "lon": -85.96628999999996}, "010044": {"hospital_name": "MARION REGIONAL MEDICAL CENTER", "address": "1256 MILITARY STREET SOUTH", "lat": 34.95098000000007, "lon": -120.41321999999997}, "010045": {"hospital_name": "FAYETTE MEDICAL CENTER", "address": "1653 TEMPLE AVENUE NORTH", "lat": 33.70798000000008, "lon": -87.82412999999997}, "010046": {"hospital_name": "RIVERVIEW REGIONAL MEDICAL CENTER", "address": "600 SOUTH THIRD STREET", "lat": 36.26480000000004, "lon": -85.94985999999994}, "010049": {"hospital_name": "MEDICAL CENTER ENTERPRISE", "address": "400 N EDWARDS STREET", "lat": 31.318740000000048, "lon": -85.85514999999998}, "010051": {"hospital_name": "GREENE COUNTY HOSPITAL", "address": "509 WILSON AVENUE", "lat": 33.48141000000004, "lon": -83.24155999999994}, "010052": {"hospital_name": "LAKE MARTIN COMMUNITY HOSPITAL", "address": "201 MARIARDEN ROAD", "lat": 41.550490000000025, "lon": -87.50665999999995}, "010055": {"hospital_name": "FLOWERS HOSPITAL", "address": "4370 WEST MAIN STREET", "lat": 31.23810000000003, "lon": -85.45710999999994}, "010056": {"hospital_name": "ST VINCENT'S BIRMINGHAM", "address": "810 ST VINCENT'S DRIVE", "lat": 33.50781000000006, "lon": -86.78885999999994}, "010058": {"hospital_name": "BIBB MEDICAL CENTER", "address": "208 PIERSON AVE", "lat": 32.95120000000003, "lon": -87.14803999999998}, "010059": {"hospital_name": "LAWRENCE MEDICAL CENTER", "address": "202 HOSPITAL STREET", "lat": 34.48299000000003, "lon": -87.28548999999998}, "010061": {"hospital_name": "HIGHLANDS MEDICAL CENTER", "address": "380 WOODS COVE ROAD", "lat": 34.66178000000008, "lon": -86.04741999999999}, "010062": {"hospital_name": "WIREGRASS MEDICAL CENTER", "address": "1200 W MAPLE AVENUE", "lat": 31.04902000000004, "lon": -85.89127999999994}, "010065": {"hospital_name": "RUSSELL MEDICAL CENTER", "address": "3316 HIGHWAY 280", "lat": 32.93009032042817, "lon": -85.96950609887294}, "010069": {"hospital_name": "MEDICAL CENTER BARBOUR", "address": "820 W WASHINGTON ST", "lat": 31.88871000000006, "lon": -85.15616999999997}, "010073": {"hospital_name": "CLAY COUNTY HOSPITAL", "address": "83825 HIGHWAY 9    P O BOX 1270", "lat": 33.27705000000003, "lon": -85.82373999999999}, "010078": {"hospital_name": "NORTHEAST ALABAMA REGIONAL MEDICAL CENTER", "address": "400 EAST 10TH STREET", "lat": 33.20521000000008, "lon": -87.52544999999998}, "010079": {"hospital_name": "ATHENS LIMESTONE HOSPITAL", "address": "700 WEST MARKET STREET", "lat": 34.803870000000074, "lon": -86.97898999999995}, "010083": {"hospital_name": "SOUTH BALDWIN REGIONAL MEDICAL CENTER", "address": "1613 NORTH MCKENZIE STREET", "lat": 30.425790000000063, "lon": -87.68441999999999}, "010085": {"hospital_name": "DECATUR MORGAN HOSPITAL-DECATUR CAMPUS", "address": "1201 7TH STREET SE", "lat": 34.590621000000056, "lon": -86.97248899999994}, "010086": {"hospital_name": "NORTHWEST MEDICAL CENTER", "address": "1530 U S HIGHWAY 43", "lat": 33.930240000000026, "lon": -87.82442999999995}, "010087": {"hospital_name": "USA HEALTH UNIVERSITY HOSPITAL", "address": "2451 FILLINGIM STREET", "lat": 41.39463400000005, "lon": -81.53477999999996}, "010089": {"hospital_name": "WALKER BAPTIST MEDICAL CENTER", "address": "3400 HIGHWAY 78 EAST", "lat": 33.842130000000054, "lon": -87.23572999999999}, "010090": {"hospital_name": "PROVIDENCE HOSPITAL", "address": "6801 AIRPORT BOULEVARD", "lat": 38.9445417, "lon": -76.9934068}, "010091": {"hospital_name": "GROVE HILL MEMORIAL HOSPITAL", "address": "295 JACKSON HWY S", "lat": 31.69423000000006, "lon": -87.77624999999995}, "010092": {"hospital_name": "DCH REGIONAL MEDICAL CENTER", "address": "809 UNIVERSITY BOULEVARD EAST", "lat": 33.20521000000008, "lon": -87.52544999999998}, "010095": {"hospital_name": "HALE COUNTY HOSPITAL", "address": "508 GREEN STREET", "lat": 32.695160000000044, "lon": -87.58691999999996}, "010097": {"hospital_name": "ELMORE COMMUNITY HOSPITAL", "address": "500 HOSPITAL DRIVE", "lat": 32.55211000000003, "lon": -86.18619999999999}, "010099": {"hospital_name": "D W MCMILLAN MEMORIAL HOSPITAL", "address": "1301 BELLEVILLE AVENUE", "lat": 31.12698000000006, "lon": -87.07297999999997}, "010100": {"hospital_name": "THOMAS HOSPITAL", "address": "750 MORPHY AVENUE", "lat": 30.5190361, "lon": -87.8883517}, "010101": {"hospital_name": "CITIZENS BAPTIST MEDICAL CENTER", "address": "604 STONE AVENUE", "lat": 33.44002000000006, "lon": -86.09087999999997}, "010102": {"hospital_name": "J PAUL JONES HOSPITAL", "address": "317 MCWILLIAMS AVENUE", "lat": 31.9974562, "lon": -87.3001706}, "010103": {"hospital_name": "PRINCETON BAPTIST MEDICAL CENTER", "address": "701 PRINCETON AVENUE SOUTHWEST", "lat": 33.49853000000007, "lon": -86.84631999999993}, "010104": {"hospital_name": "GRANDVIEW MEDICAL CENTER", "address": "3690 GRANDVIEW PARKWAY", "lat": 33.43322000000006, "lon": -86.71771999999999}, "010108": {"hospital_name": "PRATTVILLE BAPTIST HOSPITAL", "address": "124 S MEMORIAL DR", "lat": 32.46411000000006, "lon": -86.45167999999995}, "010110": {"hospital_name": "BULLOCK COUNTY HOSPITAL", "address": "102 WEST CONECUH AVENUE", "lat": 32.14649000000003, "lon": -85.71657999999996}, "010112": {"hospital_name": "WHITFIELD REGIONAL HOSPITAL", "address": "105 HIGHWAY 80 EAST", "lat": 32.50479000000007, "lon": -87.83667999999994}, "010113": {"hospital_name": "MOBILE INFIRMARY MEDICAL CENTER", "address": "5 MOBILE INFIRMARY CIRCLE", "lat": 30.695750000000032, "lon": -88.07933999999995}, "010114": {"hospital_name": "MEDICAL WEST, AN AFFILIATE OF UAB HEALTH SYSTEM", "address": "995 9TH AVENUE SOUTHWEST", "lat": -14.323896656999977, "lon": -170.76852274999996}, "010118": {"hospital_name": "VAUGHAN REGIONAL MEDICAL CENTER PARKWAY CAMPUS", "address": "1015 MEDICAL CENTER PARKWAY", "lat": 32.429500000000075, "lon": -87.05587999999995}, "010120": {"hospital_name": "MONROE COUNTY HOSPITAL", "address": "2016 SOUTH ALABAMA AVENUE", "lat": 33.031630000000064, "lon": -83.94583999999998}, "010125": {"hospital_name": "LAKELAND COMMUNITY HOSPITAL", "address": "42024 HIGHWAY 195 E", "lat": 34.241070000000036, "lon": -87.59133999999995}, "010126": {"hospital_name": "TROY REGIONAL MEDICAL CENTER", "address": "1330 HIGHWAY 231 SOUTH", "lat": 31.781360000000063, "lon": -85.94554999999997}, "010128": {"hospital_name": "JACKSON MEDICAL CENTER", "address": "220 HOSPITAL DRIVE", "lat": 31.53168000000005, "lon": -87.89545999999996}, "010129": {"hospital_name": "NORTH BALDWIN INFIRMARY", "address": "1815 HAND AVENUE", "lat": 30.903640000000053, "lon": -87.78465999999997}, "010130": {"hospital_name": "ST VINCENT'S ST CLAIR", "address": "7063 VETERANS PARKWAY", "lat": 33.41475548034672, "lon": -86.37559315285952}, "010131": {"hospital_name": "CRESTWOOD MEDICAL CENTER", "address": "ONE HOSPITAL DR SE", "lat": 34.692810000000065, "lon": -86.57180999999997}, "010138": {"hospital_name": "HILL HOSPITAL OF SUMTER COUNTY", "address": "751 DERBY DRIVE", "lat": 32.49180000000007, "lon": -88.29552999999999}, "010139": {"hospital_name": "BROOKWOOD BAPTIST MEDICAL CENTER", "address": "2010 BROOKWOOD MEDICAL CENTER DRIVE", "lat": 33.46347000000003, "lon": -86.77667999999994}, "010144": {"hospital_name": "SPRINGHILL MEMORIAL HOSPITAL", "address": "3719 DAUPHIN STREET", "lat": 30.6813237, "lon": -88.1292726}, "010148": {"hospital_name": "EVERGREEN MEDICAL CENTER", "address": "101 CRESTVIEW AVENUE", "lat": 31.43070000000006, "lon": -86.94066999999995}, "010149": {"hospital_name": "BAPTIST MEDICAL CENTER EAST", "address": "400 TAYLOR ROAD", "lat": 32.37620000000004, "lon": -86.17455999999999}, "010150": {"hospital_name": "REGIONAL MEDICAL CENTER OF CENTRAL ALABAMA", "address": "29 L V STABLER DRIVE", "lat": 34.152210000000025, "lon": -85.67976999999996}, "010157": {"hospital_name": "SHOALS HOSPITAL", "address": "201 WEST AVALON AVENUE", "lat": 34.74688000000003, "lon": -87.67629999999997}, "010158": {"hospital_name": "RUSSELLVILLE HOSPITAL", "address": "15155 HIGHWAY 43", "lat": 34.51114000000007, "lon": -87.71803999999997}, "010164": {"hospital_name": "COOSA VALLEY MEDICAL CENTER", "address": "315 W HICKORY ST", "lat": 33.16461000000004, "lon": -86.25503999999995}, "010168": {"hospital_name": "JACK HUGHSTON MEMORIAL HOSPITAL", "address": "4401 RIVER CHASE DRIVE", "lat": 32.50822000000005, "lon": -85.00851999999998}, "010169": {"hospital_name": "ATMORE COMMUNITY HOSPITAL", "address": "401 MEDICAL PARK DRIVE", "lat": 31.016920000000027, "lon": -87.47850999999997}, "010173": {"hospital_name": "ST VINCENT'S CHILTON", "address": "2030 LAY DAM ROAD", "lat": 32.88019216917176, "lon": -86.62308880030247}, "010174": {"hospital_name": "THOMASVILLE REGIONAL MEDICAL CENTER", "address": "300 MED PARK DRIVE", "lat": 35.14260000000007, "lon": -90.03136999999998}, "010175": {"hospital_name": "EAMC - LANIER", "address": "4800 48TH STREET", "lat": 32.13265000000007, "lon": -81.53686999999996}, "011300": {"hospital_name": "WASHINGTON COUNTY HOSPITAL", "address": "14600 ST. STEPHENS AVENUE", "lat": 35.862910000000056, "lon": -76.72933999999998}, "011302": {"hospital_name": "RED BAY HOSPITAL", "address": "211 HOSPITAL ROAD", "lat": 34.457850000000064, "lon": -88.14722999999998}, "011304": {"hospital_name": "CHOCTAW GENERAL HOSPITAL", "address": "401 VANITY FAIR LANE, PO BOX 618", "lat": 32.0929846, "lon": -88.2096758}, "011305": {"hospital_name": "ST VINCENTS BLOUNT", "address": "150 GILBREATH DRIVE", "lat": 33.930060000000026, "lon": -86.49380999999994}, "011306": {"hospital_name": "TANNER MEDICAL CENTER-EAST ALABAMA", "address": "1032 MAIN STREET SOUTH", "lat": 33.295540000000074, "lon": -85.48051999999996}, "012006": {"hospital_name": "INFIRMARY LTAC HOSPITAL", "address": "5 MOBILE INFIRMARY CIRCLE", "lat": 30.69678803470654, "lon": -88.08001887819266}, "012007": {"hospital_name": "NOLAND HOSPITAL MONTGOMERY II, LLC", "address": "1725 PINE STREET 5TH FLOOR NORTH WING", "lat": 32.366930000000025, "lon": -86.28511999999995}, "012008": {"hospital_name": "SELECT SPECIALTY HOSPITAL - BIRMINGHAM", "address": "2010 BROOKWOOD MEDICAL CENTER DRIVE, 3RD FLOOR", "lat": 40.812290000000075, "lon": -81.39693999999997}, "012009": {"hospital_name": "NOLAND HOSPITAL BIRMINGHAM II, LLC", "address": "50 MEDICAL PARK EAST DRIVE 8TH FLOOR", "lat": 40.67532029238462, "lon": -78.25200829640168}, "012010": {"hospital_name": "NOLAND HOSPITAL DOTHAN II, LLC", "address": "1108 ROSS CLARK CIRCLE, 4TH FLOOR", "lat": 37.67437966664783, "lon": -82.27609819229028}, "012011": {"hospital_name": "NOLAND HOSPITAL ANNISTON II, LLC", "address": "400 EAST 10TH STREET, 4TH FLOOR", "lat": 33.65712000000008, "lon": -85.81890999999996}, "012012": {"hospital_name": "NOLAND HOSPITAL TUSCALOOSA II, LLC", "address": "809 UNIVERSITY BOULEVARD EAST, 4TH FLOOR", "lat": 33.233445717361334, "lon": -87.56952538647087}, "012014": {"hospital_name": "NORTH ALABAMA SPECIALTY HOSPITAL", "address": "700 WEST MARKET STREET, 2ND FLOOR", "lat": 33.233445717361334, "lon": -87.56952538647087}, "013300": {"hospital_name": "CHILDREN'S HOSPITAL OF ALABAMA", "address": "1600 SEVENTH AVENUE SOUTH", "lat": 30.697550000000035, "lon": -88.07780999999994}, "013301": {"hospital_name": "USA HEALTH CHILDREN'S & WOMEN'S HOSPITAL", "address": "1700 CENTER STREET", "lat": 30.697550000000035, "lon": -88.07780999999994}, "020001": {"hospital_name": "PROVIDENCE ALASKA MEDICAL CENTER", "address": "3200 PROVIDENCE DRIVE", "lat": 61.1871675, "lon": -149.8194391}, "020006": {"hospital_name": "MAT-SU REGIONAL MEDICAL CENTER", "address": "2500 SOUTH WOODWORTH LOOP", "lat": 61.5627638, "lon": -149.2578912}, "020008": {"hospital_name": "BARTLETT REGIONAL HOSPITAL", "address": "3260 HOSPITAL DR", "lat": 58.3292589, "lon": -134.464983}, "020012": {"hospital_name": "FAIRBANKS MEMORIAL HOSPITAL", "address": "1650 COWLES STREET", "lat": 64.8317323, "lon": -147.7402732}, "020017": {"hospital_name": "ALASKA REGIONAL HOSPITAL", "address": "2801 DEBARR ROAD", "lat": 61.2104565, "lon": -149.8286313}, "020024": {"hospital_name": "CENTRAL PENINSULA GENERAL HOSPITAL", "address": "250 HOSPITAL PLACE", "lat": 60.4938011868614, "lon": -151.07760976242417}, "021301": {"hospital_name": "PROVIDENCE VALDEZ MEDICAL CENTER", "address": "PO BOX 550", "lat": 61.1365365, "lon": -146.3465561}, "021302": {"hospital_name": "PROVIDENCE SEWARD HOSPITAL", "address": "417 FIRST AVENUE, PO BOX 365", "lat": 60.1053349, "lon": -149.4462197}, "021304": {"hospital_name": "PETERSBURG MEDICAL CENTER", "address": "PO BOX 589", "lat": 56.8128844, "lon": -132.9553611}, "021306": {"hospital_name": "PROVIDENCE KODIAK ISLAND MEDICAL CTR", "address": "1915 EAST REZANOF DRIVE", "lat": 57.800958002010425, "lon": -152.37527169265184}, "021307": {"hospital_name": "CORDOVA COMMUNITY MEDICAL CENTER", "address": "PO BOX 160 - 602 CHASE AVENUE", "lat": 60.5409464, "lon": -145.7505887}, "021311": {"hospital_name": "KETCHIKAN MEDICAL CENTER", "address": "3100 TONGASS AVENUE", "lat": 55.3430696, "lon": -131.6466819}, "021313": {"hospital_name": "SOUTH PENINSULA HOSPITAL", "address": "4300 BARTLETT ST", "lat": 59.6524604, "lon": -151.5500725}, "022001": {"hospital_name": "ST ELIAS SPECIALTY HOSPITAL", "address": "4800 CORDOVA STREET", "lat": 61.17663152470269, "lon": -149.87970758881684}, "02d4a73785e74f88490f05c473b39d9054e5cb4e2ddbcb2b85b64d2502d69e01": {"hospital_name": "Kaiser Permanente San Diego Medical Center", "address": "9455 Clairemont Mesa Blvd", "lat": 32.79126000000008, "lon": -117.09522999999996}, "030002": {"hospital_name": "BANNER - UNIVERSITY MEDICAL CENTER PHOENIX", "address": "1111 EAST MCDOWELL ROAD", "lat": 33.46431000000007, "lon": -112.05878999999999}, "030006": {"hospital_name": "TUCSON MEDICAL CENTER", "address": "5301 EAST GRANT ROAD", "lat": 32.25224000000003, "lon": -110.87983999999994}, "030007": {"hospital_name": "VERDE VALLEY MEDICAL CENTER", "address": "269 SOUTH CANDY LANE", "lat": 34.73549000000003, "lon": -112.02997999999997}, "030010": {"hospital_name": "ST. MARY'S HOSPITAL", "address": "1601 WEST ST MARY'S ROAD", "lat": 33.946660000000065, "lon": -83.40511999999995}, "030011": {"hospital_name": "ST JOSEPH'S HOSPITAL", "address": "350 NORTH WILMOT ROAD", "lat": 27.98177000000004, "lon": -82.49099999999999}, "030012": {"hospital_name": "YAVAPAI REGIONAL MEDICAL CENTER", "address": "1003 WILLOW CREEK ROAD", "lat": 34.55886000000004, "lon": -112.48140999999998}, "030013": {"hospital_name": "YUMA REGIONAL MEDICAL CENTER", "address": "2400 SOUTH AVENUE A", "lat": 32.68214000000006, "lon": -114.63536999999997}, "030014": {"hospital_name": "HONORHEALTH JOHN C. LINCOLN MEDICAL CENTER", "address": "250 EAST DUNLAP AVENUE", "lat": 33.56946000000005, "lon": -112.07057999999995}, "030016": {"hospital_name": "BANNER CASA GRANDE MEDICAL CENTER", "address": "1800 EAST FLORENCE BOULEVARD", "lat": 32.88069000000007, "lon": -111.70948999999996}, "030022": {"hospital_name": "VALLEYWISE HEALTH MEDICAL CENTER", "address": "2601 EAST ROOSEVELT STREET", "lat": 33.45756000000006, "lon": -112.02622999999994}, "030023": {"hospital_name": "FLAGSTAFF MEDICAL CENTER", "address": "1200 NORTH BEAVER STREET", "lat": 35.20858000000004, "lon": -111.64508999999998}, "030024": {"hospital_name": "ST. JOSEPH'S HOSPITAL AND MEDICAL CENTER", "address": "350 WEST THOMAS ROAD", "lat": 33.48177000000004, "lon": -112.07996999999995}, "030030": {"hospital_name": "ABRAZO CENTRAL CAMPUS", "address": "2000 WEST BETHANY HOME ROAD", "lat": 33.52512000000007, "lon": -112.10191999999995}, "030036": {"hospital_name": "CHANDLER REGIONAL MEDICAL CENTER", "address": "1955 WEST FRYE ROAD", "lat": 33.296730000000025, "lon": -111.87386999999995}, "030037": {"hospital_name": "ST LUKE'S MEDICAL CENTER", "address": "1800 EAST VAN BUREN STREET", "lat": 48.90644000000003, "lon": -103.29853999999995}, "030038": {"hospital_name": "HONORHEALTH SCOTTSDALE OSBORN MEDICAL CENTER", "address": "7400 EAST OSBORN ROAD", "lat": 33.48848000000004, "lon": -111.92290999999994}, "030043": {"hospital_name": "CANYON VISTA MEDICAL CENTER", "address": "5700 EAST HIGHWAY 90", "lat": 31.553220000000067, "lon": -110.22987999999998}, "030055": {"hospital_name": "KINGMAN REGIONAL MEDICAL CENTER", "address": "3269 STOCKTON HILL ROAD", "lat": 35.21999000000005, "lon": -114.03797999999995}, "030061": {"hospital_name": "BANNER BOSWELL MEDICAL CENTER", "address": "10401 WEST THUNDERBIRD BOULEVARD", "lat": 33.60394000000008, "lon": -112.28355999999997}, "030062": {"hospital_name": "SUMMIT HEALTHCARE REGIONAL MEDICAL CENTER", "address": "2200 EAST SHOW LOW LAKE ROAD", "lat": 35.14260000000007, "lon": -90.03136999999998}, "030064": {"hospital_name": "BANNER - UNIVERSITY MEDICAL CENTER TUCSON CAMPUS", "address": "1625 NORTH CAMPBELL AVENUE", "lat": 32.17580000000004, "lon": -110.93069999999994}, "030065": {"hospital_name": "BANNER DESERT MEDICAL CENTER", "address": "1400 SOUTH  DOBSON ROAD", "lat": 33.390840000000026, "lon": -111.87720999999999}, "030068": {"hospital_name": "MT. GRAHAM REGIONAL MEDICAL CENTER", "address": "1600 SOUTH 20TH AVENUE", "lat": 32.82250000000005, "lon": -109.73476999999997}, "030069": {"hospital_name": "HAVASU REGIONAL MEDICAL CENTER", "address": "101 CIVIC CENTER LANE", "lat": 34.480170000000044, "lon": -114.33872999999994}, "030083": {"hospital_name": "ABRAZO SCOTTSDALE CAMPUS", "address": "3929 EAST BELL ROAD", "lat": 33.63919000000004, "lon": -111.99812999999995}, "030085": {"hospital_name": "NORTHWEST MEDICAL CENTER", "address": "6200 NORTH LA CHOLLA BOULEVARD", "lat": 33.930240000000026, "lon": -87.82442999999995}, "030087": {"hospital_name": "HONORHEALTH SCOTTSDALE SHEA MEDICAL CENTER", "address": "9003 EAST SHEA BOULEVARD", "lat": 33.48848000000004, "lon": -111.92290999999994}, "030088": {"hospital_name": "BANNER BAYWOOD MEDICAL CENTER", "address": "6644 EAST BAYWOOD AVENUE", "lat": 33.41128000000003, "lon": -111.68914999999998}, "030089": {"hospital_name": "BANNER THUNDERBIRD MEDICAL CENTER", "address": "5555 WEST THUNDERBIRD ROAD", "lat": 33.60919000000007, "lon": -112.17909999999995}, "030092": {"hospital_name": "HONORHEALTH DEER VALLEY MEDICAL CENTER", "address": "19829 NORTH 27TH AVENUE", "lat": 33.66589000000005, "lon": -112.11593999999997}, "030093": {"hospital_name": "BANNER DEL E. WEBB MEDICAL CENTER", "address": "14502 WEST MEEKER BOULEVARD", "lat": 33.65977000000004, "lon": -112.37299999999999}, "030094": {"hospital_name": "ABRAZO ARROWHEAD CAMPUS", "address": "18701 NORTH 67TH AVENUE", "lat": 33.65501000000006, "lon": -112.20190999999994}, "030101": {"hospital_name": "WESTERN ARIZONA REGIONAL MEDICAL CENTER", "address": "2735 SILVER CREEK ROAD", "lat": 35.11092000000008, "lon": -114.55522999999994}, "030103": {"hospital_name": "MAYO CLINIC HOSPITAL", "address": "5777 EAST MAYO BOULEVARD", "lat": 33.657800000000066, "lon": -111.95394999999996}, "030105": {"hospital_name": "BANNER HEART HOSPITAL", "address": "6750 EAST BAYWOOD AVENUE", "lat": 33.4113049, "lon": -111.6855281}, "030107": {"hospital_name": "ARIZONA SPINE AND JOINT HOSPITAL", "address": "4620 EAST BASELINE ROAD", "lat": 33.3804787, "lon": -111.7347635}, "030108": {"hospital_name": "CORE INSTITUTE SPECIALTY HOSPITAL, THE", "address": "6501 NORTH 19TH AVENUE", "lat": 42.065706000000034, "lon": -88.15400399999999}, "030110": {"hospital_name": "ABRAZO WEST CAMPUS", "address": "13677 WEST MCDOWELL ROAD", "lat": 33.46207000000004, "lon": -112.35292999999996}, "030111": {"hospital_name": "BANNER-UNIVERSITY MEDICAL CENTER SOUTH CAMPUS", "address": "2800 EAST AJO WAY", "lat": 32.17580000000004, "lon": -110.93069999999994}, "030112": {"hospital_name": "ARIZONA SPECIALTY HOSPITAL", "address": "2905 WEST WARNER ROAD, SUITE 1", "lat": 33.5322249, "lon": -112.0987902}, "030114": {"hospital_name": "ORO VALLEY HOSPITAL", "address": "1551 EAST TANGERINE ROAD", "lat": 32.42927000000003, "lon": -110.94963999999999}, "030115": {"hospital_name": "BANNER ESTRELLA MEDICAL CENTER", "address": "9201 WEST THOMAS ROAD", "lat": 33.478170000000034, "lon": -112.25742999999994}, "030117": {"hospital_name": "VALLEY VIEW MEDICAL CENTER", "address": "5330 SOUTH HIGHWAY 95", "lat": 35.002320000000054, "lon": -114.59681999999998}, "030119": {"hospital_name": "MERCY GILBERT MEDICAL CENTER", "address": "3555 SOUTH VAL VISTA DRIVE", "lat": 33.28659000000005, "lon": -111.75271999999995}, "030121": {"hospital_name": "MOUNTAIN VISTA MEDICAL CENTER, LP", "address": "1301 SOUTH CRISMON ROAD", "lat": 33.39128000000005, "lon": -111.61124999999998}, "030122": {"hospital_name": "BANNER GATEWAY MEDICAL CENTER", "address": "1900 NORTH HIGLEY ROAD", "lat": 33.384420000000034, "lon": -111.72219999999999}, "030123": {"hospital_name": "HONORHEALTH SCOTTSDALE THOMPSON PEAK MED CTR", "address": "7400 EAST THOMPSON PEAK PARKWAY", "lat": 33.67046000000005, "lon": -111.92261999999994}, "030130": {"hospital_name": "BANNER IRONWOOD MEDICAL CENTER", "address": "37000 NORTH GANTZEL ROAD", "lat": 33.214510000000075, "lon": -111.56529999999998}, "030131": {"hospital_name": "O.A.S.I.S. HOSPITAL", "address": "750 NORTH 40TH STREET", "lat": 43.0127529, "lon": -87.9440199}, "030134": {"hospital_name": "BANNER GOLDFIELD MEDICAL CENTER", "address": "2050 WEST SOUTHERN AVENUE", "lat": 33.394220000000075, "lon": -111.56714999999997}, "030136": {"hospital_name": "DIGNITY HEALTH - ARIZONA GENERAL HOSPITAL", "address": "7171 SOUTH 51ST AVENUE", "lat": 33.44912000000005, "lon": -111.68351999999999}, "030137": {"hospital_name": "SANTA CRUZ VALLEY REGIONAL HOSPITAL", "address": "4455 SOUTH I-19 FRONTAGE ROAD", "lat": 43.38428000000005, "lon": -72.34118999999998}, "030138": {"hospital_name": "WESTERN REGIONAL MEDICAL CENTER", "address": "14200 WEST CELEBRATE LIFE WAY", "lat": 35.11092000000008, "lon": -114.55522999999994}, "030139": {"hospital_name": "DIGNITY HEALTH ARIZONA GENERAL HOSPITAL", "address": "9130 EAST ELLIOT ROAD", "lat": 33.44912000000005, "lon": -111.68351999999999}, "030147": {"hospital_name": "BANNER OCOTILLO MEDICAL CENTER", "address": "1405 SOUTH ALMA SCHOOL ROAD", "lat": 29.711790000000065, "lon": -95.39314999999999}, "031300": {"hospital_name": "WICKENBURG COMMUNITY HOSPITAL", "address": "520 ROSE LANE", "lat": 33.978540000000066, "lon": -112.73988999999995}, "031301": {"hospital_name": "BENSON HOSPITAL", "address": "450 SOUTH OCOTILLO AVENUE", "lat": 31.964930000000038, "lon": -110.30781999999999}, "031302": {"hospital_name": "NORTHERN COCHISE COMMUNITY HOSPITAL, INC.", "address": "901 WEST REX ALLEN DRIVE", "lat": 32.26515000000006, "lon": -109.83833999999996}, "031304": {"hospital_name": "PAGE HOSPITAL", "address": "501 NORTH NAVAJO DRIVE", "lat": 36.917530000000056, "lon": -111.46390999999994}, "031311": {"hospital_name": "LITTLE COLORADO MEDICAL CENTER", "address": "1501 NORTH WILLIAMSON AVENUE", "lat": 35.03490000000005, "lon": -110.69241999999997}, "031312": {"hospital_name": "COPPER QUEEN COMMUNITY HOSPITAL", "address": "101 COLE AVENUE", "lat": 31.417800000000057, "lon": -109.88306999999998}, "031313": {"hospital_name": "HOLY CROSS HOSPITAL", "address": "1171 WEST TARGET RANGE ROAD", "lat": 26.18617000000006, "lon": -80.11872999999997}, "031314": {"hospital_name": "COBRE VALLEY REGIONAL MEDICAL CENTER", "address": "5880 SOUTH HOSPITAL DRIVE", "lat": 33.40623000000005, "lon": -110.82639999999998}, "031315": {"hospital_name": "WHITE MOUNTAIN REGIONAL MEDICAL CENTER", "address": "118 SOUTH MOUNTAIN AVENUE", "lat": 34.13151000000005, "lon": -109.28558999999996}, "031317": {"hospital_name": "LA PAZ REGIONAL HOSPITAL", "address": "1200 WEST MOHAVE ROAD", "lat": 34.1363692, "lon": -114.2853376}, "031318": {"hospital_name": "BANNER PAYSON MEDICAL CENTER", "address": "807 SOUTH PONDEROSA DRIVE", "lat": 34.23049000000003, "lon": -111.32164999999998}, "032000": {"hospital_name": "CURAHEALTH NORTHWEST PHOENIX", "address": "13216 NORTH PLAZA DEL RIO BLVD", "lat": 43.233429518771416, "lon": -76.30965616967661}, "032001": {"hospital_name": "SELECT SPECIALTY HOSPITAL PHOENIX", "address": "350 WEST THOMAS ROAD, 3RD FLOOR", "lat": 40.812290000000075, "lon": -81.39693999999997}, "032002": {"hospital_name": "CURAHEALTH TUCSON", "address": "355 NORTH WILMOT ROAD", "lat": 32.22177000000005, "lon": -110.96976999999998}, "032004": {"hospital_name": "CORNERSTONE SPECIALTY HOSPITALS TUCSON", "address": "7220 EAST ROSEWOOD STREET", "lat": 32.22174, "lon": -110.92648}, "032005": {"hospital_name": "SELECT SPECIALTY HOSPITAL ARIZONA", "address": "1111 EAST MCDOWELL RD, 11TH FLOOR", "lat": 40.812290000000075, "lon": -81.39693999999997}, "032006": {"hospital_name": "KPC PROMISE HOSPITAL OF PHOENIX, LLC", "address": "433 EAST 6TH STREET", "lat": 33.44825000000003, "lon": -112.07579999999996}, "033302": {"hospital_name": "PHOENIX CHILDREN'S HOSPITAL", "address": "1919 EAST THOMAS ROAD", "lat": 33.47930000000002, "lon": -112.03977999999995}, "040001": {"hospital_name": "SILOAM SPRINGS REGIONAL HOSPITAL", "address": "603 NORTH PROGRESS AVENUE", "lat": 36.18999000000008, "lon": -94.50772999999998}, "040002": {"hospital_name": "JOHNSON REGIONAL MEDICAL CENTER", "address": "1100 EAST POPLAR STREET", "lat": 35.46194000000003, "lon": -93.44523999999996}, "040004": {"hospital_name": "WASHINGTON REGIONAL MEDICAL CENTER", "address": "3215 N NORTH HILLS BOULEVARD", "lat": 36.109480000000076, "lon": -94.15813999999995}, "040007": {"hospital_name": "CHI-ST VINCENT INFIRMARY", "address": "TWO ST VINCENT CIRCLE", "lat": 34.75031000000007, "lon": -92.33896999999996}, "040010": {"hospital_name": "MERCY HOSPITAL NORTHWEST ARKANSAS", "address": "2710 SOUTH RIFE MEDICAL LANE", "lat": 36.309600000000046, "lon": -94.18299999999994}, "040011": {"hospital_name": "CHAMBERS MEMORIAL HOSPITAL", "address": "719 DETROIT STREET", "lat": 35.054580000000044, "lon": -93.38751999999994}, "040014": {"hospital_name": "WHITE COUNTY MEDICAL CENTER", "address": "3214 EAST RACE AVENUE", "lat": 35.948950000000025, "lon": -85.47694999999999}, "040015": {"hospital_name": "MENA REGIONAL HEALTH SYSTEM", "address": "311 NORTH MORROW STREET", "lat": 34.58946000000003, "lon": -94.22100999999998}, "040016": {"hospital_name": "UAMS MEDICAL CENTER", "address": "4301 WEST MARKHAM STREET MAIL SLOT 612", "lat": 29.711790000000065, "lon": -95.39314999999999}, "040017": {"hospital_name": "NORTH ARKANSAS REGIONAL MEDICAL CENTER", "address": "620 NORTH MAIN STREET", "lat": 36.23648000000003, "lon": -93.10917999999998}, "040018": {"hospital_name": "BAPTIST HEALTH - VAN BUREN", "address": "211 CRAWFORD MEMORIAL DRIVE", "lat": 35.43518000000006, "lon": -94.33867999999995}, "040019": {"hospital_name": "FORREST CITY MEDICAL CENTER", "address": "1601 NEWCASTLE ROAD", "lat": 35.02609000000007, "lon": -90.77930999999995}, "040020": {"hospital_name": "ST BERNARDS MEDICAL CENTER", "address": "225 E WASHIINGTON AVENUE", "lat": 35.83633000000003, "lon": -90.70248999999995}, "040022": {"hospital_name": "NORTHWEST MEDICAL CENTER", "address": "609 WEST MAPLE AVENUE", "lat": 33.930240000000026, "lon": -87.82442999999995}, "040026": {"hospital_name": "CHI ST. VINCENT HOSPITAL HOT SPRINGS", "address": "300 WERNER STREET", "lat": 44.83605000000006, "lon": -114.79134999999997}, "040027": {"hospital_name": "BAXTER REGIONAL MEDICAL CENTER", "address": "624 HOSPITAL DRIVE", "lat": 36.34297000000004, "lon": -92.39584999999994}, "040029": {"hospital_name": "CONWAY REGIONAL HEALTH SYSTEM", "address": "2302 COLLEGE AVENUE", "lat": 35.22199200000006, "lon": -92.38686499999994}, "040036": {"hospital_name": "BAPTIST HEALTH MEDICAL CENTER NORTH LITTLE ROCK", "address": "3333 SPRINGHILL DRIVE", "lat": 34.78353000000004, "lon": -92.22211999999996}, "040039": {"hospital_name": "ARKANSAS METHODIST MEDICAL CENTER", "address": "900 WEST KINGSHIGHWAY", "lat": 36.051870000000065, "lon": -90.49838999999997}, "040041": {"hospital_name": "ST MARYS REGIONAL MEDICAL CENTER", "address": "1808 WEST MAIN STREET", "lat": 36.393770000000075, "lon": -97.87090999999998}, "040047": {"hospital_name": "FIVE RIVERS MEDICAL CENTER", "address": "2801 MEDICAL CENTER DRIVE", "lat": 29.711790000000065, "lon": -95.39314999999999}, "040050": {"hospital_name": "OUACHITA COUNTY MEDICAL CENTER", "address": "638 CALIFORNIA AVENUE", "lat": 33.57548000000003, "lon": -92.83582999999999}, "040051": {"hospital_name": "DREW MEMORIAL HOSPITAL", "address": "778 SCOGIN DRIVE", "lat": 37.91938000000005, "lon": -89.81138999999996}, "040055": {"hospital_name": "BAPTIST HEALTH - FORT SMITH", "address": "1001 TOWSON AVENUE", "lat": 35.37433000000004, "lon": -94.42106999999999}, "040062": {"hospital_name": "MERCY HOSPITAL FORT SMITH", "address": "7301 ROGERS AVE", "lat": 35.35379000000006, "lon": -94.35293999999999}, "040067": {"hospital_name": "MAGNOLIA REGIONAL MEDICAL CENTER", "address": "101 HOSPITAL DRIVE", "lat": 33.274740000000065, "lon": -93.23912999999999}, "040069": {"hospital_name": "GREAT RIVER MEDICAL CENTER", "address": "1520 N DIVISION STREET", "lat": 35.941670000000045, "lon": -89.91873999999996}, "040071": {"hospital_name": "JEFFERSON REGIONAL MEDICAL CENTER", "address": "1600 WEST 40TH AVENUE", "lat": 34.18754000000007, "lon": -92.01845999999995}, "040072": {"hospital_name": "BAPTIST HEALTH MEDICAL CENTER-STUTTGART", "address": "1703 NORTH BUERKLE ST", "lat": 34.51764000000003, "lon": -91.55931999999996}, "040076": {"hospital_name": "BAPTIST HEALTH MEDICAL CENTER-HOT SPRINGS COUNTY", "address": "1001 SCHNEIDER DRIVE", "lat": 34.359140000000025, "lon": -92.78564999999998}, "040078": {"hospital_name": "NATIONAL PARK MEDICAL CENTER", "address": "1910 MALVERN AVENUE", "lat": 34.48600000000005, "lon": -93.03520999999995}, "040084": {"hospital_name": "SALINE MEMORIAL HOSPITAL", "address": "#1 MEDICAL PARK DRIVE", "lat": 34.57292000000007, "lon": -92.58525999999995}, "040085": {"hospital_name": "HELENA REGIONAL MEDICAL CENTER", "address": "1801 MARTIN LUTHER KING JR DRIVE", "lat": 34.51007000000004, "lon": -90.62741999999997}, "040088": {"hospital_name": "MEDICAL CENTER OF SOUTH ARKANSAS", "address": "700 WEST GROVE STREET", "lat": 33.21852000000007, "lon": -92.67229999999995}, "040114": {"hospital_name": "BAPTIST HEALTH MEDICAL CENTER-LITTLE ROCK", "address": "9601 INTERSTATE", "lat": 34.78353000000004, "lon": -92.22211999999996}, "040118": {"hospital_name": "NEA BAPTIST MEMORIAL HOSPITAL", "address": "4800 EAST JOHNSON AVENUE", "lat": 35.86627000000004, "lon": -90.63632999999999}, "040119": {"hospital_name": "WHITE RIVER MEDICAL CENTER", "address": "1710 HARRISON STREET", "lat": 35.76804000000004, "lon": -91.63407999999998}, "040132": {"hospital_name": "LEVI HOSPITAL", "address": "300 PROSPECT AVE", "lat": 46.72453000000007, "lon": -71.25831999999997}, "040134": {"hospital_name": "ARKANSAS HEART HOSPITAL, LLC", "address": "1701 S SHACKLEFORD ROAD", "lat": 36.328820000000064, "lon": -91.70020999999997}, "040137": {"hospital_name": "ST VINCENT MEDICAL CENTER/NORTH", "address": "2215 WILDWOOD AVENUE", "lat": 34.8134189, "lon": -92.2083742}, "040147": {"hospital_name": "ARKANSAS SURGICAL HOSPITAL", "address": "5201 NORTH SHORE DRIVE", "lat": 34.8002061, "lon": -92.3488484}, "040152": {"hospital_name": "NORTHWEST HEALTH PHYSICIANS SPECIALTY HOSPITAL", "address": "3873 NORTH PARKVIEW DRIVE", "lat": 36.13552400000003, "lon": -94.18615399999999}, "040153": {"hospital_name": "WADLEY REGIONAL MEDICAL CENTER AT HOPE", "address": "2001 SOUTH MAIN", "lat": 33.64814000000007, "lon": -93.58505999999994}, "040154": {"hospital_name": "BAPTIST HEALTH MEDICAL CENTER- CONWAY", "address": "1555 EXCHANGE AVENUE", "lat": 35.05704000000003, "lon": -92.41927999999996}, "040156": {"hospital_name": "BAPTIST MEMORIAL HOSPITAL-CRITTENDEN, INC", "address": "2100 NORTH SEVENTH STREET", "lat": 33.52543600000007, "lon": -88.42742199999998}, "041300": {"hospital_name": "NORTH LOGAN MERCY HOSPITAL", "address": "500 EAST ACADEMY", "lat": 35.289030000000025, "lon": -93.72504999999995}, "041302": {"hospital_name": "DARDANELLE HOSPITAL", "address": "200 NORTH THIRD STREET", "lat": 35.22024000000005, "lon": -93.15653999999995}, "041303": {"hospital_name": "MERCY HOSPITAL TURNER MEMORIAL", "address": "801 WEST RIVER STREET", "lat": 35.659915108178645, "lon": -93.78419349501844}, "041304": {"hospital_name": "EUREKA SPRINGS HOSPITAL COMMISSION", "address": "24 NORRIS STREET", "lat": 36.40039000000007, "lon": -93.74406999999997}, "041305": {"hospital_name": "MERCY HOSPITAL WALDRON", "address": "1341 WEST SIXTH STREET", "lat": 34.89473000000004, "lon": -94.10614999999996}, "041306": {"hospital_name": "IZARD COUNTY MEDICAL CENTER, LLC", "address": "61 GRASSE STREET", "lat": 36.12675000000007, "lon": -92.12824999999998}, "041307": {"hospital_name": "CROSSRIDGE COMMUNITY HOSPITAL", "address": "310 SOUTH FALLS BOULEVARD", "lat": 35.21966000000003, "lon": -90.78626999999994}, "041308": {"hospital_name": "MCGEHEE HOSPITAL", "address": "900 SOUTH THIRD STREET", "lat": 33.61832000000004, "lon": -91.39254999999997}, "041309": {"hospital_name": "LAWRENCE MEMORIAL HOSPITAL", "address": "1309 WEST MAIN STREET", "lat": 36.07409000000007, "lon": -90.96769999999998}, "041310": {"hospital_name": "STONE COUNTY MEDICAL CENTER", "address": "2106 EAST MAIN STREET", "lat": 35.85642000000007, "lon": -92.08312999999998}, "041311": {"hospital_name": "HOWARD MEMORIAL HOSPITAL", "address": "130 MEDICAL CIRCLE", "lat": 33.95210000000003, "lon": -93.85704999999996}, "041312": {"hospital_name": "BAPTIST HEALTH MEDICAL CENTER HEBER SPINGS", "address": "1800 BYPASS ROAD", "lat": 35.504530000000045, "lon": -92.00070999999997}, "041313": {"hospital_name": "OZARK HEALTH", "address": "2500 HIGHWAY 65 SOUTH", "lat": 35.55961000000008, "lon": -92.45207999999997}, "041314": {"hospital_name": "DEWITT HOSPITAL & NURSING HOME, INC", "address": "1641 WHITEHEAD DRIVE", "lat": 34.27981758035097, "lon": -91.33771682043533}, "041316": {"hospital_name": "SOUTH MISSISSISSPI COUNTY REGIONAL MEDICAL CENTER", "address": "611 WEST LEE AVENUE", "lat": 35.69984000000005, "lon": -89.97570999999994}, "041317": {"hospital_name": "DALLAS COUNTY MEDICAL CENTER", "address": "201 CLIFTON STREET", "lat": 33.81084000000004, "lon": -92.42504999999994}, "041318": {"hospital_name": "MERCY HOSPITAL BOONEVILLE", "address": "880 WEST MAIN", "lat": 35.140450000000044, "lon": -93.93465999999995}, "041320": {"hospital_name": "LITTLE RIVER MEMORIAL HOSPITAL", "address": "451 WEST LOCKE STREET", "lat": 33.669260000000065, "lon": -94.13506999999998}, "041321": {"hospital_name": "BAPTIST HEALTH MEDICAL CENTER-ARKADELPHIA", "address": "3050 TWIN RIVERS DRIVE", "lat": 34.12318000000005, "lon": -93.08848999999998}, "041322": {"hospital_name": "FULTON COUNTY HOSPITAL", "address": "679 NORTH MAIN STREET", "lat": 36.382940000000076, "lon": -91.81078999999994}, "041323": {"hospital_name": "ASHLEY COUNTY MEDICAL CENTER", "address": "1015 UNITY ROAD", "lat": 33.13824000000005, "lon": -91.93916999999999}, "041324": {"hospital_name": "CHI ST VINCENT MORRILTON", "address": "#4 HOSPITAL DRIVE", "lat": 35.168300000000045, "lon": -92.72123999999997}, "041326": {"hospital_name": "DELTA MEMORIAL HOSPITAL", "address": "811 HIGHWAY 65 SOUTH", "lat": 38.745340000000056, "lon": -108.04706999999996}, "041327": {"hospital_name": "BRADLEY COUNTY MEDICAL CENTER", "address": "404 SOUTH BRADLEY STREET", "lat": 33.61053000000004, "lon": -92.05869999999999}, "041328": {"hospital_name": "CHICOT MEMORIAL MEDICAL CENTER", "address": "2729 SOUTH HIGHWAY 65 & 82", "lat": 33.30620000000005, "lon": -91.29036999999994}, "041329": {"hospital_name": "MERCY HOSPITAL BERRYVILLE", "address": "214 CARTER STREET", "lat": 36.35821000000004, "lon": -93.55170999999996}, "041330": {"hospital_name": "PIGGOTT COMMUNITY HOSPITAL ", "address": "216 EAST MAIN STREET", "lat": 36.390390000000025, "lon": -90.20461999999998}, "041331": {"hospital_name": "OZARKS COMMUNITY HOSPITAL OF GRAVETTE", "address": "1101 JACKSON STREET SW", "lat": 36.40915000000007, "lon": -94.46032999999994}, "042004": {"hospital_name": "CHRISTUS DUBUIS HOSPITAL OF HOT SPRINGS", "address": "300 WERNER STREET, 3RD FLOOR", "lat": 44.83605000000006, "lon": -114.79134999999997}, "042006": {"hospital_name": "SELECT SPECIALITY HOSPITAL-FORT SMITH INC", "address": "1001 TOWSON AVENUE", "lat": 40.812290000000075, "lon": -81.39693999999997}, "042008": {"hospital_name": "CHRISTUS DUBUIS HOSPITAL OF FORT SMITH", "address": "7301 ROGERS AVENUE, # 4", "lat": 35.384700000000066, "lon": -94.42144999999994}, "042009": {"hospital_name": "REGENCY HOSPITAL OF NORTHWEST ARKANSAS", "address": "609 WEST MAPLE AVENUE", "lat": 36.16255000000007, "lon": -94.19012999999995}, "042010": {"hospital_name": "CORNERSTONE HOSPITAL LITTLE ROCK", "address": "2 ST VINCENT CIRCLE, 6TH FLOOR", "lat": 34.74648, "lon": -92.28959}, "042011": {"hospital_name": "ADVANCED CARE HOSPITAL WHITE COUNTY", "address": "1200 SOUTH MAIN STREET", "lat": 35.25627, "lon": -91.74555}, "042012": {"hospital_name": "BAPTIST HEALTH EXTENDED CARE HOSPITAL-LR INC", "address": "9601 BAPTIST HEALTH DRIVE, 1OTH FLOOR", "lat": 34.74450072348869, "lon": -92.380014705649}, "042013": {"hospital_name": "ARKANSAS CONTINUED CARE HOSPITAL OF JONESBORO", "address": "3024 RED WOLF BOULEVARD, SUITE 1", "lat": 35.83525000000003, "lon": -90.70506999999998}, "043300": {"hospital_name": "ARKANSAS CHILDREN'S HOSPITAL", "address": "1 CHILDREN'S WAY, SLOT 301", "lat": 34.741220000000055, "lon": -92.29191999999995}, "043301": {"hospital_name": "ARKANSAS CHILDREN'S NORTHWEST, INC", "address": "2601 GENE GEORGE BOULEVARD", "lat": 34.74054006613699, "lon": -92.29159821772639}, "04L115": {"hospital_name": "WOODRIDGE BEHAVIORAL CARE OF FORREST CITY", "address": "1521 ALBERT ST", "lat": 28.640807787987647, "lon": -81.43206624279811}, "04L120": {"hospital_name": "WOODRIDGE OF THE OZARKS", "address": "2466 S 48TH STREET", "lat": 36.945050736113274, "lon": -93.16750695604286}, "04T027": {"hospital_name": "BAXTER REGIONAL MEDICAL CENTER", "address": "624 HOSPITAL DRIVE", "lat": 36.34297000000004, "lon": -92.39584999999994}, "050002": {"hospital_name": "ST ROSE HOSPITAL", "address": "27200 CALAROGA AVE", "lat": 37.63319000000007, "lon": -122.08932999999996}, "050006": {"hospital_name": "ST JOSEPH HOSPITAL", "address": "2700 DOLBEER ST", "lat": 38.031720000000064, "lon": -84.52139999999997}, "050007": {"hospital_name": "MILLS-PENINSULA MEDICAL CENTER", "address": "1501 TROUSDALE DRIVE", "lat": 37.59283000000005, "lon": -122.38248999999996}, "050008": {"hospital_name": "CALIFORNIA PACIFIC MEDICAL CTR-DAVIES CAMPUS HOSP", "address": "601 DUBOCE AVENUE", "lat": 37.768143000000066, "lon": -122.43458899999996}, "050009": {"hospital_name": "QUEEN OF THE VALLEY MEDICAL CENTER", "address": "1000 TRANCAS ST", "lat": 38.32471000000004, "lon": -122.29669999999999}, "050013": {"hospital_name": "ADVENTIST HEALTH ST HELENA", "address": "10 WOODLAND ROAD", "lat": 38.487130000000036, "lon": -122.44861999999995}, "050014": {"hospital_name": "SUTTER AMADOR HOSPITAL", "address": "200 MISSION BLVD", "lat": 38.35071000000005, "lon": -120.76468999999997}, "050016": {"hospital_name": "MARIAN REGIONAL MEDICAL CENTER, ARROYO GRANDE", "address": "345 S HALCYON RD", "lat": 34.95098000000007, "lon": -120.41321999999997}, "050017": {"hospital_name": "MERCY GENERAL HOSPITAL", "address": "4001 J ST", "lat": 38.570520000000045, "lon": -121.45214999999996}, "050022": {"hospital_name": "RIVERSIDE COMMUNITY HOSPITAL", "address": "4445 MAGNOLIA AVENUE", "lat": 33.976500000000044, "lon": -117.38145999999995}, "050024": {"hospital_name": "PARADISE VALLEY HOSPITAL", "address": "2400 EAST 4TH ST", "lat": 32.68562000000003, "lon": -117.08220999999998}, "050025": {"hospital_name": "UC SAN DIEGO HEALTH HILLCREST - HILLCREST MED CTR", "address": "200 WEST ARBOR DRIVE", "lat": 32.75466179318923, "lon": -117.16591473155421}, "050026": {"hospital_name": "GROSSMONT HOSPITAL", "address": "5555 GROSSMONT CENTER DRIVE BOX 58", "lat": 32.78123400000004, "lon": -117.00732599999998}, "050028": {"hospital_name": "MAD RIVER COMMUNITY HOSPITAL", "address": "3800 JANES RD", "lat": 40.89630000000005, "lon": -124.09140999999994}, "050030": {"hospital_name": "OROVILLE HOSPITAL", "address": "2767 OLIVE HIGHWAY", "lat": 39.50592000000006, "lon": -121.54095999999998}, "050036": {"hospital_name": "BAKERSFIELD MEMORIAL HOSPITAL", "address": "420 34TH ST", "lat": 35.391940000000034, "lon": -119.00677999999999}, "050038": {"hospital_name": "SANTA CLARA VALLEY MEDICAL CENTER", "address": "751 SOUTH BASCOM AVENUE", "lat": 37.313420000000065, "lon": -121.93420999999995}, "050039": {"hospital_name": "ENLOE MEDICAL CENTER", "address": "1531 ESPLANADE", "lat": 39.74162000000007, "lon": -121.85100999999997}, "050040": {"hospital_name": "LAC/OLIVE VIEW-UCLA MEDICAL CENTER", "address": "14445 OLIVE VIEW DRIVE", "lat": 42.35557000000006, "lon": -83.05435999999997}, "050042": {"hospital_name": "ST ELIZABETH COMMUNITY HOSPITAL", "address": "2550 SISTER MARY COLUMBA DRIVE", "lat": 40.14813000000004, "lon": -122.21933999999999}, "050043": {"hospital_name": "ALTA BATES SUMMIT MEDICAL CENTER", "address": "350 HAWTHORNE AVENUE", "lat": 37.821120000000064, "lon": -122.26378999999997}, "050045": {"hospital_name": "EL CENTRO REGIONAL MEDICAL CENTER", "address": "1415 ROSS AVENUE", "lat": 32.780440000000056, "lon": -115.56849999999997}, "050047": {"hospital_name": "CALIFORNIA PACIFIC MEDICAL CENTER- VAN NESS CAMPUS", "address": "1101 VAN NESS AVENUE", "lat": 33.67716800000005, "lon": -117.87399199999999}, "050054": {"hospital_name": "SAN GORGONIO MEMORIAL HOSPITAL", "address": "600 NORTH HIGHLAND SPRINGS AVENUE", "lat": 33.931850000000054, "lon": -116.94659999999999}, "050055": {"hospital_name": "CALIFORNIA PACIFIC MEDICAL CENTER - MISSION BERNAL", "address": "3555 CESAR CHAVEZ STREET", "lat": 37.74790000000007, "lon": -122.42072999999999}, "050056": {"hospital_name": "ANTELOPE VALLEY HOSPITAL", "address": "1600 W AVE J", "lat": 34.68780000000004, "lon": -118.15797999999995}, "050057": {"hospital_name": "KAWEAH DELTA MEDICAL CENTER", "address": "400 W MINERAL KING AVE", "lat": 36.328594, "lon": -119.2941095}, "050058": {"hospital_name": "GLENDALE MEM HOSPITAL & HLTH CENTER", "address": "1420 S CENTRAL AVE", "lat": 34.12761000000006, "lon": -118.25632999999999}, "050060": {"hospital_name": "COMMUNITY REGIONAL MEDICAL CENTER", "address": "2823 FRESNO STREET", "lat": 36.742710000000045, "lon": -119.78405999999995}, "050063": {"hospital_name": "HOLLYWOOD PRESBYTERIAN MEDICAL CENTER", "address": "1300 N VERMONT AVE", "lat": 34.09579000000008, "lon": -118.29151999999999}, "050067": {"hospital_name": "OAK VALLEY HOSPITAL DISTRICT", "address": "350 S OAK AVE", "lat": 37.757070000000056, "lon": -120.86107999999996}, "050069": {"hospital_name": "PROVIDENCE ST. JOSEPH HOSPITAL", "address": "1100 WEST STEWART DR", "lat": 48.27806000000004, "lon": -117.71154999999999}, "050070": {"hospital_name": "KAISER FOUNDATION HOSPITAL - SOUTH SAN FRANCISCO", "address": "1200 EL CAMINO REAL", "lat": 41.4035547, "lon": -81.7744993}, "050071": {"hospital_name": "KAISER FOUNDATION HOSPITAL-SANTA CLARA", "address": "700 LAWRENCE EXPRESSWAY", "lat": 37.35411, "lon": -121.95524}, "050072": {"hospital_name": "KAISER FOUNDATION HOSPITAL - WALNUT CREEK", "address": "1425 S MAIN STREET", "lat": 37.90162000000004, "lon": -122.06188999999995}, "050073": {"hospital_name": "KAISER FOUNDATION HOSPITAL AND REHAB CENTER", "address": "975 SERENO DR", "lat": 42.48333000000008, "lon": 1.5500000000000682}, "050075": {"hospital_name": "KAISER FOUNDATION HOSPITAL - OAKLAND/RICHMOND", "address": "275 WEST MACARTHUR BOULEVARD", "lat": 37.540680000000066, "lon": -77.43366999999995}, "050076": {"hospital_name": "KAISER FOUNDATION HOSPITAL - SAN FRANCISCO", "address": "2425 GEARY BLVD", "lat": 41.4035547, "lon": -81.7744993}, "050077": {"hospital_name": "SCRIPPS MERCY HOSPITAL", "address": "4077 5TH AVE", "lat": 32.75151000000005, "lon": -117.16084999999998}, "050078": {"hospital_name": "PROVIDENCE LITTLE CO OF MARY MED CTR SAN PEDRO", "address": "1300 W 7TH ST", "lat": 37.16506000000004, "lon": -105.39957999999996}, "050082": {"hospital_name": "ST JOHNS REGIONAL MEDICAL CENTER", "address": "1600 N ROSE AVE", "lat": 34.21674000000007, "lon": -119.15630999999996}, "050084": {"hospital_name": "ST JOSEPH'S MEDICAL CENTER OF STOCKTON", "address": "1800 N CALIFORNIA ST", "lat": 37.97055000000006, "lon": -121.28820999999999}, "050089": {"hospital_name": "COMMUNITY HOSPITAL OF SAN BERNARDINO", "address": "1805 MEDICAL CENTER DRIVE", "lat": 34.13151300000004, "lon": -117.32171599999998}, "050090": {"hospital_name": "SONOMA VALLEY HOSPITAL", "address": "347 ANDRIEUX ST", "lat": 38.29800700000004, "lon": -122.47358999999994}, "050091": {"hospital_name": "COMMUNITY HOSPITAL OF HUNTINGTON PARK", "address": "2623 E SLAUSON AVE", "lat": 33.98952000000003, "lon": -118.22425999999996}, "050093": {"hospital_name": "SAINT AGNES MEDICAL CENTER", "address": "1303 E HERNDON AVE", "lat": 36.835300000000075, "lon": -119.76574}, "050096": {"hospital_name": "WEST COVINA MEDICAL CENTER, INC", "address": "725 S ORANGE AVE", "lat": 34.071318000000076, "lon": -117.94451499999997}, "050099": {"hospital_name": "SAN ANTONIO REGIONAL HOSPITAL", "address": "999 SAN BERNARDINO ROAD", "lat": 34.100640000000055, "lon": -117.63820999999996}, "050100": {"hospital_name": "SHARP MEMORIAL HOSPITAL", "address": "7901 FROST ST", "lat": 32.80006000000003, "lon": -117.15516999999994}, "050101": {"hospital_name": "SUTTER SOLANO MEDICAL CENTER", "address": "300 HOSPITAL DR", "lat": 38.13118000000003, "lon": -122.23730999999998}, "050102": {"hospital_name": "DOCTORS HOSPITAL OF RIVERSIDE, LLC", "address": "3865 JACKSON STREET", "lat": 40.047491000000036, "lon": -86.87753699999996}, "050103": {"hospital_name": "WHITE MEMORIAL MEDICAL CENTER", "address": "1720 E CESAR AVENUE", "lat": 34.04914000000008, "lon": -118.21853999999996}, "050104": {"hospital_name": "SAINT FRANCIS MEDICAL CENTER", "address": "3630 EAST IMPERIAL HIGHWAY", "lat": 37.466270000000065, "lon": -77.65857999999997}, "050107": {"hospital_name": "MARIAN REGIONAL MEDICAL CENTER", "address": "1400 E CHURCH ST", "lat": 34.95098000000007, "lon": -120.41321999999997}, "050108": {"hospital_name": "SUTTER MEDICAL CENTER, SACRAMENTO", "address": "2825 CAPITOL AVENUE", "lat": 38.57031000000006, "lon": -121.46975999999995}, "050110": {"hospital_name": "LOMPOC VALLEY MEDICAL CENTER", "address": "1515 E OCEAN AVENUE", "lat": 34.640570000000025, "lon": -120.43991999999997}, "050112": {"hospital_name": "SANTA MONICA - UCLA MED CTR & ORTHOPAEDIC HOSPITAL", "address": "1250 16TH STREET", "lat": 34.027660000000026, "lon": -118.48625999999996}, "050113": {"hospital_name": "SAN MATEO MEDICAL CENTER", "address": "222 W 39TH AVE", "lat": 37.531130000000076, "lon": -122.29907999999995}, "050115": {"hospital_name": "PALOMAR HEALTH DOWNTOWN CAMPUS", "address": "555 EAST VALLEY PARKWAY", "lat": 40.70228000000003, "lon": -80.66645999999997}, "050116": {"hospital_name": "NORTHRIDGE HOSPITAL MEDICAL CENTER", "address": "18300 ROSCOE BLVD", "lat": 34.22062000000005, "lon": -118.53202999999996}, "050118": {"hospital_name": "DOCTORS HOSPITAL OF MANTECA", "address": "1205 E NORTH STREET", "lat": 37.80158000000006, "lon": -121.19751999999994}, "050121": {"hospital_name": "ADVENTIST HEALTH HANFORD", "address": "115 MALL DRIVE", "lat": 36.32373000000007, "lon": -119.66781999999995}, "050122": {"hospital_name": "DAMERON HOSPITAL", "address": "525 WEST ACACIA STREET", "lat": 37.961490000000026, "lon": -121.30099999999999}, "050124": {"hospital_name": "USC VERDUGO HILLS HOSPITAL", "address": "1812 VERDUGO BLVD", "lat": 34.20411000000007, "lon": -118.21586999999994}, "050125": {"hospital_name": "REGIONAL MEDICAL CENTER OF SAN JOSE", "address": "225 N JACKSON AVENUE", "lat": 36.72389000000004, "lon": -108.21729999999997}, "050126": {"hospital_name": "VALLEY PRESBYTERIAN HOSPITAL", "address": "15107 VANOWEN ST", "lat": 34.19494000000003, "lon": -118.46318999999994}, "050127": {"hospital_name": "WOODLAND MEMORIAL HOSPITAL", "address": "1325 COTTONWOOD STREET", "lat": 38.66483000000005, "lon": -121.79246999999998}, "050128": {"hospital_name": "TRI-CITY MEDICAL CENTER", "address": "4002 VISTA WAY", "lat": 33.18425000000008, "lon": -117.29177999999996}, "050129": {"hospital_name": "ST BERNARDINE MEDICAL CENTER", "address": "2101 N WATERMAN AVE", "lat": 34.13495000000006, "lon": -117.27602999999999}, "050131": {"hospital_name": "NOVATO COMMUNITY HOSPITAL", "address": "180 ROWLAND WAY", "lat": 38.09964000000008, "lon": -122.56033999999994}, "050132": {"hospital_name": "SAN GABRIEL VALLEY MEDICAL CENTER", "address": "438 W LAS TUNAS DRIVE", "lat": 34.10080000000005, "lon": -118.10586999999998}, "050133": {"hospital_name": "ADVENTIST HEALTH AND RIDEOUT", "address": "726 4TH ST", "lat": 39.133290000000045, "lon": -121.61350999999996}, "050135": {"hospital_name": "SOUTHERN CALIFORNIA HOSPITAL AT HOLLYWOOD", "address": "6245 DE LONGPRE AVE", "lat": 34.10156000000006, "lon": -118.33707999999996}, "050136": {"hospital_name": "PETALUMA VALLEY HOSPITAL", "address": "400 N MCDOWELL BLVD", "lat": 38.25455000000005, "lon": -122.63176999999996}, "050137": {"hospital_name": "KAISER FOUNDATION HOSPITAL - PANORAMA CITY", "address": "13652 CANTARA ST", "lat": 34.223020000000076, "lon": -118.44874999999996}, "050138": {"hospital_name": "KAISER FOUNDATION HOSPITAL - LOS ANGELES", "address": "4867 SUNSET BLVD", "lat": 34.05361000000005, "lon": -118.24549999999999}, "050139": {"hospital_name": "KAISER FOUNDATION HOSPITAL - DOWNEY", "address": "9333 IMPERIAL HIGHWAY", "lat": 33.94001, "lon": -118.13257}, "050140": {"hospital_name": "KAISER FOUNDATION HOSPITAL FONTANA", "address": "9961 SIERRA AVE", "lat": 34.09223, "lon": -117.43505}, "050145": {"hospital_name": "COMMUNITY HOSPITAL OF THE MONTEREY PENINSULA", "address": "23625 W R HOLMAN HIGHWAY", "lat": 36.57890000000003, "lon": -121.91361999999998}, "050146": {"hospital_name": "CITY OF HOPE HELFORD CLINICAL RESEARCH HOSPITAL", "address": "1500 E DUARTE ROAD", "lat": 48.249520000000075, "lon": -116.30701999999997}, "050149": {"hospital_name": "CALIFORNIA HOSPITAL MEDICAL CENTER LA", "address": "1401 SOUTH GRAND AVENUE", "lat": 34.03720000000004, "lon": -118.26561999999996}, "050150": {"hospital_name": "SIERRA NEVADA MEMORIAL HOSPITAL", "address": "155 GLASSON WAY", "lat": 39.228080000000034, "lon": -121.04719999999998}, "050152": {"hospital_name": "SAINT FRANCIS MEMORIAL HOSPITAL", "address": "900 HYDE ST", "lat": 45.48252000000008, "lon": -77.69472999999994}, "050158": {"hospital_name": "ENCINO HOSPITAL MEDICAL CENTER", "address": "16237 VENTURA BLVD", "lat": 34.15748000000008, "lon": -118.48671999999999}, "050159": {"hospital_name": "VENTURA COUNTY MEDICAL CENTER", "address": "300 HILLMONT AVENUE", "lat": 34.27716000000004, "lon": -119.25268999999997}, "050167": {"hospital_name": "SAN JOAQUIN GENERAL HOSPITAL", "address": "500 W HOSPITAL ROAD", "lat": 37.88664000000006, "lon": -121.28307999999998}, "050168": {"hospital_name": "PROVIDENCE ST. JUDE MEDICAL CENTER", "address": "101 E VALENCIA MESA DRIVE", "lat": 33.1723052382343, "lon": -96.63678556320785}, "050169": {"hospital_name": "PIH HEALTH HOSPITAL-WHITTIER", "address": "12401 WASHINGTON BLVD", "lat": 33.969790000000046, "lon": -118.04934999999995}, "050174": {"hospital_name": "SANTA ROSA MEMORIAL HOSPITAL", "address": "1165 MONTGOMERY DR", "lat": 38.44369000000006, "lon": -122.70137999999997}, "050179": {"hospital_name": "EMANUEL MEDICAL CENTER", "address": "825 DELBON AVE", "lat": 32.59257000000002, "lon": -82.34748999999994}, "050180": {"hospital_name": "JOHN MUIR MEDICAL CENTER - WALNUT CREEK CAMPUS", "address": "1601 YGNACIO VALLEY RD", "lat": 37.91304000000008, "lon": -122.04077999999998}, "050189": {"hospital_name": "GEORGE L MEE MEMORIAL HOSPITAL", "address": "300 CANAL STREET", "lat": 36.20622400000008, "lon": -121.132837}, "050191": {"hospital_name": "ST MARY MEDICAL CENTER", "address": "1050 LINDEN AVE", "lat": 41.51266000000004, "lon": -87.26124999999996}, "050192": {"hospital_name": "ADVENTIST HEALTH REEDLEY", "address": "372 W CYPRESS AVE", "lat": 36.59184700000003, "lon": -119.43735199999998}, "050194": {"hospital_name": "WATSONVILLE COMMUNITY HOSPITAL", "address": "75 NIELSON STREET", "lat": 36.926330000000064, "lon": -121.79366999999996}, "050195": {"hospital_name": "WASHINGTON HOSPITAL", "address": "2000 MOWRY AVE", "lat": 40.18390000000005, "lon": -80.24642999999998}, "050197": {"hospital_name": "SEQUOIA HOSPITAL", "address": "170 ALAMEDA DE LAS PULGAS", "lat": 37.48010000000005, "lon": -122.25392}, "050204": {"hospital_name": "PALMDALE REGIONAL MEDICAL CENTER", "address": "38600 MEDICAL CENTER DRIVE", "lat": 34.58369000000005, "lon": -118.14426999999995}, "050205": {"hospital_name": "GLENDORA OAKS BEHAVIORAL HEALTH HOSPITAL", "address": "150 WEST ROUTE 66", "lat": 36.99509000000006, "lon": -85.91046399999999}, "050211": {"hospital_name": "ALAMEDA HOSPITAL", "address": "2070 CLINTON AVENUE", "lat": 37.763190000000066, "lon": -122.25401999999997}, "050222": {"hospital_name": "SHARP CHULA VISTA MEDICAL CENTER", "address": "751 MEDICAL CENTER COURT", "lat": 32.61840900000004, "lon": -117.02224399999994}, "050224": {"hospital_name": "HOAG MEMORIAL HOSPITAL PRESBYTERIAN", "address": "ONE HOAG DRIVE", "lat": 35.081540000000075, "lon": -106.63535999999999}, "050226": {"hospital_name": "AHMC ANAHEIM REGIONAL MEDICAL CENTER", "address": "1111 W LA PALMA AVENUE", "lat": 33.84791000000007, "lon": -117.93454999999994}, "050228": {"hospital_name": "ZUCKERBERG SAN FRANCISCO GENERAL HOSP & TRAUMA CTR", "address": "1001 POTRERO AVENUE", "lat": 37.755386000000044, "lon": -122.40538699999996}, "050230": {"hospital_name": "GARDEN GROVE HOSPITAL & MEDICAL CENTER", "address": "12601 GARDEN GROVE BLVD", "lat": 33.77485000000007, "lon": -117.91303999999997}, "050231": {"hospital_name": "POMONA VALLEY HOSPITAL MEDICAL CENTER", "address": "1798 N GAREY AVE", "lat": 34.077090000000055, "lon": -117.75061999999997}, "050232": {"hospital_name": "FRENCH HOSPITAL MEDICAL CENTER", "address": "1911 JOHNSON AVE", "lat": 35.27838000000003, "lon": -120.65063999999995}, "050234": {"hospital_name": "SHARP CORONADO HOSPITAL AND HLTHCR CTR", "address": "250 PROSPECT PLACE", "lat": 32.69432000000006, "lon": -117.16790999999995}, "050235": {"hospital_name": "PROVIDENCE SAINT JOSEPH MEDICAL CTR", "address": "501 SOUTH BUENA VISTA STREET", "lat": 34.15600000000006, "lon": -118.32833999999997}, "050236": {"hospital_name": "ADVENTIST HEALTH SIMI VALLEY", "address": "2975 N SYCAMORE DR", "lat": 34.289190000000076, "lon": -118.74482999999998}, "050238": {"hospital_name": "METHODIST HOSPITAL OF SOUTHERN CA", "address": "300 W HUNTINGTON DR", "lat": 34.13402000000008, "lon": -118.04200999999995}, "050239": {"hospital_name": "GLENDALE ADVENTIST MEDICAL CENTER", "address": "1509 E WILSON TERRACE", "lat": 34.15232000000003, "lon": -118.22972999999996}, "050242": {"hospital_name": "DOMINICAN HOSPITAL", "address": "1555 SOQUEL DRIVE", "lat": 36.99016000000006, "lon": -121.98356999999999}, "050243": {"hospital_name": "DESERT REGIONAL MEDICAL CENTER", "address": "1150 NORTH INDIAN CANYON DRIVE", "lat": 33.83835000000005, "lon": -116.54483999999997}, "050245": {"hospital_name": "ARROWHEAD REGIONAL MEDICAL CENTER", "address": "400 NORTH PEPPER AVENUE", "lat": 34.074020000000075, "lon": -117.35179}, "050248": {"hospital_name": "NATIVIDAD MEDICAL CENTER", "address": "1441 CONSTITUTION BOULEVARD", "lat": 36.6974311, "lon": -121.6340251}, "050254": {"hospital_name": "MARSHALL MEDICAL CENTER", "address": "1100 MARSHALL WAY", "lat": 35.465230000000076, "lon": -86.78492999999997}, "050257": {"hospital_name": "GOOD SAMARITAN HOSPITAL", "address": "901 OLIVE DRIVE", "lat": 38.042340000000024, "lon": -84.50112999999999}, "050261": {"hospital_name": "SIERRA VIEW MEDICAL CENTER", "address": "465 W PUTNAM AVE", "lat": 36.068700000000035, "lon": -119.02726999999999}, "050262": {"hospital_name": "RONALD REAGAN U C L A MEDICAL CENTER", "address": "757 WESTWOOD PLAZA", "lat": 34.06619000000006, "lon": -118.44593999999995}, "050272": {"hospital_name": "REDLANDS COMMUNITY HOSPITAL", "address": "350 TERRACINA BLVD", "lat": 34.03678000000008, "lon": -117.20576999999997}, "050276": {"hospital_name": "CONTRA COSTA REGIONAL MEDICAL CENTER", "address": "2500 ALHAMBRA AVENUE", "lat": 38.00654000000003, "lon": -122.13310999999999}, "050278": {"hospital_name": "PROVIDENCE HOLY CROSS MEDICAL CENTER", "address": "15031 RINALDI ST", "lat": 34.280260000000055, "lon": -118.45999999999998}, "050279": {"hospital_name": "HI-DESERT MEDICAL CENTER", "address": "6601 WHITE FEATHER ROAD", "lat": 34.132580000000075, "lon": -116.27501999999998}, "050280": {"hospital_name": "MERCY MEDICAL CENTER REDDING", "address": "2175 ROSALINE AVE, CLAIRMONT HGTS", "lat": 40.57221000000004, "lon": -122.39540999999997}, "050281": {"hospital_name": "ALHAMBRA HOSPITAL MEDICAL CENTER", "address": "100 S RAYMOND AVE", "lat": 34.09048000000007, "lon": -118.14408999999995}, "050283": {"hospital_name": "STANFORD HEALTH CARE - VALLEYCARE", "address": "5555 WEST LAS POSITAS BOULEVARD", "lat": 37.704724000000056, "lon": -121.87268499999999}, "050289": {"hospital_name": "SETON MEDICAL CENTER", "address": "1900 SULLIVAN AVENUE", "lat": 37.679700000000025, "lon": -122.47432999999995}, "050290": {"hospital_name": "PROVIDENCE SAINT JOHN'S HEALTH CENTER", "address": "2121 SANTA MONICA BLVD", "lat": 34.03006000000005, "lon": -118.47832999999997}, "050291": {"hospital_name": "SUTTER SANTA ROSA REGIONAL HOSPITAL", "address": "30 MARK WEST SPRINGS ROAD", "lat": 38.49536000000006, "lon": -122.75144999999998}, "050292": {"hospital_name": "RIVERSIDE UNIVERSITY HEALTH SYSTEM-MEDICAL CENTER", "address": "26520 CACTUS AVENUE", "lat": 33.91190000000006, "lon": -117.19568999999996}, "050295": {"hospital_name": "MERCY HOSPITAL", "address": "2215 TRUXTUN AVENUE", "lat": 25.742110000000025, "lon": -80.21488999999997}, "050298": {"hospital_name": "BARSTOW COMMUNITY HOSPITAL", "address": "820 E MOUNTAIN VIEW STREET", "lat": 34.89243000000005, "lon": -117.01705999999996}, "050300": {"hospital_name": "ST MARY MEDICAL CENTER", "address": "18300 HIGHWAY 18", "lat": 41.51266000000004, "lon": -87.26124999999996}, "050301": {"hospital_name": "ADVENTIST HEALTH UKIAH VALLEY", "address": "275 HOSPITAL DRIVE", "lat": 39.15216000000004, "lon": -123.20273999999995}, "050305": {"hospital_name": "ALTA BATES SUMMIT MEDICAL CENTER - ALTA BATES CAMP", "address": "2450 ASHBY AVENUE", "lat": 37.85593000000006, "lon": -122.25730999999996}, "050308": {"hospital_name": "EL CAMINO HOSPITAL", "address": "2500 GRANT ROAD", "lat": 37.65925000000004, "lon": -122.43919999999997}, "050309": {"hospital_name": "SUTTER ROSEVILLE MEDICAL CENTER", "address": "ONE MEDICAL PLAZA", "lat": 38.76514000000003, "lon": -121.24978999999996}, "050313": {"hospital_name": "SUTTER TRACY COMMUNITY HOSPITAL", "address": "1420 NORTH TRACY BLVD", "lat": 37.74386000000004, "lon": -121.43397999999996}, "050315": {"hospital_name": "KERN MEDICAL CENTER", "address": "1700 MOUNT VERNON AVENUE", "lat": 35.63533000000007, "lon": -118.40678999999994}, "050320": {"hospital_name": "HIGHLAND HOSPITAL", "address": "1411 EAST 31ST STREET", "lat": 37.798280000000034, "lon": -122.23166999999995}, "050324": {"hospital_name": "SCRIPPS MEMORIAL HOSPITAL LA JOLLA", "address": "9888 GENESEE AVENUE", "lat": 32.88510000000008, "lon": -117.22367999999994}, "050327": {"hospital_name": "LOMA LINDA UNIVERSITY MEDICAL CENTER", "address": "11234 ANDERSON ST", "lat": 34.049840000000074, "lon": -117.26409999999998}, "050329": {"hospital_name": "CORONA REGIONAL MEDICAL CENTER", "address": "800 SOUTH MAIN STREET", "lat": 33.87303000000003, "lon": -117.56710999999996}, "050334": {"hospital_name": "SALINAS VALLEY MEMORIAL HOSPITAL", "address": "450 EAST ROMIE LANE", "lat": 36.65909000000005, "lon": -121.64628999999996}, "050335": {"hospital_name": "ADVENTIST HEALTH SONORA", "address": "1000 GREENLEY ROAD", "lat": 37.97756000000004, "lon": -120.37093999999996}, "050336": {"hospital_name": "ADVENTIST HEALTH LODI MEMORIAL", "address": "975 S FAIRMONT AVENUE", "lat": 38.11594000000008, "lon": -121.29630999999995}, "050342": {"hospital_name": "PIONEERS MEMORIAL HEALTHCARE DISTRICT", "address": "207 WEST LEGION ROAD", "lat": 32.95960000000008, "lon": -115.55403999999999}, "050348": {"hospital_name": "UNIVERSITY OF CALIFORNIA IRVINE MEDICAL CENTER", "address": "101 CITY DRIVE SOUTH", "lat": 33.649740000000065, "lon": -117.84232999999995}, "050350": {"hospital_name": "BEVERLY HOSPITAL", "address": "309 W BEVERLY BLVD", "lat": 34.015010000000075, "lon": -118.10062999999997}, "050351": {"hospital_name": "TORRANCE MEMORIAL MEDICAL CENTER", "address": "3330 LOMITA BLVD", "lat": 33.81093000000004, "lon": -118.34441999999996}, "050352": {"hospital_name": "BARTON MEMORIAL HOSPITAL", "address": "2170 SOUTH AVENUE", "lat": 38.91187000000008, "lon": -119.99655999999999}, "050353": {"hospital_name": "PROVIDENCE LITTLE COMPANY OF MARY MED CTR TORRANCE", "address": "4101 TORRANCE BLVD", "lat": 33.838910000000055, "lon": -118.35676999999998}, "050357": {"hospital_name": "GOLETA VALLEY COTTAGE HOSPITAL", "address": "351 S PATTERSON AVE", "lat": 34.433430000000044, "lon": -119.81037999999995}, "050360": {"hospital_name": "MARINHEALTH MEDICAL CENTER", "address": "250 BON AIR ROAD, PO BOX 8010", "lat": 37.947520000000054, "lon": -122.53544999999997}, "050367": {"hospital_name": "NORTHBAY MEDICAL CENTER", "address": "1200 B  GALE WILSON BLVD", "lat": 38.26174000000003, "lon": -122.04656999999997}, "050373": {"hospital_name": "LAC+USC MEDICAL CENTER", "address": "1200 N STATE ST, ROOM C2K100", "lat": 34.05737000000005, "lon": -118.20574999999997}, "050376": {"hospital_name": "LAC/HARBOR-UCLA MED CENTER", "address": "1000 W CARSON ST", "lat": 33.82979000000006, "lon": -118.29471999999998}, "050378": {"hospital_name": "PACIFICA HOSPITAL OF THE VALLEY", "address": "9449 SAN FERNANDO RD", "lat": 34.240180000000066, "lon": -118.39630999999997}, "050380": {"hospital_name": "GOOD SAMARITAN HOSPITAL", "address": "2425 SAMARITAN DRIVE", "lat": 38.042340000000024, "lon": -84.50112999999999}, "050382": {"hospital_name": "EMANATE HEALTH INTER-COMMUNITY HOSPITAL", "address": "210 W  SAN BERNARDINO ROAD", "lat": 34.08857000000006, "lon": -117.89290999999997}, "050390": {"hospital_name": "HEMET GLOBAL MEDICAL CENTER", "address": "1117 EAST DEVONSHIRE", "lat": 36.8584027, "lon": -76.3054313}, "050393": {"hospital_name": "PIH HOSPITAL - DOWNEY", "address": "11500 BROOKSHIRE AVENUE", "lat": 33.93443000000008, "lon": -118.13116999999994}, "050394": {"hospital_name": "COMMUNITY MEMORIAL HOSPITAL SAN BUENAVENTURA", "address": "147 N BRENT ST", "lat": 34.22102200000006, "lon": -119.17892799999998}, "050396": {"hospital_name": "SANTA BARBARA COTTAGE HOSPITAL", "address": "400 WEST PUEBLO", "lat": 34.42953000000006, "lon": -119.72332999999998}, "050407": {"hospital_name": "CHINESE HOSPITAL", "address": "845 JACKSON ST", "lat": 37.79556000000008, "lon": -122.40921999999995}, "050411": {"hospital_name": "KAISER FOUNDATION HOSPITAL - SOUTH BAY", "address": "25825 SOUTH VERMONT AVENUE", "lat": 37.6303566, "lon": -122.0950964}, "050414": {"hospital_name": "MERCY HOSPITAL OF FOLSOM", "address": "1650 CREEKSIDE DRIVE", "lat": 38.670390000000054, "lon": -121.14551999999998}, "050417": {"hospital_name": "SUTTER COAST HOSPITAL", "address": "800 E WASHINGTON BLVD", "lat": 41.774500000000046, "lon": -124.19398999999999}, "050423": {"hospital_name": "PALO VERDE HOSPITAL", "address": "250 NORTH FIRST STREET", "lat": 33.61269000000004, "lon": -114.59522999999996}, "050424": {"hospital_name": "SCRIPPS GREEN HOSPITAL", "address": "10666 NORTH TORREY PINES ROAD", "lat": 32.8963177, "lon": -117.2426391}, "050425": {"hospital_name": "KAISER FOUNDATION HOSPITAL - SACRAMENTO", "address": "2025 MORSE AVENUE", "lat": 38.62756555096197, "lon": -121.22416203297259}, "050426": {"hospital_name": "WEST ANAHEIM MEDICAL CENTER", "address": "3033 W ORANGE AVENUE", "lat": 33.82557000000003, "lon": -117.99494999999996}, "050438": {"hospital_name": "HUNTINGTON MEMORIAL HOSPITAL", "address": "100 W  CALIFORNIA BLVD", "lat": 34.13420000000008, "lon": -118.15396999999996}, "050441": {"hospital_name": "STANFORD HEALTH CARE", "address": "300 PASTEUR DRIVE", "lat": 37.43429000000003, "lon": -122.17689999999999}, "050444": {"hospital_name": "MERCY MEDICAL CENTER", "address": "333 MERCY AVENUE", "lat": 43.24159000000003, "lon": -123.36595999999997}, "050454": {"hospital_name": "UCSF MEDICAL CENTER", "address": "505 PARNASSUS AVE, BOX 0296", "lat": 29.711790000000065, "lon": -95.39314999999999}, "050455": {"hospital_name": "ADVENTIST HEALTH BAKERSFIELD", "address": "2615 CHESTER AVENUE", "lat": 35.38306000000006, "lon": -119.01916999999997}, "050457": {"hospital_name": "ST MARY'S MEDICAL CENTER", "address": "450 STANYAN ST", "lat": 26.756320000000073, "lon": -80.06325999999996}, "050464": {"hospital_name": "DOCTORS MEDICAL CENTER", "address": "1441 FLORIDA AVENUE", "lat": 26.533710000000042, "lon": 80.47813000000008}, "050468": {"hospital_name": "MEMORIAL HOSPITAL OF GARDENA", "address": "1145 W REDONDO BEACH BLVD", "lat": 33.89307000000008, "lon": -118.29504999999995}, "050471": {"hospital_name": "GOOD SAMARITAN HOSPITAL", "address": "1225 WILSHIRE BOULEVARD", "lat": 38.042340000000024, "lon": -84.50112999999999}, "050481": {"hospital_name": "WEST HILLS HOSPITAL & MEDICAL CENTER", "address": "7300 MEDICAL CENTER DR", "lat": 34.20301000000006, "lon": -118.62859999999995}, "050485": {"hospital_name": "LONG BEACH MEMORIAL MEDICAL CENTER", "address": "2801 ATLANTIC AVE", "lat": 33.80796000000004, "lon": -118.18846999999994}, "050488": {"hospital_name": "EDEN MEDICAL CENTER", "address": "20103 LAKE CHABOT ROAD", "lat": 37.69819000000007, "lon": -122.08947999999998}, "050492": {"hospital_name": "CLOVIS COMMUNITY MEDICAL CENTER", "address": "2755 HERNDON AVE", "lat": 36.83913000000007, "lon": -119.66059999999999}, "050496": {"hospital_name": "JOHN MUIR MEDICAL CENTER - CONCORD CAMPUS", "address": "2540 EAST ST", "lat": 37.98250000000007, "lon": -122.03320999999994}, "050498": {"hospital_name": "SUTTER AUBURN FAITH HOSPITAL", "address": "11815 EDUCATION STREET", "lat": 38.94520000000006, "lon": -121.10180999999994}, "050503": {"hospital_name": "SCRIPPS MEMORIAL HOSPITAL - ENCINITAS", "address": "354 SANTA FE DRIVE", "lat": 33.03726000000006, "lon": -117.28341999999998}, "050506": {"hospital_name": "SIERRA VISTA REGIONAL MEDICAL CENTER", "address": "1010 MURRAY ST", "lat": 35.291840000000036, "lon": -120.66648999999995}, "050510": {"hospital_name": "KAISER FOUNDATION HOSPITAL", "address": "99 MONTECILLO RD", "lat": 37.6303566, "lon": -122.0950964}, "050512": {"hospital_name": "KAISER FOUNDATION HOSPITAL - FREMONT", "address": "39400 PASEO PADRE PKWY", "lat": 37.54827, "lon": -121.98857}, "050515": {"hospital_name": "KAISER FOUNDATION HOSPITAL - ZION", "address": "4647 ZION AVE", "lat": 41.4035547, "lon": -81.7744993}, "050516": {"hospital_name": "MERCY SAN JUAN MEDICAL CENTER", "address": "6501 COYLE AVE", "lat": 38.66955000000007, "lon": -121.31376999999998}, "050517": {"hospital_name": "VICTOR VALLEY GLOBAL MEDICAL CENTER", "address": "15248 11TH ST", "lat": 34.52816000000007, "lon": -117.29390999999998}, "050523": {"hospital_name": "SUTTER DELTA MEDICAL CENTER", "address": "3901 LONE TREE WAY", "lat": 37.98288000000008, "lon": -121.80286999999998}, "050526": {"hospital_name": "HUNTINGTON BEACH HOSPITAL", "address": "17772 BEACH BLVD", "lat": 33.70399000000003, "lon": -117.98773999999997}, "050528": {"hospital_name": "MEMORIAL HOSPITAL LOS BANOS", "address": "520 WEST I ST", "lat": 37.064050000000066, "lon": -120.85947999999996}, "050534": {"hospital_name": "JOHN F KENNEDY MEMORIAL HOSPITAL", "address": "47111 MONROE STREET", "lat": 33.70676000000003, "lon": -116.23401999999999}, "050537": {"hospital_name": "SUTTER DAVIS HOSPITAL", "address": "2000 SUTTER PLACE", "lat": 38.562850000000026, "lon": -121.77129999999994}, "050541": {"hospital_name": "KAISER FOUNDATION HOSPITAL - REDWOOD CITY", "address": "1100 VETERANS BOULEVARD", "lat": 37.484500000000025, "lon": -122.22771999999998}, "050543": {"hospital_name": "COLLEGE HOSPITAL COSTA MESA", "address": "301 VICTORIA STREET", "lat": 33.653425797202054, "lon": -117.91625414941147}, "050546": {"hospital_name": "PORTERVILLE DEVELOPMENTAL CENTER", "address": "26501 AVENUE 140", "lat": 36.061547000000076, "lon": -119.02271799999994}, "050549": {"hospital_name": "LOS ROBLES HOSPITAL & MEDICAL CENTER", "address": "215 W JANSS RD", "lat": 34.207280000000026, "lon": -118.88341999999994}, "050551": {"hospital_name": "LOS ALAMITOS MEDICAL CENTER", "address": "3751 KATELLA AVENUE", "lat": 33.80439000000007, "lon": -118.06661999999994}, "050557": {"hospital_name": "MEMORIAL MEDICAL CENTER", "address": "1700 COFFEE RD", "lat": 28.620510000000024, "lon": -96.63200999999998}, "050561": {"hospital_name": "KAISER FOUNDATION HOSPITAL - WEST LA", "address": "6041 CADILLAC AVE", "lat": 37.6303566, "lon": -122.0950964}, "050567": {"hospital_name": "PROVIDENCE MISSION HOSPITAL", "address": "27700 MEDICAL CENTER RD", "lat": 35.31931000000003, "lon": -80.66534999999999}, "050568": {"hospital_name": "MADERA COMMUNITY HOSPITAL", "address": "1250 E ALMOND AVE", "lat": 36.944810000000075, "lon": -120.04368999999997}, "050570": {"hospital_name": "FOUNTAIN VALLEY REGIONAL HOSPITAL & MEDICAL CENTER", "address": "17100 EUCLID STREET", "lat": 33.715040000000045, "lon": -117.93591999999995}, "050573": {"hospital_name": "EISENHOWER MEDICAL CENTER", "address": "39-000 BOB HOPE DRIVE", "lat": 33.764650000000074, "lon": -116.40554999999995}, "050580": {"hospital_name": "LA PALMA INTERCOMMUNITY HOSPITAL", "address": "7901 WALKER STREET", "lat": 33.84752000000003, "lon": -118.03842999999995}, "050581": {"hospital_name": "LAKEWOOD REGIONAL MEDICAL CENTER", "address": "3700 E SOUTH ST", "lat": 33.85978000000006, "lon": -118.14823999999999}, "050586": {"hospital_name": "CHINO VALLEY MEDICAL CENTER", "address": "5451 WALNUT AVE", "lat": 34.02561000000003, "lon": -117.68581999999998}, "050588": {"hospital_name": "SAN DIMAS COMMUNITY HOSPITAL", "address": "1350 W COVINA BLVD", "lat": 34.09803000000005, "lon": -117.83472999999998}, "050589": {"hospital_name": "PLACENTIA LINDA HOSPITAL", "address": "1301 N ROSE DRIVE", "lat": 33.88712000000004, "lon": -117.84256999999997}, "050590": {"hospital_name": "METHODIST HOSPITAL OF SACRAMENTO", "address": "7500 HOSPITAL DRIVE", "lat": 38.46357000000006, "lon": -121.41592999999995}, "050597": {"hospital_name": "EMANATE HEALTH FOOTHILL PRESBYTERIAN HOSPITAL", "address": "250 S GRAND AVE", "lat": 34.13289000000003, "lon": -117.87123999999994}, "050599": {"hospital_name": "UNIVERSITY OF CALIFORNIA DAVIS MEDICAL CENTER", "address": "2315 STOCKTON BOULEVARD", "lat": 38.554440000000056, "lon": -121.45736}, "050603": {"hospital_name": "MEMORIALCARE SADDLEBACK MEDICAL CENTER", "address": "24451 HEALTH CENTER DRIVE", "lat": 33.60854000000006, "lon": -117.70871999999997}, "050604": {"hospital_name": "KAISER FOUNDATION HOSPITAL-SAN JOSE", "address": "250 HOSPITAL PARKWAY", "lat": 41.4035547, "lon": -81.7744993}, "050608": {"hospital_name": "ADVENTIST HEALTH DELANO", "address": "1401 GARCES HIGHWAY", "lat": 29.043888000000038, "lon": -81.31746499999997}, "050609": {"hospital_name": "KAISER FOUNDATION HOSPITAL - ORANGE COUNTY - ANAHE", "address": "3440 E LA PALMA AVE", "lat": 36.06139728900007, "lon": -79.12059534399998}, "050616": {"hospital_name": "ST JOHNS PLEASANT VALLEY HOSPITAL", "address": "2309 ANTONIO AVE", "lat": 34.243580000000065, "lon": -119.01990999999998}, "050624": {"hospital_name": "HENRY MAYO NEWHALL  HOSPITAL", "address": "23845  MCBEAN PKWY", "lat": 34.39779000000004, "lon": -118.55376999999999}, "050625": {"hospital_name": "CEDARS-SINAI MEDICAL CENTER", "address": "8700 BEVERLY BLVD", "lat": 34.075270000000046, "lon": -118.38061999999996}, "050633": {"hospital_name": "TWIN CITIES COMMUNITY HOSPITAL", "address": "1100 LAS TABLAS RD", "lat": 35.55535000000003, "lon": -120.72065999999995}, "050636": {"hospital_name": "PALOMAR MEDICAL CENTER POWAY", "address": "15615 POMERADO ROAD", "lat": 32.99649000000005, "lon": -117.05727999999999}, "050641": {"hospital_name": "EAST LOS ANGELES DOCTORS HOSPITAL", "address": "4060 WHITTIER BLVD", "lat": 34.02371000000005, "lon": -118.18403999999998}, "050660": {"hospital_name": "USC KENNETH NORRIS JR CANCER HOSPITAL", "address": "1441 EASTLAKE AVE", "lat": 34.06156370946915, "lon": -118.20461264188903}, "050663": {"hospital_name": "LOS ANGELES COMMUNITY HOSPITAL", "address": "4081 E OLYMPIC BLVD", "lat": 34.01941000000005, "lon": -118.18672999999995}, "050668": {"hospital_name": "LAGUNA HONDA HOSPITAL & REHABILITATION CENTER", "address": "375 LAGUNA HONDA BLVD", "lat": 37.74903900000004, "lon": -122.45690499999995}, "050674": {"hospital_name": "KAISER FOUNDATION HOSP SO SACRAMENTO", "address": "6600 BRUCEVILLE ROAD", "lat": 38.62756555096197, "lon": -121.22416203297259}, "050677": {"hospital_name": "KAISER FOUNDATION HOSPITAL - WOODLAND HILLS", "address": "5601 DE SOTO AVENUE", "lat": 34.16889000000003, "lon": -118.61147999999997}, "050678": {"hospital_name": "MEMORIALCARE ORANGE COAST MEDICAL CENTER", "address": "9920 TALBERT AVENUE", "lat": 33.69983000000008, "lon": -117.95634999999999}, "050684": {"hospital_name": "MENIFEE GLOBAL MEDICAL CENTER", "address": "28400 MCCALL BOULEVARD", "lat": 36.8584027, "lon": -76.3054313}, "050686": {"hospital_name": "KAISER FOUNDATION HOSPITAL, RIVERSIDE", "address": "10800 MAGNOLIA AVENUE", "lat": 33.98171000000008, "lon": -117.37403999999998}, "050689": {"hospital_name": "SAN RAMON REGIONAL MEDICAL CENTER", "address": "6001 NORRIS CANYON ROAD", "lat": 37.77607000000006, "lon": -121.95829999999995}, "050690": {"hospital_name": "KAISER FOUNDATION HOSPITAL-SANTA ROSA", "address": "401 BICENTENNIAL WAY", "lat": 38.44047, "lon": -122.71443}, "050696": {"hospital_name": "KECK HOSPITAL OF USC", "address": "1500 SAN PABLO STREET", "lat": 34.0627257, "lon": -118.2018882}, "050697": {"hospital_name": "PATIENTS' HOSPITAL OF REDDING", "address": "2900 EUREKA WAY", "lat": 40.587600000000066, "lon": -122.39254999999997}, "050701": {"hospital_name": "SOUTHWEST HEALTHCARE SYSTEM", "address": "25500 MEDICAL CENTER DRIVE", "lat": 33.59146000000004, "lon": -117.23787999999996}, "050704": {"hospital_name": "MISSION COMMUNITY HOSPITAL", "address": "14850 ROSCOE BLVD", "lat": 34.22041000000007, "lon": -118.45667999999995}, "050708": {"hospital_name": "FRESNO SURGICAL HOSPITAL", "address": "6125 NORTH FRESNO ST", "lat": 36.8599472, "lon": -119.7883603}, "050709": {"hospital_name": "DESERT VALLEY HOSPITAL", "address": "16850 BEAR VALLEY RD", "lat": 34.471610000000055, "lon": -117.29782999999998}, "050710": {"hospital_name": "KAISER FOUNDATION HOSPITAL - FRESNO", "address": "7300 NORTH FRESNO ST", "lat": 36.74773, "lon": -119.77237}, "050714": {"hospital_name": "SUTTER MATERNITY & SURGERY CENTER OF SANTA CRUZ", "address": "2900 CHANTICLEER AVENUE", "lat": 36.9880172, "lon": -121.9774476}, "050717": {"hospital_name": "LAC/RANCHO LOS AMIGOS NATIONAL REHABILITATION  CTR", "address": "7601 EAST IMPERIAL HIGHWAY", "lat": 33.92718000000008, "lon": -118.15749999999997}, "050723": {"hospital_name": "KAISER FOUNDATION HOSPITAL - BALDWIN PARK", "address": "1011 BALDWIN PARK BLVD", "lat": 34.08536000000004, "lon": -117.96034999999995}, "050724": {"hospital_name": "BAKERSFIELD HEART HOSPITAL", "address": "3001 SILLECT AVENUE", "lat": 35.385200000000054, "lon": -119.03995999999995}, "050726": {"hospital_name": "STANISLAUS SURGICAL HOSPITAL", "address": "1421 OAKDALE ROAD", "lat": 37.6644732, "lon": -120.9583951}, "050732": {"hospital_name": "FRESNO HEART AND SURGICAL HOSPITAL", "address": "15 EAST AUDUBON DRIVE", "lat": 36.8599472, "lon": -119.7883603}, "050735": {"hospital_name": "WHITTIER HOSPITAL MEDICAL CENTER", "address": "9080 COLIMA RD", "lat": 33.95037000000008, "lon": -118.00460999999996}, "050736": {"hospital_name": "MONTEREY PARK HOSPITAL", "address": "900 S ATLANTIC BLVD", "lat": 34.049570000000074, "lon": -118.13851999999997}, "050737": {"hospital_name": "GARFIELD MEDICAL CENTER", "address": "525 N GARFIELD AVE", "lat": 34.068520000000035, "lon": -118.12380999999999}, "050738": {"hospital_name": "GREATER EL MONTE COMMUNITY HOSPITAL", "address": "1701 SANTA ANITA AVE", "lat": 34.04776000000004, "lon": -118.04342999999994}, "050739": {"hospital_name": "CENTINELA HOSPITAL MEDICAL CENTER", "address": "555 EAST HARDY STREET", "lat": 33.95076000000006, "lon": -118.34826999999996}, "050740": {"hospital_name": "CEDAR-SINAI MARINA DEL REY HOSPITAL", "address": "4650 LINCOLN BLVD", "lat": 33.98174000000006, "lon": -118.44002999999998}, "050742": {"hospital_name": "OLYMPIA MEDICAL CENTER", "address": "5900 WEST OLYMPIC BOULEVARD", "lat": 34.05716000000007, "lon": -118.36050999999998}, "050744": {"hospital_name": "ANAHEIM GLOBAL MEDICAL CENTER", "address": "1025 S ANAHEIM BLVD", "lat": 33.819660000000056, "lon": -117.90968999999996}, "050745": {"hospital_name": "CHAPMAN GLOBAL MEDICAL CENTER", "address": "2601 E CHAPMAN AVE", "lat": 33.78855000000004, "lon": -117.82635999999997}, "050746": {"hospital_name": "ORANGE COUNTY GLOBAL MEDICAL CENTER", "address": "1001 NORTH TUSTIN AVENUE", "lat": 33.75520000000006, "lon": -117.83303999999998}, "050747": {"hospital_name": "SOUTH COAST GLOBAL MEDICAL CENTER", "address": "2701 S BRISTOL ST", "lat": 33.71109000000007, "lon": -117.88426999999996}, "050748": {"hospital_name": "KAISER FOUNDATION HOSPITAL MANTECA", "address": "1777 WEST YOSEMITE AVE", "lat": 37.79743, "lon": -121.21605}, "050755": {"hospital_name": "SHERMAN OAKS HOSPITAL", "address": "4929 VAN NUYS BLVD", "lat": 34.16026000000005, "lon": -118.44889999999998}, "050757": {"hospital_name": "ALVARADO HOSPITAL MEDICAL CENTER", "address": "6655 ALVARADO ROAD", "lat": 32.776290000000074, "lon": -117.05729999999994}, "050758": {"hospital_name": "MONTCLAIR HOSPITAL MEDICAL CENTER", "address": "5000 SAN BERNARDINO ST", "lat": 34.07863000000003, "lon": -117.69554}, "050760": {"hospital_name": "KAISER FOUNDATION HOSPITAL - ANTIOCH", "address": "4501 SAND CREEK ROAD", "lat": 37.951424944005296, "lon": -121.77664502142466}, "050761": {"hospital_name": "PROVIDENCE-CEDARS SINAI TARZANA MEDICAL CENTER", "address": "18321 CLARK STREET", "lat": 33.1723052382343, "lon": -96.63678556320785}, "050763": {"hospital_name": "L A DOWNTOWN MEDICAL CENTER, LLC", "address": "1711 WEST TEMPLE STREET", "lat": 34.06966499021757, "lon": -118.26244810566635}, "050764": {"hospital_name": "SHASTA REGIONAL MEDICAL CENTER", "address": "1100 BUTTE ST", "lat": 40.58562000000006, "lon": -122.38772999999998}, "050765": {"hospital_name": "KAISER FOUNDATION HOSPITAL-MORENO VALLEY", "address": "27300 IRIS AVENUE", "lat": 33.916840000000036, "lon": -117.26112999999998}, "050766": {"hospital_name": "SUTTER SURGICAL HOSPITAL - NORTH VALLEY", "address": "455 PLUMAS BLVD", "lat": 33.996500000000026, "lon": -83.42404999999997}, "050767": {"hospital_name": "KAISER FOUNDATION HOSPITAL - VACAVILLE", "address": "1 QUALITY DRIVE", "lat": 38.35218000000003, "lon": -121.99262999999996}, "050769": {"hospital_name": "HOAG ORTHOPEDIC INSTITUTE", "address": "16250 SAND CANYON AVENUE", "lat": 33.660970329719085, "lon": -117.77136506150039}, "050770": {"hospital_name": "LOMA LINDA UNIVERSITY MEDICAL CENTER-MURRIETA", "address": "28062 BAXTER ROAD", "lat": 33.61471000000006, "lon": -117.16999999999996}, "050771": {"hospital_name": "COAST PLAZA HOSPITAL", "address": "13100 STUDERBAKER ROAD", "lat": 33.91255000000007, "lon": -118.09844999999996}, "050772": {"hospital_name": "KAISER FOUNDATION HOSPITAL - ROSEVILLE", "address": "1600 EUREKA ROAD", "lat": 39.3481961115583, "lon": -76.47667361654386}, "050775": {"hospital_name": "TEMECULA VALLEY HOSPITAL", "address": "31700 TEMECULA PKWY", "lat": 33.48049000000003, "lon": -117.10597999999999}, "050776": {"hospital_name": "COLLEGE MEDICAL CENTER", "address": "2776 PACIFIC AVENUE", "lat": 33.80732000000006, "lon": -118.19303999999994}, "050777": {"hospital_name": "KAISER FOUNDATION HOSPITAL - SAN LEANDRO", "address": "2500 MERCED STREET", "lat": 37.72832000000005, "lon": -122.15855999999997}, "050778": {"hospital_name": "LOMA LINDA UNIVERSITY CHILDREN'S HOSPITAL", "address": "11234 ANDERSON STREET SUITE A", "lat": 34.0491211, "lon": -117.263821}, "050779": {"hospital_name": "MARTIN LUTHER KING, JR. COMMUNITY HOSPITAL", "address": "1680 EAST 120TH STREET", "lat": 33.923290000000065, "lon": -118.24328999999994}, "050780": {"hospital_name": "FOOTHILL REGIONAL MEDICAL CENTER", "address": "14662 NEWPORT AVE", "lat": 33.73032600000005, "lon": -117.82858699999997}, "050782": {"hospital_name": "CASA COLINA HOSPITAL", "address": "255 E BONITA AVE", "lat": 34.0973853, "lon": -117.7469736}, "050783": {"hospital_name": "COLUSA MEDICAL CENTER", "address": "199 E WEBSTER STREET", "lat": 39.20633600000008, "lon": -122.00068399999998}, "050784": {"hospital_name": "ADVENTIST HEALTH TULARE", "address": "869 NORTH CHERRY STREET", "lat": 36.22112000000004, "lon": -119.33870999999999}, "051300": {"hospital_name": "EASTERN PLUMAS HOSPITAL - PORTOLA CAMPUS", "address": "500 FIRST AVENUE", "lat": 39.805513000000076, "lon": -120.46285599999999}, "051301": {"hospital_name": "ADVENTIST HEALTH TEHACHAPI VALLEY", "address": "1100 MAGELLAN", "lat": 35.147170000000074, "lon": -118.45038999999997}, "051302": {"hospital_name": "SOUTHERN INYO HOSPITAL", "address": "501 EAST LOCUST STREET", "lat": 36.60908900000004, "lon": -118.05803399999996}, "051303": {"hospital_name": "MAMMOTH HOSPITAL", "address": "85 SIERRA PARK ROAD PO BOX 660", "lat": 37.64364000000006, "lon": -118.96207999999996}, "051304": {"hospital_name": "JOHN C FREMONT HEALTHCARE DISTRICT", "address": "5189 HOSPITAL ROAD", "lat": 37.50039000000004, "lon": -119.97766999999999}, "051305": {"hospital_name": "MAYERS MEMORIAL HOSPITAL", "address": "43563 HWY 299 EAST", "lat": 41.02356800000007, "lon": -121.42388199999999}, "051306": {"hospital_name": "GLENN MEDICAL CENTER", "address": "1133 W SYCAMORE ST", "lat": 39.521150000000034, "lon": -122.20813999999996}, "051307": {"hospital_name": "CATALINA ISLAND MEDICAL CENTER", "address": "100 FALLS CANYON ROAD", "lat": 33.339240000000075, "lon": -118.33073999999999}, "051308": {"hospital_name": "SURPRISE VALLEY COMMUNITY HOSPITAL", "address": "741 NORTH MAIN STREET", "lat": 41.531367000000046, "lon": -120.17143399999998}, "051309": {"hospital_name": "JEROLD PHELPS COMMUNITY HOSPITAL", "address": "733 CEDAR ST", "lat": 40.10157000000004, "lon": -123.79243999999994}, "051310": {"hospital_name": "ADVENTIST HEALTH HOWARD MEMORIAL", "address": "1 MARCELA DR", "lat": 39.38997000000006, "lon": -123.33932999999996}, "051311": {"hospital_name": "ORCHARD HOSPITAL", "address": "240 SPRUCE STREET", "lat": 39.36769000000004, "lon": -121.68954999999994}, "051312": {"hospital_name": "MOUNTAINS COMMUNITY HOSPITAL", "address": "29101 HOSPITAL ROAD", "lat": 34.265450000000044, "lon": -117.1685}, "051314": {"hospital_name": "KERN VALLEY HEALTHCARE DISTRICT", "address": "6412 LAUREL AVE", "lat": 35.63533000000007, "lon": -118.40678999999994}, "051315": {"hospital_name": "TRINITY HOSPITAL", "address": "60 EASTER AVENUE", "lat": 40.73838000000006, "lon": -122.93964999999997}, "051316": {"hospital_name": "FAIRCHILD MEDICAL CENTER", "address": "444 BRUCE STREET", "lat": 41.719490000000064, "lon": -122.64579999999995}, "051317": {"hospital_name": "ADVENTIST HEALTH CLEARLAKE", "address": "15630 18TH AVE - HWY 53", "lat": 38.93532000000005, "lon": -122.62011999999999}, "051318": {"hospital_name": "REDWOOD MEMORIAL HOSPITAL", "address": "3300 RENNER DRIVE", "lat": 40.58232000000004, "lon": -124.13651999999996}, "051319": {"hospital_name": "MERCY MEDICAL CENTER MT SHASTA", "address": "914 PINE STREET", "lat": 41.31899000000004, "lon": -122.32305999999994}, "051320": {"hospital_name": "BANNER LASSEN MEDICAL CENTER", "address": "1800 SPRING RIDGE DRIVE", "lat": 40.43694000000005, "lon": -120.62725999999998}, "051321": {"hospital_name": "HEALDSBURG DISTRICT HOSPITAL", "address": "1375 UNIVERSITY AVENUE", "lat": 38.62704000000008, "lon": -122.86486999999994}, "051323": {"hospital_name": "COLORADO RIVER MEDICAL CENTER", "address": "1401 BAILEY AVE", "lat": 34.83269000000007, "lon": -114.61767999999995}, "051324": {"hospital_name": "NORTHERN INYO HOSPITAL", "address": "150 PIONEER LANE", "lat": 37.362089, "lon": -118.4060241}, "051325": {"hospital_name": "MENDOCINO COAST DISTRICT HOSPITAL", "address": "700 RIVER DRIVE", "lat": 39.43175000000008, "lon": -123.80057999999997}, "051326": {"hospital_name": "PLUMAS DISTRICT HOSPITAL", "address": "1065 BUCKS LAKE ROAD", "lat": 39.939320000000066, "lon": -120.96209999999996}, "051327": {"hospital_name": "SENECA DISTRICT HOSPITAL", "address": "130 BRENTWOOD DRIVE", "lat": 40.305716000000075, "lon": -121.23475899999994}, "051328": {"hospital_name": "TAHOE FOREST HOSPITAL", "address": "10121 PINE AVE", "lat": 39.325293000000045, "lon": -120.20069099999995}, "051329": {"hospital_name": "SUTTER LAKESIDE HOSPITAL", "address": "5176 HILL ROAD EAST", "lat": 39.10448000000008, "lon": -122.90719999999999}, "051330": {"hospital_name": "MODOC MEDICAL CENTER", "address": "228 W MCDOWELL AVE", "lat": 41.47995000000003, "lon": -120.54550999999998}, "051331": {"hospital_name": "SANTA YNEZ VALLEY COTTAGE HOSPITAL", "address": "2050 VIBORG RD", "lat": 34.60209000000003, "lon": -120.12591999999995}, "051332": {"hospital_name": "MARK TWAIN MEDICAL CENTER", "address": "768 MOUNTAIN RANCH RD", "lat": 38.19020000000006, "lon": -120.66999999999996}, "051333": {"hospital_name": "RIDGECREST REGIONAL HOSPITAL", "address": "1081 NORTH CHINA LAKE BLVD", "lat": 35.64085000000006, "lon": -117.67117999999999}, "051334": {"hospital_name": "OJAI VALLEY COMMUNITY HOSPITAL", "address": "1306 MARICOPA HWY", "lat": 34.44288000000006, "lon": -119.26446999999996}, "051335": {"hospital_name": "BEAR VALLEY COMMUNITY HOSPITAL", "address": "41870 GARSTIN DR", "lat": 34.24652000000003, "lon": -116.88827999999995}, "051336": {"hospital_name": "GEORGE L MEE MEMORIAL HOSPITAL", "address": "300 CANAL STREET", "lat": 36.20622400000008, "lon": -121.132837}, "051337": {"hospital_name": "HAZEL HAWKINS MEMORIAL HOSPITAL", "address": "911 SUNSET DRIVE", "lat": 36.83492000000007, "lon": -121.38623999999999}, "052031": {"hospital_name": "BARLOW RESPIRATORY HOSPITAL", "address": "2000 STADIUM WAY", "lat": 34.0758442, "lon": -118.2481296}, "052032": {"hospital_name": "KINDRED HOSPITAL - LOS ANGELES", "address": "5525  W SLAUSON AVENUE", "lat": 34.58373020689931, "lon": -118.14709055877618}, "052033": {"hospital_name": "VIBRA HOSPITAL OF SACRAMENTO", "address": "330 MONTROSE DRIVE", "lat": 38.46423004682373, "lon": -121.41602041402463}, "052034": {"hospital_name": "KINDRED HOSPITAL - SAN FRANCISCO BAY AREA", "address": "2800 BENEDICT DRIVE", "lat": 37.773567707217516, "lon": -121.95691303036081}, "052035": {"hospital_name": "KINDRED HOSPITAL WESTMINSTER", "address": "200 HOSPITAL CIRCLE", "lat": 33.762378762872395, "lon": -117.9952223627427}, "052036": {"hospital_name": "KINDRED HOSPITAL - SAN DIEGO", "address": "1940 EL CAJON BLVD", "lat": 32.7563373, "lon": -117.1443989}, "052037": {"hospital_name": "KINDRED HOSPITAL ONTARIO", "address": "550 NORTH MONTEREY", "lat": 48.14994220239793, "lon": -80.03089458525146}, "052038": {"hospital_name": "KINDRED HOSPITAL -- LA MIRADA", "address": "14900 E IMPERIAL HWY", "lat": 33.91724, "lon": -118.01201}, "052039": {"hospital_name": "KINDRED HOSPITAL BREA", "address": "875 N BREA BLVD", "lat": 33.934435000000065, "lon": -117.89391499999999}, "052043": {"hospital_name": "KENTFIELD HOSPITAL", "address": "1125 SIR FRANCIS DRAKE BLVD", "lat": 37.947520000000054, "lon": -122.53544999999997}, "052044": {"hospital_name": "VIBRA HOSPITAL OF SAN DIEGO", "address": "555 WASHINGTON STREET", "lat": 32.71533, "lon": -117.15726}, "052045": {"hospital_name": "KINDRED HOSPITAL BALDWIN PARK", "address": "14148 FRANCISQUITO AVENUE", "lat": 34.08536000000004, "lon": -117.96034999999995}, "052046": {"hospital_name": "KINDRED HOSPITAL PARAMOUNT", "address": "16453  COLORADO AVENUE", "lat": 33.88946, "lon": -118.15979}, "052047": {"hospital_name": "VIBRA HOSPITAL OF NORTHERN CALIFORNIA", "address": "2801 EUREKA WAY", "lat": 37.36957300000006, "lon": -122.08104699999996}, "052049": {"hospital_name": "KINDRED HOSPITAL RANCHO", "address": "10841 WHITE OAK AVENUE", "lat": 34.1036866, "lon": -117.5663151}, "052050": {"hospital_name": "KINDRED HOSPITAL SOUTH BAY", "address": "1246 WEST 155TH STREET", "lat": 26.00988200000006, "lon": -80.14411399999995}, "052052": {"hospital_name": "KINDRED HOSPITAL RIVERSIDE", "address": "2224 MEDICAL CENTER DRIVE", "lat": 41.77576481531819, "lon": -71.33814180978685}, "052054": {"hospital_name": "MONROVIA MEMORIAL HOSPITAL", "address": "323 SOUTH HELIOTROPE AVENUE", "lat": 37.91938000000005, "lon": -89.81138999999996}, "052055": {"hospital_name": "CENTRAL VALLEY SPECIALTY HOSPITAL", "address": "730 17TH STREET", "lat": 37.6435415, "lon": -120.990767}, "052057": {"hospital_name": "SONOMA SPECIALTY HOSPITAL", "address": "501 PETALUMA AVENUE", "lat": 38.397333872328765, "lon": -122.8186037914882}, "053300": {"hospital_name": "VALLEY CHILDREN'S HOSPITAL", "address": "9300 VALLEY CHILDRENS PLACE", "lat": 36.88414000000006, "lon": -119.80102}, "053301": {"hospital_name": "UCSF BENIOFF CHILDREN'S HOSPITAL OAKLAND", "address": "747 52ND STREET", "lat": 37.83686000000006, "lon": -122.26705999999996}, "053302": {"hospital_name": "CHILDREN'S HOSP OF LOS ANGELES", "address": "4650 SUNSET BLVD, MS 108", "lat": 34.09787000000006, "lon": -118.29062999999996}, "053303": {"hospital_name": "RADY CHILDREN'S HOSPITAL - SAN DIEGO", "address": "3020 CHILDRENS WAY", "lat": 32.79849000000007, "lon": -117.15216999999996}, "053304": {"hospital_name": "CHILDREN'S HOSPITAL OF ORANGE COUNTY", "address": "1201 W LA VETA AVE", "lat": 28.37639000000007, "lon": -81.27325999999994}, "053305": {"hospital_name": "LUCILE SALTER PACKARD CHILDREN'S HSP AT STANFORD", "address": "725 WELCH ROAD", "lat": 37.43137000000007, "lon": -122.16891999999996}, "053306": {"hospital_name": "CHILDREN'S HOSPITAL AT MISSION", "address": "27700 MEDICAL CENTER RD, 5TH FLOOR", "lat": 39.02778, "lon": -94.65579}, "053308": {"hospital_name": "HEALTHBRIDGE CHILDREN'S HOSPITAL - ORANGE", "address": "393 S TUSTIN STREET", "lat": 33.78269800000004, "lon": -117.83388999999994}, "053309": {"hospital_name": "MEMORIAL CARE MILLER CHILDREN'S &  WOMEN'S HOSP LB", "address": "2801 ATLANTIC AVENUE", "lat": 33.80776000000003, "lon": -118.18682999999999}, "053311": {"hospital_name": "SHRINERS HOSPITALS FOR CHILDREN NORTHERN CALIF", "address": "2425 STOCKTON BOULEVARD", "lat": 38.030567000000076, "lon": -84.51016599999997}, "05T485": {"hospital_name": "MEMORIACARE LONG BEACH MEDICAL CENTER", "address": "2801 ATLANTIC AVENUE", "lat": 33.80776000000003, "lon": -118.18682999999999}, "060001": {"hospital_name": "NORTH COLORADO MEDICAL CENTER", "address": "1801 - 16TH ST", "lat": 40.414810000000045, "lon": -104.70890999999995}, "060003": {"hospital_name": "LONGMONT UNITED HOSPITAL", "address": "1950 MOUNTAIN VIEW AVE", "lat": 40.18225000000007, "lon": -105.12572999999998}, "060004": {"hospital_name": "PLATTE VALLEY MEDICAL CENTER", "address": "1600 PRAIRIE CENTER PKWY", "lat": 39.96438000000006, "lon": -104.76895999999999}, "060006": {"hospital_name": "MONTROSE MEMORIAL HOSPITAL", "address": "800 S 3RD ST", "lat": 38.48007000000007, "lon": -107.86894999999998}, "060008": {"hospital_name": "SAN LUIS VALLEY HEALTH", "address": "106 BLANCA AVE", "lat": 37.27493400000003, "lon": -105.95845099999997}, "060009": {"hospital_name": "LUTHERAN MEDICAL CENTER", "address": "8300 W 38TH AVE", "lat": 39.76783000000006, "lon": -105.08891999999997}, "060010": {"hospital_name": "POUDRE VALLEY HOSPITAL", "address": "1024 S LEMAY AVE", "lat": 40.57176000000004, "lon": -105.05556999999999}, "060011": {"hospital_name": "DENVER HEALTH MEDICAL CENTER", "address": "777 BANNOCK ST", "lat": 39.7273194, "lon": -104.9911984}, "060012": {"hospital_name": "CENTURA HEALTH-ST MARY CORWIN MEDICAL CENTER", "address": "1008 MINNEQUA AVE", "lat": 38.23422000000005, "lon": -104.62292999999994}, "060013": {"hospital_name": "MERCY REGIONAL MEDICAL CENTER", "address": "1010 THREE SPRINGS BLVD", "lat": 37.236380000000054, "lon": -107.82603999999998}, "060014": {"hospital_name": "PRESBYTERIAN ST LUKE'S MEDICAL CENTER", "address": "1719 E 19TH AVE", "lat": 39.74658000000005, "lon": -104.96671999999995}, "060015": {"hospital_name": "CENTURA HEALTH-ST ANTHONY HOSPITAL", "address": "11600 W 2ND PL", "lat": 39.71622000000008, "lon": -105.13004999999998}, "060020": {"hospital_name": "PARKVIEW MEDICAL CENTER, INC", "address": "400 W 16TH ST", "lat": 38.281840000000045, "lon": -104.61256999999995}, "060022": {"hospital_name": "UNIVERSITY COLO HEALTH MEMORIAL HOSPITAL CENTRAL", "address": "1400 E BOULDER ST", "lat": 38.312880000000064, "lon": -104.58147999999994}, "060023": {"hospital_name": "ST MARYS MEDICAL CENTER", "address": "2635 N 7TH ST", "lat": 37.9657196, "lon": -87.5041626}, "060024": {"hospital_name": "UNIVERSITY OF COLORADO HOSPITAL AUTHORITY", "address": "12605 E 16TH AVE", "lat": 39.742853000000025, "lon": -104.84194299999996}, "060027": {"hospital_name": "FOOTHILLS HOSPITAL", "address": "4747 ARAPAHOE AVE", "lat": 40.01607000000007, "lon": -105.23633999999998}, "060028": {"hospital_name": "SAINT JOSEPH HOSPITAL", "address": "1375 E 19TH AVE", "lat": 38.031720000000064, "lon": -84.52139999999997}, "060030": {"hospital_name": "MCKEE MEDICAL CENTER", "address": "2000 BOISE AVE", "lat": 40.413400000000024, "lon": -105.05205999999998}, "060031": {"hospital_name": "CENTURA HEALTH-PENROSE-ST FRANCIS HEALTH SERVICES", "address": "6001 EAST WOODMEN ROAD", "lat": 38.865590000000054, "lon": -104.82180999999997}, "060032": {"hospital_name": "ROSE MEDICAL CENTER", "address": "4567 E 9TH AVE", "lat": 39.73305000000005, "lon": -104.93444999999997}, "060034": {"hospital_name": "SWEDISH MEDICAL CENTER", "address": "501 E HAMPDEN AVE", "lat": 39.65396000000004, "lon": -104.98116999999996}, "060044": {"hospital_name": "COLORADO PLAINS MEDICAL CENTER", "address": "1000 LINCOLN ST", "lat": 40.260290000000055, "lon": -103.79545999999999}, "060049": {"hospital_name": "UCHEALTH YAMPA VALLEY MEDICAL CENTER", "address": "1024 CENTRAL PARK DR", "lat": 40.46377000000007, "lon": -106.81421999999998}, "060054": {"hospital_name": "COMMUNITY HOSPITAL", "address": "2351 'G' RD", "lat": 32.53430000000003, "lon": -85.91221999999999}, "060064": {"hospital_name": "CENTURA HEALTH-PORTER ADVENTIST HOSPITAL", "address": "2525 S DOWNING ST", "lat": 45.512350000000026, "lon": -122.55914999999999}, "060065": {"hospital_name": "NORTH SUBURBAN MEDICAL CENTER", "address": "9191 GRANT ST", "lat": 39.86312000000004, "lon": -104.98485999999997}, "060071": {"hospital_name": "DELTA COUNTY MEMORIAL HOSPITAL", "address": "1501 E 3RD ST", "lat": 38.745340000000056, "lon": -108.04706999999996}, "060075": {"hospital_name": "VALLEY VIEW HOSPITAL ASSOCIATION", "address": "1906 BLAKE AVE", "lat": 39.53227000000004, "lon": -107.32250999999997}, "060076": {"hospital_name": "STERLING REGIONAL MEDCENTER", "address": "615 FAIRHURST ST", "lat": 40.61245000000008, "lon": -103.22063999999995}, "060096": {"hospital_name": "VAIL HEALTH HOSPITAL", "address": "181 W MEADOW DR", "lat": 39.64340000000004, "lon": -106.38218999999998}, "060100": {"hospital_name": "MEDICAL CENTER OF AURORA, THE", "address": "1501 S POTOMAC ST", "lat": 39.69020000000006, "lon": -104.83235999999994}, "060103": {"hospital_name": "CENTURA HEALTH-AVISTA ADVENTIST HOSPITAL", "address": "100 HEALTH PARK DR", "lat": 39.95178000000004, "lon": -105.15111999999999}, "060104": {"hospital_name": "ST ANTHONY NORTH HEALTH CAMPUS", "address": "14300 ORCHARD PKWY", "lat": 39.95572000000004, "lon": -104.99198999999999}, "060107": {"hospital_name": "NATIONAL JEWISH HEALTH", "address": "1400 JACKSON ST", "lat": 39.73945900000007, "lon": -104.94229499999994}, "060112": {"hospital_name": "SKY RIDGE MEDICAL CENTER", "address": "10101 RIDGEGATE PKWY", "lat": 39.52920000000006, "lon": -104.87199999999996}, "060113": {"hospital_name": "CENTURA HEALTH-LITTLETON ADVENTIST HOSPITAL", "address": "7700 S BROADWAY", "lat": 39.576280000000054, "lon": -104.98580999999996}, "060114": {"hospital_name": "PARKER ADVENTIST HOSPITAL", "address": "9395 CROWN CREST BLVD", "lat": 39.548910000000035, "lon": -104.77115999999995}, "060116": {"hospital_name": "GOOD SAMARITAN MEDICAL CENTER", "address": "200 EXEMPLA CIR", "lat": 26.72529000000003, "lon": -80.05159999999995}, "060117": {"hospital_name": "ANIMAS SURGICAL HOSPITAL, LLC", "address": "575 RIVERGATE LN", "lat": 37.24826000000007, "lon": -107.87099999999998},