Health Center Name,City,State,combinedKey,name,address,contact,lat,lon
"BAYOU LA BATRE AREA HEALTH DEVELOPMENT BOARD, INC",BAYOU LABATRE,AL,"BAYOU LA BATRE AREA HEALTH DEVELOPMENT BOARD, INC, BAYOU LABATRE, AL",Accordia Health - Mobile County - Bayou La Batre (Family Medical Care),"13833 Tapia Ave, Bayou La Batre, AL 36509, USA",(251) 824-8320,30.4034647,-88.247112
ALABAMA REGIONAL MEDICAL SERVICES,BIRMINGHAM,AL,"ALABAMA REGIONAL MEDICAL SERVICES, BIRMINGHAM, AL",Alabama Regional Medical Services,"2817 30th Ave N, Birmingham, AL 35207, USA",(205) 407-9696,33.5526409,-86.8140798
"CHRIST HEALTH CENTER, INC.",BIRMINGHAM,AL,"CHRIST HEALTH CENTER, INC., BIRMINGHAM, AL",Christ Health - Woodlawn,"5720 1st Ave S, Birmingham, AL 35212, USA",(205) 380-9455,33.5415957,-86.7492933
CAHABA MEDICAL CARE FOUNDATION,CENTREVILLE,AL,"CAHABA MEDICAL CARE FOUNDATION, CENTREVILLE, AL",Cahaba Medical Care - Centreville,"405 Belcher St, Centreville, AL 35042, USA",(205) 926-2992,32.9503292,-87.147279
QUALITY OF LIFE HEALTH SERVICES INC,GADSDEN,AL,"QUALITY OF LIFE HEALTH SERVICES INC, GADSDEN, AL",Quality of Life Health Complex,"1411 Piedmont Cutoff Hwy, Gadsden, AL 35903, USA",(256) 492-0131,33.9984027,-85.9559855
AIDS ACTION COALITION OF HUNTSVILLE,HUNTSVILLE,AL,"AIDS ACTION COALITION OF HUNTSVILLE, HUNTSVILLE, AL",Thrive Alabama,"600 St Clair Ave SW bldg 3, Huntsville, AL 35801, USA",(256) 536-4700,34.7226273,-86.5873927
"ALTAPOINTE HEALTH SYSTEMS, INC.",MOBILE,AL,"ALTAPOINTE HEALTH SYSTEMS, INC., MOBILE, AL",AltaPointe Health Systems Business Office,"5750-B, Southland Dr, Mobile, AL 36693, USA",(251) 450-5916,30.6242777,-88.1766041
"FRANKLIN PRIMARY HEALTH CENTER, INC.",MOBILE,AL,"FRANKLIN PRIMARY HEALTH CENTER, INC., MOBILE, AL","Franklin Primary Health Center, Inc.","1303 Dr Martin Luther King Jr Ave, Mobile, AL 36603, USA",(251) 432-4117,30.6995835,-88.0656646
MOBILE COUNTY BOARD OF HEALTH,MOBILE,AL,"MOBILE COUNTY BOARD OF HEALTH, MOBILE, AL",MOBILE COUNTY HEALTH DEPARTMENT - MCHD,"251 N Bayou St, Mobile, AL 36603, USA",(251) 690-8158,30.691761,-88.054726
"HEALTH SERVICES, (INC)",MONTGOMERY,AL,"HEALTH SERVICES, (INC), MONTGOMERY, AL",Health Services Inc,"100 E Vandiver Blvd, Montgomery, AL 36110, USA",(334) 832-4338,32.4172346,-86.2838808
"NORTHEAST ALABAMA HEALTH SERVICES, INC.",SCOTTSBORO,AL,"NORTHEAST ALABAMA HEALTH SERVICES, INC., SCOTTSBORO, AL","Northeast Alabama Health Services, Inc","309 Taylor St, Scottsboro, AL 35768, USA",(256) 259-5313,34.6637184,-86.0405257
"RURAL HEALTH MEDICAL PROGRAM, INC.",SELMA,AL,"RURAL HEALTH MEDICAL PROGRAM, INC., SELMA, AL","Rural Health Medical Program, Inc.","101 Park Place, Selma, AL 36701, USA",(334) 874-7428,32.4274261,-87.0526859
SOUTHEAST ALABAMA RURAL HEALTH ASSOCIATES,TROY,AL,"SOUTHEAST ALABAMA RURAL HEALTH ASSOCIATES, TROY, AL",Southeast Alabama Rural Health Associates,"1414 Elba Hwy, Troy, AL 36079, USA",(334) 670-6726,31.7652172,-85.9605539
"WHATLEY HEALTH SERVICES, INC.",TUSCALOOSA,AL,"WHATLEY HEALTH SERVICES, INC., TUSCALOOSA, AL",Maude L. Whatley Health Center,"2731 Martin Luther King Jr Blvd, Tuscaloosa, AL 35401, USA",(205) 758-6647,33.1868174,-87.5767932
"ALEUTIAN PRIBILOF ISLANDS ASSOCIATION, INC.",ANCHORAGE,AK,"ALEUTIAN PRIBILOF ISLANDS ASSOCIATION, INC., ANCHORAGE, AK",Aleutian Pribilof Islands Association,"1131 E International Airport Rd, Anchorage, AK 99518, USA",(907) 276-2700,61.1743131,-149.8615828
"EASTERN ALEUTIAN TRIBES, INC.",ANCHORAGE,AK,"EASTERN ALEUTIAN TRIBES, INC., ANCHORAGE, AK",Eastern Aleutian Tribes Inc,"3380 C St #100, Anchorage, AK 99503, USA",(907) 277-1440,61.1898406,-149.8871978
SOUTHCENTRAL FOUNDATION,ANCHORAGE,AK,"SOUTHCENTRAL FOUNDATION, ANCHORAGE, AK",Southcentral Foundation,"Southcentral Foundation Administration Building, 4501 Diplomacy Dr, Anchorage, AK 99508, USA",(907) 729-4955,61.1823417,-149.795892
BETHEL FAMILY CLINIC,BETHEL,AK,"BETHEL FAMILY CLINIC, BETHEL, AK",Bethel Family Clinic,"631 4th Ave, Bethel, AK 99559, USA",(907) 543-3773,60.7964324,-161.7623748
YUKON-KUSKOKWIM HEALTH CORPORATION,BETHEL,AK,"YUKON-KUSKOKWIM HEALTH CORPORATION, BETHEL, AK",Yukon Kuskokwim Health Corporation,"185 Hoffman Rd, Bethel, AK 99559, USA",(907) 543-5158,60.7831733,-161.7969814
NATIVE VILLAGE OF EYAK,CORDOVA,AK,"NATIVE VILLAGE OF EYAK, CORDOVA, AK",Native Village of Eyak,"110 Nicholoff Way, Cordova, AK 99574, USA",(907) 424-7738,60.5426856,-145.7646595
BRISTOL BAY AREA HEALTH CORPORATION,DILLINGHAM,AK,"BRISTOL BAY AREA HEALTH CORPORATION, DILLINGHAM, AK",Bristol Bay Area Health Corporation,"6000 Kanakanak Rd, Dillingham, AK 99576, USA",(800) 478-5201,59.0006067,-158.5368215
DENA' NENA' HENASH,FAIRBANKS,AK,"DENA' NENA' HENASH, FAIRBANKS, AK",Tanana Chiefs Conference,"122 1st Ave, Fairbanks, AK 99701, USA",(907) 452-8251,64.8440859,-147.7106986
COUNCIL OF ATHABASCAN TRIBAL GOVERNMENTS,FORT YUKON,AK,"COUNCIL OF ATHABASCAN TRIBAL GOVERNMENTS, FORT YUKON, AK",Council-Athabascan Tribal,"101 Main St, Fort Yukon, AK 99740, USA",(907) 662-2587,66.56735,-145.2513402
KODIAK AREA NATIVE ASSOCIATION,KODIAK,AK,"KODIAK AREA NATIVE ASSOCIATION, KODIAK, AK",Kodiak Area Native Association-KANA,"3449 E Rezanof Dr, Kodiak, AK 99615, USA",(907) 486-9800,57.8117868,-152.3550953
MANIILAQ ASSOCIATION,KOTZEBUE,AK,"MANIILAQ ASSOCIATION, KOTZEBUE, AK",Maniiḷaq Health Center,"436 5th Ave, Kotzebue, AK 99752, USA",(907) 442-3321,66.8961237,-162.5868333
NORTON SOUND HEALTH CORPORATION,NOME,AK,"NORTON SOUND HEALTH CORPORATION, NOME, AK",Norton Sound Health Corporation,"1000 Greg Kruschek Avenue, Nome, AK 99762, USA",(907) 443-3311,64.5000585,-165.387086
SELDOVIA VILLAGE TRIBE,SELDOVIA,AK,"SELDOVIA VILLAGE TRIBE, SELDOVIA, AK",Seldovia Village Tribe,"206 Main St, Seldovia, AK 99663, USA",(907) 234-7898,59.4370189,-151.7119381
YAKUTAT TLINGIT TRIBE,YAKUTAT,AK,"YAKUTAT TLINGIT TRIBE, YAKUTAT, AK",Yakutat Tlingit Tribe,"716 Ocean Cape Rd, Yakutat, AK 99689, USA",(907) 784-3238,59.5440109,-139.7318434
DEPARTMENT OF HEALTH,PAGO PAGO,AS,"DEPARTMENT OF HEALTH, PAGO PAGO, AS",DOH-Environmental Health Services Division,"Fagatogo, Pago Pago, Eastern District 96799, American Samoa",,-14.2763878,-170.692393
"SUN LIFE FAMILY HEALTH CENTER, INC",CASA GRANDE,AZ,"SUN LIFE FAMILY HEALTH CENTER, INC, CASA GRANDE, AZ",Sun Life Family Health Center,"865 N Arizola Rd, Casa Grande, AZ 85122, USA",(520) 836-3446,32.8821647,-111.714972
"CHIRICAHUA COMMUNITY HEALTH CENTERS, INC.",DOUGLAS,AZ,"CHIRICAHUA COMMUNITY HEALTH CENTERS, INC., DOUGLAS, AZ","Pediatric Center of Excellence - Chiricahua Community Health Centers, Inc.","815 15th St, Douglas, AZ 85607, USA",(520) 364-5437,31.3492938,-109.5492454
"NORTH COUNTRY HEALTHCARE, INC.",FLAGSTAFF,AZ,"NORTH COUNTRY HEALTHCARE, INC., FLAGSTAFF, AZ",North Country HealthCare - Flagstaff (4th Street),"2920 N Fourth St, Flagstaff, AZ 86004, USA",(928) 522-9400,35.2168899,-111.6126929
"UNITED COMMUNITY HEALTH CENTER-MARIA AUXILIADORA, INC.",GREEN VALLEY,AZ,"UNITED COMMUNITY HEALTH CENTER-MARIA AUXILIADORA, INC., GREEN VALLEY, AZ",United Community Health Center at Green Valley Hospital,"4475 I-19 Frontage Rd #139, Green Valley, AZ 85614, USA",(520) 407-5910,31.8061871,-111.0104217
"MARIPOSA COMMUNITY HEALTH CENTER, INC.",NOGALES,AZ,"MARIPOSA COMMUNITY HEALTH CENTER, INC., NOGALES, AZ",Mariposa Community Health Center,"1852 N Mastick Way, Nogales, AZ 85621, USA",(520) 281-1550,31.3656886,-110.9335064
"ADELANTE HEALTHCARE, INC.",PHOENIX,AZ,"ADELANTE HEALTHCARE, INC., PHOENIX, AZ",Adelante Healthcare,"3033 N Central Ave Suite 145, Phoenix, AZ 85012, USA",(877) 809-5092,33.4835789,-112.0731297
CIRCLE THE CITY,PHOENIX,AZ,"CIRCLE THE CITY, PHOENIX, AZ",Circle the City,"333 W Indian School Rd, Phoenix, AZ 85013, USA",(602) 776-9000,33.4944925,-112.0799916
MARICOPA COUNTY SPECIAL HEALTH CARE DISTRICT,PHOENIX,AZ,"MARICOPA COUNTY SPECIAL HEALTH CARE DISTRICT, PHOENIX, AZ",Valleywise Health Medical Center,"2601 E Roosevelt St, Phoenix, AZ 85008, USA",(602) 344-5011,33.4572917,-112.0261916
MOUNTAIN PARK HEALTH CENTER,PHOENIX,AZ,"MOUNTAIN PARK HEALTH CENTER, PHOENIX, AZ",Mountain Park Health Center Baseline Clinic,"635 E Baseline Rd, Phoenix, AZ 85042, USA",(602) 243-7277,33.3768311,-112.067954
"NATIVE AMERICAN COMMUNITY HEALTH CENTER, INC.",PHOENIX,AZ,"NATIVE AMERICAN COMMUNITY HEALTH CENTER, INC., PHOENIX, AZ",NHW Community Health Center,"2423 W Dunlap Ave, Phoenix, AZ 85021, USA",(602) 279-5351,33.5670953,-112.1116523
TERROS INC,PHOENIX,AZ,"TERROS INC, PHOENIX, AZ",Terros Health -Central Office,"3003 N Central Ave Suite #400, Phoenix, AZ 85012, USA",(602) 685-6000,33.4826645,-112.0732533
"VALLE DEL SOL, INC.",PHOENIX,AZ,"VALLE DEL SOL, INC., PHOENIX, AZ",Valle del Sol,"1209 S 1st Ave, Phoenix, AZ 85003, USA",(602) 258-6797,33.4356309,-112.0746715
WESLEY COMMUNITY CENTER INC,PHOENIX,AZ,"WESLEY COMMUNITY CENTER INC, PHOENIX, AZ",Wesley Community Center,"1300 S 10th St, Phoenix, AZ 85034, USA",(602) 257-4323,33.434765,-112.060004
NEIGHBORHOOD OUTREACH ACCESS TO HEALTH,SCOTTSDALE,AZ,"NEIGHBORHOOD OUTREACH ACCESS TO HEALTH, SCOTTSDALE, AZ",Neighborhood Outreach Access To Health,"3634 N Drinkwater Blvd, Scottsdale, AZ 85251, USA",,33.4903919,-111.92196
SUNSET COMMUNITY HEALTH CENTER,SOMERTON,AZ,"SUNSET COMMUNITY HEALTH CENTER, SOMERTON, AZ",Sunset Community Health Center,"115 N Somerton Ave, Somerton, AZ 85350, USA",(928) 627-2051,32.5967846,-114.7099416
TUBA CITY REGIONAL HEALTHCARE CORPORATION,TUBA CITY,AZ,"TUBA CITY REGIONAL HEALTHCARE CORPORATION, TUBA CITY, AZ",Tuba City Regional Health Care,"167 Main St, Tuba City, AZ 86045, USA",(866) 976-5941,36.1359847,-111.2369947
"EL RIO SANTA CRUZ NEIGHBORHOOD HEALTH CENTER, INC.",TUCSON,AZ,"EL RIO SANTA CRUZ NEIGHBORHOOD HEALTH CENTER, INC., TUCSON, AZ",El Rio Community Health Center Adminstration,"450 W Paseo Redondo, Tucson, AZ 85701, USA",(520) 670-3909,32.2232839,-110.9789256
ARCARE,AUGUSTA,AR,"ARCARE, AUGUSTA, AR",ARcare - Augusta Medical Clinic,"400 Hwy 64 E, Augusta, AR 72006, USA",(870) 347-2508,35.2928924,-91.362915
LEE COUNTY COOPERATIVE CLINIC,MARIANNA,AR,"LEE COUNTY COOPERATIVE CLINIC, MARIANNA, AR",Lee County Cooperative Clinic,"530 Atkins Blvd, Marianna, AR 72360, USA",(870) 295-5225,34.7710512,-90.7761364
"JEFFERSON COMPREHENSIVE CARE SYSTEM, INC.",PINE BLUFF,AR,"JEFFERSON COMPREHENSIVE CARE SYSTEM, INC., PINE BLUFF, AR","Jefferson Comprehensive Care System, Inc.","1101 S Tennessee St, Pine Bluff, AR 71601, USA",(870) 543-2380,34.2189348,-91.9979215
MAINLINE HEALTH SYSTEMS INC,PORTLAND,AR,"MAINLINE HEALTH SYSTEMS INC, PORTLAND, AR",Mainline Health Systems Inc,"223 N Main St, Portland, AR 71663, USA",(870) 737-2221,33.2390033,-91.5115391
"ST. FRANCIS HOUSE NWA, INC.",SPRINGDALE,AR,"ST. FRANCIS HOUSE NWA, INC., SPRINGDALE, AR",Community Clinic- Springdale Medical | Pediatrics and Women's Health,"614 E Emma Ave #300, Springdale, AR 72764, USA",(479) 751-7417,36.1854151,-94.1230514
"EAST ARKANSAS FAMILY HEALTH CENTER, INC.",WEST MEMPHIS,AR,"EAST ARKANSAS FAMILY HEALTH CENTER, INC., WEST MEMPHIS, AR",East Arkansas Family Health Center,"900 N 7th St, West Memphis, AR 72301, USA",(870) 735-3842,35.1544521,-90.1764112
"NORTHEAST COMMUNITY CLINIC, THE",ALHAMBRA,CA,"NORTHEAST COMMUNITY CLINIC, THE, ALHAMBRA, CA",NECC Administration,"2550 W Main St #301, Alhambra, CA 91801, USA",(626) 457-6900,34.094865,-118.1517122
THE NORTHEAST COMMUNITY CLINIC – FQHC LOOK ALIKE,ALHAMBRA,CA,"THE NORTHEAST COMMUNITY CLINIC – FQHC LOOK ALIKE, ALHAMBRA, CA",Northeast Community Clinic,"2550 W Main St #301, Alhambra, CA 91801, USA",(626) 457-6900,34.094934,-118.1517377
"CENTRAL CITY COMMUNITY HEALTH CENTER, INC.",ANAHEIM,CA,"CENTRAL CITY COMMUNITY HEALTH CENTER, INC., ANAHEIM, CA","Central City Community Health Center Inc., - Lincoln","1820 W Lincoln Ave #1814, Anaheim, CA 92801, USA",(714) 805-7719,33.8321923,-117.9468218
OPEN DOOR COMMUNITY HEALTH CENTERS,ARCATA,CA,"OPEN DOOR COMMUNITY HEALTH CENTERS, ARCATA, CA",Open Door Community Health Center,"3800 Janes Rd, Arcata, CA 95521, USA",(707) 822-1385,40.896393,-124.0916628
"EL PROYECTO DEL BARRIO, INC.",ARLETA,CA,"EL PROYECTO DEL BARRIO, INC., ARLETA, CA",El Proyecto Del Barrio,"8902 Woodman Ave, Arleta, CA 91331, USA",(818) 830-7033,34.2315227,-118.437257
AVENAL COMMUNITY HEALTH CENTER,AVENAL,CA,"AVENAL COMMUNITY HEALTH CENTER, AVENAL, CA",Avenal Community Health Center,"1000 Skyline Blvd, Avenal, CA 93204, USA",(559) 386-4500,36.0076729,-120.1214198
CLINICA SIERRA VISTA,BAKERSFIELD,CA,"CLINICA SIERRA VISTA, BAKERSFIELD, CA",Clinica Sierra Vista - 34th Street Community Health Center,"2000 Physicians Blvd, Bakersfield, CA 93301, USA",(661) 324-1455,35.3967924,-119.0086268
OMNI FAMILY HEALTH,BAKERSFIELD,CA,"OMNI FAMILY HEALTH, BAKERSFIELD, CA",Omni Family Health | Panama Lane Health Center,"4600 Panama Ln #102b, Bakersfield, CA 93313, USA",(800) 300-6664,35.2964344,-119.0543392
"FAMILY HEALTH CARE CENTERS OF GREATER LOS ANGELES, INC.",BELL GARDENS,CA,"FAMILY HEALTH CARE CENTERS OF GREATER LOS ANGELES, INC., BELL GARDENS, CA",Family Health Care Centers of Greater Los Angeles,"6501 S, Garfield Ave, Bell Gardens, CA 90201, USA",(562) 928-9600,33.9732363,-118.1476448
LIFELONG MEDICAL CARE,BERKELEY,CA,"LIFELONG MEDICAL CARE, BERKELEY, CA",LifeLong West Berkeley Health Center,"837 Addison St, Berkeley, CA 94710, USA",(510) 981-4100,37.8669849,-122.2970458
BORREGO COMMUNITY HEALTH FOUNDATION,BORREGO SPGS,CA,"BORREGO COMMUNITY HEALTH FOUNDATION, BORREGO SPGS, CA",Borrego Community Health Foundation,"655 Palm Canyon Dr, Borrego Springs, CA 92004, USA",(760) 767-5608,33.2563235,-116.3768927
"CLINICAS DE SALUD DEL PUEBLO, INC.",BRAWLEY,CA,"CLINICAS DE SALUD DEL PUEBLO, INC., BRAWLEY, CA","Brawley Medical Clinic - Clinicas de Salud del Pueblo, Inc.","900 Main St, Brawley, CA 92227, USA",(760) 344-6471,32.9782583,-115.5278029
"KOREAN COMMUNITY SERVICES, INC.",BUENA PARK,CA,"KOREAN COMMUNITY SERVICES, INC., BUENA PARK, CA",Korean Community Services,"7212 Orangethorpe Ave Suite 8, Buena Park, CA 90621, USA",(714) 449-1125,33.8581677,-118.0074623
ALL-INCLUSIVE COMMUNITY HEALTH CENTER,BURBANK,CA,"ALL-INCLUSIVE COMMUNITY HEALTH CENTER, BURBANK, CA",All-Inclusive Community Health Center,"1311 N San Fernando Blvd, Burbank, CA 91504, USA",(818) 843-9900,34.1893761,-118.3207868
YEHOWA MEDICAL SERVICES,CARSON,CA,"YEHOWA MEDICAL SERVICES, CARSON, CA",Yehowa Medical Services,"454 Carson Plaza Dr, Carson, CA 90746, USA",(323) 776-1500,33.8465483,-118.2671389
ALTAMED HEALTH SERVICES CORPORATION,COMMERCE,CA,"ALTAMED HEALTH SERVICES CORPORATION, COMMERCE, CA",AltaMed Health Services Corporation,"5436 Whittier Blvd, Los Angeles, CA 90022, USA",(888) 363-1293,34.0191973,-118.1532157
"DE NOVO HEALTH CARE, INC.",COMPTON,CA,"DE NOVO HEALTH CARE, INC., COMPTON, CA",De Novo Health Care Inc.,"803 Rosecrans Ave, Compton, CA 90221, USA",(310) 605-4800,33.903617,-118.215244
"R.O.A.D.S. FOUNDATION, INC., THE",COMPTON,CA,"R.O.A.D.S. FOUNDATION, INC., THE, COMPTON, CA",ROADS Community Care Clinic,"121 S Long Beach Blvd, Compton, CA 90221, USA",(855) 645-0033,33.894956,-118.208363
SHARE OUR SELVES CORPORATION,COSTA MESA,CA,"SHARE OUR SELVES CORPORATION, COSTA MESA, CA",Share Our Selves,"1550 Superior Ave, Costa Mesa, CA 92627, USA",(949) 270-2100,33.6325332,-117.9268629
ACHIEVABLE FOUNDATION THE,CULVER CITY,CA,"ACHIEVABLE FOUNDATION THE, CULVER CITY, CA",The Achievable Foundation,"5901 Green Valley Cir UNIT 405, Culver City, CA 90230, USA",(424) 266-7474,33.984195,-118.3919144
COMMUNICARE HEALTH CENTERS,DAVIS,CA,"COMMUNICARE HEALTH CENTERS, DAVIS, CA",Communicare Health Center,"2051 John Jones Rd, Davis, CA 95616, USA",(530) 758-2060,38.563708,-121.7695775
"SOUTH COUNTY COMMUNITY HEALTH CENTER, INC.",E PALO ALTO,CA,"SOUTH COUNTY COMMUNITY HEALTH CENTER, INC., E PALO ALTO, CA","South County Community Health Center, Inc.","ste a east 94303, 1798 Bay Rd, Palo Alto, CA 94303, USA",(650) 330-7400,37.4711824,-122.1338668
"SOUTHERN CALIFORNIA MEDICAL CENTER, INC.",EL MONTE,CA,"SOUTHERN CALIFORNIA MEDICAL CENTER, INC., EL MONTE, CA","Southern California Medical Center, Inc.","12100 Valley Blvd #109a, El Monte, CA 91732, USA",(626) 575-7500,34.0608155,-118.0163454
NEIGHBORHOOD HEALTHCARE,ESCONDIDO,CA,"NEIGHBORHOOD HEALTHCARE, ESCONDIDO, CA",Neighborhood Healthcare - Escondido,"460 N Elm St, Escondido, CA 92025, USA",(760) 520-8100,33.1286381,-117.0727663
"SOLANO, COUNTY OF",FAIRFIELD,CA,"SOLANO, COUNTY OF, FAIRFIELD, CA",Fairfield,"Fairfield, CA, USA",,38.2491956,-122.0405151
BAY AREA COMMUNITY HEALTH,FREMONT,CA,"BAY AREA COMMUNITY HEALTH, FREMONT, CA",Bay Area Community Health,"39500 Liberty St, Fremont, CA 94538, USA",(510) 770-8040,37.5489421,-121.9769658
UNITED HEALTH CENTERS OF THE SAN JOAQUIN VALLEY,FRESNO,CA,"UNITED HEALTH CENTERS OF THE SAN JOAQUIN VALLEY, FRESNO, CA",United Health Centers-Administration Building,"3875 W Beechwood Ave, Fresno, CA 93722, USA",(800) 492-4227,36.8379472,-119.8633293
ST. JUDE NEIGHBORHOOD HEALTH CENTERS,FULLERTON,CA,"ST. JUDE NEIGHBORHOOD HEALTH CENTERS, FULLERTON, CA",St. Jude Neighborhood Clinic,"731 S Highland Ave, Fullerton, CA 92832, USA",(714) 446-5100,33.863589,-117.928901
"NHAN HOA COMPREHENSIVE HEALTH CARE CLINIC, INC.",GARDEN GROVE,CA,"NHAN HOA COMPREHENSIVE HEALTH CARE CLINIC, INC., GARDEN GROVE, CA",Nhan Hoa Comprehensive Health Care Clinic,"7761 Garden Grove Blvd, Garden Grove, CA 92841, USA",(714) 898-8888,33.7739924,-117.9965813
ALL FOR HEALTH HEALTH FOR ALL,GLENDALE,CA,"ALL FOR HEALTH HEALTH FOR ALL, GLENDALE, CA","All For Health, Health For All","519 E Broadway, Glendale, CA 91205, USA",(818) 409-3020,34.1466218,-118.2492201
"COMPREHENSIVE COMMUNITY HEALTH CENTERS, INC.",GLENDALE,CA,"COMPREHENSIVE COMMUNITY HEALTH CENTERS, INC., GLENDALE, CA","Comprehensive Community Health Centers, Inc.","1704 Colorado Blvd, Eagle Rock, CA 90041, USA",(323) 256-4116,34.1391136,-118.2039119
KARUK TRIBE,HAPPY CAMP,CA,"KARUK TRIBE, HAPPY CAMP, CA",Karuk Tribe Administration,"64236 2nd Ave, Happy Camp, CA 96039, USA",(530) 493-1600,41.7910804,-123.3800585
BEHAVIORAL HEALTH SERVICES INC,HAWTHORNE,CA,"BEHAVIORAL HEALTH SERVICES INC, HAWTHORNE, CA",Behavioral Health Services Inc,"15519 Crenshaw Blvd, Gardena, CA 90249, USA",(310) 679-9126,33.889539,-118.326804
"ALLIANCE MEDICAL CENTER, INC.",HEALDSBURG,CA,"ALLIANCE MEDICAL CENTER, INC., HEALDSBURG, CA",Alliance Medical Center,"1381 University Ave, Healdsburg, CA 95448, USA",(707) 433-5494,38.6273915,-122.8654598
SAN BENITO HEALTH FOUNDATION,HOLLISTER,CA,"SAN BENITO HEALTH FOUNDATION, HOLLISTER, CA",San Benito Health Foundation,"351 Felice Dr, Hollister, CA 95023, USA",(831) 637-5306,36.8532362,-121.4163828
IMPERIAL BEACH COMMUNITY CLINIC,IMPERIAL BCH,CA,"IMPERIAL BEACH COMMUNITY CLINIC, IMPERIAL BCH, CA",Imperial Beach Community Clinic,"949 Palm Ave, Imperial Beach, CA 91932, USA",(619) 429-3733,32.5836302,-117.1134051
"UNIVERSITY OF CALIFORNIA, IRVINE",IRVINE,CA,"UNIVERSITY OF CALIFORNIA, IRVINE, IRVINE, CA",University of California Irvine,"Irvine, CA 92697, USA",(949) 824-5011,33.6404952,-117.8442962
HI-DESERT MEMORIAL HEALTH CARE DISTRICT,JOSHUA TREE,CA,"HI-DESERT MEMORIAL HEALTH CARE DISTRICT, JOSHUA TREE, CA",Hi-Desert Medical Center,"6601 White Feather Rd, Joshua Tree, CA 92252, USA",(760) 366-3711,34.1321059,-116.2751358
FRIENDS OF FAMILY HEALTH CENTER,LA HABRA,CA,"FRIENDS OF FAMILY HEALTH CENTER, LA HABRA, CA",Friends of Family Health Center,"501 S Idaho St Unit 270, La Habra, CA 90631, USA",(562) 690-0400,33.9277966,-117.9598288
BARTZ-ALTADONNA COMMUNITY HEALTH CENTER,LANCASTER,CA,"BARTZ-ALTADONNA COMMUNITY HEALTH CENTER, LANCASTER, CA",Bartz-Altadonna Community Health Center,"43322 Gingham Ave, Lancaster, CA 93535, USA",(661) 874-4050,34.6699689,-118.1218721
LIVINGSTON COMMUNITY HEALTH,LIVINGSTON,CA,"LIVINGSTON COMMUNITY HEALTH, LIVINGSTON, CA",Livingston Health Center,"600 B St, Livingston, CA 95334, USA",(833) 850-3500,37.3852933,-120.7341919
CHILDREN'S CLINIC 'SERVING CHILDREN AND THEIR FAMILIES' THE,LONG BEACH,CA,"CHILDREN'S CLINIC 'SERVING CHILDREN AND THEIR FAMILIES' THE, LONG BEACH, CA",The Children's Clinic Central Long Beach Family Health Center,"2360 Pacific Ave, Long Beach, CA 90806, USA",(844) 822-4646,33.8000673,-118.1933925
"COMMUNITY MEDICAL WELLNESS CENTERS, USA",LONG BEACH,CA,"COMMUNITY MEDICAL WELLNESS CENTERS, USA, LONG BEACH, CA",Community Medical Wellness Centers USA,"1360 E Anaheim St, Long Beach, CA 90813, USA",(562) 270-0324,33.7824258,-118.1743871
APLA HEALTH & WELLNESS,LOS ANGELES,CA,"APLA HEALTH & WELLNESS, LOS ANGELES, CA",APLA Health - Gleicher/Chen Health Center,"3743 South La Brea Ave, Los Angeles, CA 90016, USA",(323) 329-9900,34.018727,-118.356329
ARROYO VISTA FAMILY HEALTH FOUNDATION,LOS ANGELES,CA,"ARROYO VISTA FAMILY HEALTH FOUNDATION, LOS ANGELES, CA",Arroyo Vista Family Health Center,"6000 N Figueroa St, Highland Park, CA 90042, USA",(866) 616-9344,34.1113273,-118.1888713
"ASIAN PACIFIC HEALTH CARE VENTURE, INC.",LOS ANGELES,CA,"ASIAN PACIFIC HEALTH CARE VENTURE, INC., LOS ANGELES, CA","Asian Pacific Health Care Venture, Inc.","1530 Hillhurst Ave, Los Angeles, CA 90027, USA",(323) 644-3888,34.0989121,-118.2871437
BENEVOLENCE INDUSTRIES INCORPORATED,LOS ANGELES,CA,"BENEVOLENCE INDUSTRIES INCORPORATED, LOS ANGELES, CA",Benevolence Health Center,"3631 Crenshaw Blvd #109, Los Angeles, CA 90016, USA",(323) 732-0100,34.0232994,-118.335602
CENTRAL NEIGHBORHOOD HEALTH FOUNDATION,LOS ANGELES,CA,"CENTRAL NEIGHBORHOOD HEALTH FOUNDATION, LOS ANGELES, CA",Central Neighborhood Health Foundation,"2707 S Central Ave, Los Angeles, CA 90011, USA",(323) 234-5000,34.0176099,-118.2557408
CHINATOWN SERVICE CENTER,LOS ANGELES,CA,"CHINATOWN SERVICE CENTER, LOS ANGELES, CA",Chinatown Service Center,"819 W Cesar Estrada Chavez Ave, Los Angeles, CA 90012, USA",(213) 808-1700,34.0617172,-118.2449417
"CLINIC INC, THE",LOS ANGELES,CA,"CLINIC INC, THE, LOS ANGELES, CA",To Help Everyone - Western Clinic,"3834 S Western Ave, Los Angeles, CA 90062, USA",(323) 730-1920,34.016179,-118.308589
CLINICA MSR. OSCAR A ROMERO,LOS ANGELES,CA,"CLINICA MSR. OSCAR A ROMERO, LOS ANGELES, CA",Clínica Monseñor Oscar A. Romero,"123 S Alvarado St, Los Angeles, CA 90057, USA",(213) 989-7700,34.0660391,-118.2710713
"COMPLETE CARE COMMUNITY HEALTH CENTER, INC.",LOS ANGELES,CA,"COMPLETE CARE COMMUNITY HEALTH CENTER, INC., LOS ANGELES, CA",Complete Care Community Health,"2928 East Cesar E Chavez Avenue, Los Angeles, CA 90033, USA",(323) 266-6700,34.0433208,-118.2008731
HEALTH ACCESS FOR ALL INC.,LOS ANGELES,CA,"HEALTH ACCESS FOR ALL INC., LOS ANGELES, CA",Health Access,"1930 Wilshire Blvd #916, Los Angeles, CA 90057, USA",(213) 413-3587,34.0570614,-118.2745191
"JWCH INSTITUTE, INC.",LOS ANGELES,CA,"JWCH INSTITUTE, INC., LOS ANGELES, CA",JWCH Institute Inc,"5709 N Figueroa St, Los Angeles, CA 90042, USA",,34.1099598,-118.1927084
"KEDREN COMMUNITY HEALTH CENTER, INC.",LOS ANGELES,CA,"KEDREN COMMUNITY HEALTH CENTER, INC., LOS ANGELES, CA",Kedren Community Health Center Inc.,"4211 S Avalon Blvd, Los Angeles, CA 90011, USA",(323) 233-0425,34.0073123,-118.2661803
KHEIR CLINIC,LOS ANGELES,CA,"KHEIR CLINIC, LOS ANGELES, CA",KHEIR Clinic,"3727 W 6th St, Los Angeles, CA 90020, USA",(213) 235-2500,34.0638605,-118.3037303
LOS ANGELES CHRISTIAN HEALTH CENTERS,LOS ANGELES,CA,"LOS ANGELES CHRISTIAN HEALTH CENTERS, LOS ANGELES, CA",Los Angeles Christian Health Centers - Pico Aliso Clinic,"1625 East 4th St, Los Angeles, CA 90033, USA",(213) 893-1960,34.0431515,-118.2219503
"LOS ANGELES FREE CLINIC., THE",LOS ANGELES,CA,"LOS ANGELES FREE CLINIC., THE, LOS ANGELES, CA",Hollywood Sunset Free Clinic,"3324 Sunset Blvd, Los Angeles, CA 90026, USA",(323) 660-2400,34.0870894,-118.2759507
LOS ANGELES LGBT CENTER,LOS ANGELES,CA,"LOS ANGELES LGBT CENTER, LOS ANGELES, CA",Los Angeles LGBT Center,"McDonald/Wright Building, 1625 Schrader Blvd, Los Angeles, CA 90028, USA",(323) 993-7500,34.100385,-118.3326226
PEDIATRIC & FAMILY MEDICAL CENTER,LOS ANGELES,CA,"PEDIATRIC & FAMILY MEDICAL CENTER, LOS ANGELES, CA",Magnolia Pediatric Dentistry & Orthodontics,"1611 N Wolcott Ave, Chicago, IL 60622, USA",(312) 281-4860,41.9109566,-87.674719
QUEENSCARE HEALTH CENTERS,LOS ANGELES,CA,"QUEENSCARE HEALTH CENTERS, LOS ANGELES, CA",QueensCare Health Centers,"4618 Fountain Ave Children's Reading Room, Los Angeles, CA 90029, USA",(323) 953-7170,34.0954573,-118.2900458
"SAN JUDAS COMMUNITY HEALTH CENTER, INC.",LOS ANGELES,CA,"SAN JUDAS COMMUNITY HEALTH CENTER, INC., LOS ANGELES, CA",San Judas Medical Group,"1080 N Western Ave, Los Angeles, CA 90029, USA",(323) 957-8787,34.0902644,-118.3089988
SOUTH CENTRAL FAMILY HEALTH CENTER,LOS ANGELES,CA,"SOUTH CENTRAL FAMILY HEALTH CENTER, LOS ANGELES, CA",South Central Family Health Center,"4425 S Central Ave, Los Angeles, CA 90011, USA",(323) 908-4200,34.0031204,-118.2567621
ST ANTHONY MEDICAL CENTERS,LOS ANGELES,CA,"ST ANTHONY MEDICAL CENTERS, LOS ANGELES, CA",St. Anthony Medical Centers,"6368 Hollywood Blvd, Los Angeles, CA 90028, USA",(323) 469-5555,34.1013387,-118.328997
"ST. JOHN'S WELL CHILD AND FAMILY CENTER, INC.",LOS ANGELES,CA,"ST. JOHN'S WELL CHILD AND FAMILY CENTER, INC., LOS ANGELES, CA",St John's Well Child & Family Center,"326 W 23rd St, Los Angeles, CA 90007, USA",(323) 541-1411,34.029281,-118.2715524
UNIVERSAL COMMUNITY HEALTH CENTER,LOS ANGELES,CA,"UNIVERSAL COMMUNITY HEALTH CENTER, LOS ANGELES, CA",Universal Community Health Center,"1005 E Washington Blvd suite a, Los Angeles, CA 90021, USA",(323) 233-3100,34.02606,-118.2531051
"UNIVERSITY MUSLIM MEDICAL ASSOCIATION, INC.",LOS ANGELES,CA,"UNIVERSITY MUSLIM MEDICAL ASSOCIATION, INC., LOS ANGELES, CA",University Muslim Med Associates,"1704 W Manchester Ave, Los Angeles, CA 90047, USA",(323) 750-7467,33.959516,-118.3070439
"VIA CARE COMMUNITY HEALTH CENTER, INC.",LOS ANGELES,CA,"VIA CARE COMMUNITY HEALTH CENTER, INC., LOS ANGELES, CA",Via Care Community Health Center,"4755 East Cesar E Chavez Avenue, East Los Angeles, CA 90022, USA",(323) 268-9191,34.0407387,-118.1628606
WATTS HEALTHCARE CORPORATION,LOS ANGELES,CA,"WATTS HEALTHCARE CORPORATION, LOS ANGELES, CA",Watts Healthcare - Watts Health Center,"10300 Compton Ave, Los Angeles, CA 90002, USA",(323) 564-4331,33.9425909,-118.2453744
CAMARENA HEALTH,MADERA,CA,"CAMARENA HEALTH, MADERA, CA",Camarena Health Center - Dental Office,"124 S A St, Madera, CA 93638, USA",(559) 664-4000,36.9637516,-120.054719
"CONTRA COSTA , COUNTY OF",MARTINEZ,CA,"CONTRA COSTA , COUNTY OF, MARTINEZ, CA",Martinez,"Martinez, CA 94553, USA",,38.0193657,-122.1341321
HARMONY HEALTH MEDICAL CLINIC AND FAMILY RESOURCE CENTER,MARYSVILLE,CA,"HARMONY HEALTH MEDICAL CLINIC AND FAMILY RESOURCE CENTER, MARYSVILLE, CA",Harmony Health Medical Clinic and Family Resource Center,"1908 N Beale Rd ste e, Marysville, CA 95901, USA",(530) 743-6888,39.12753,-121.545734
PEACH TREE HEALTHCARE,MARYSVILLE,CA,"PEACH TREE HEALTHCARE, MARYSVILLE, CA",Peach Tree Health Administration,"1114 Yuba St #144, Marysville, CA 95901, USA",(530) 749-3242,39.1481539,-121.585014
GOLDEN VALLEY HEALTH CENTERS,MERCED,CA,"GOLDEN VALLEY HEALTH CENTERS, MERCED, CA",Golden Valley Health Centers,"797 W Childs Ave, Merced, CA 95341, USA",(209) 383-5871,37.288222,-120.4965991
BEVERLYCARE,MONTEBELLO,CA,"BEVERLYCARE, MONTEBELLO, CA",BeverlyCare-Women's Health & OB/GYN,"1920 W Whittier Blvd, Montebello, CA 90640, USA",(323) 725-1519,34.013174,-118.1222381
"COMMUNITY HEALTH SYSTEMS, INC.",MORENO VALLEY,CA,"COMMUNITY HEALTH SYSTEMS, INC., MORENO VALLEY, CA",Community Health Systems Inc,"22675 Alessandro Blvd # 1, Moreno Valley, CA 92553, USA",(951) 571-2350,33.9159585,-117.2674186
AAA COMPREHENSIVE HEALTHCARE INC.,N HOLLYWOOD,CA,"AAA COMPREHENSIVE HEALTHCARE INC., N HOLLYWOOD, CA",AAA Comprehensive Healthcare,"7451 Lankershim Blvd, North Hollywood, CA 91605, USA",(818) 503-9800,34.2061724,-118.388032
VALLEY COMMUNITY HEALTHCARE,N HOLLYWOOD,CA,"VALLEY COMMUNITY HEALTHCARE, N HOLLYWOOD, CA",Valley Community Healthcare,"6801 Coldwater Canyon Ave, North Hollywood, CA 91605, USA",(818) 763-8836,34.1945598,-118.4148498
OLE HEALTH,NAPA,CA,"OLE HEALTH, NAPA, CA",OLE Health,"1141 Pear Tree Ln, Napa, CA 94558, USA",(707) 257-7821,38.3210574,-122.2921168
"OPERATION SAMAHAN, INC.",NATIONAL CITY,CA,"OPERATION SAMAHAN, INC., NATIONAL CITY, CA",Samahan Health Clinic - National City Clinic,"2743 Highland Ave, National City, CA 91950, USA",(844) 200-2426,32.661154,-117.0918366
TRI-STATE COMMUNITY HEALTHCARE CENTER,NEEDLES,CA,"TRI-STATE COMMUNITY HEALTHCARE CENTER, NEEDLES, CA",Tri State Community Healthcare Center,"1402 Bailey Ave, Needles, CA 92363, USA",(760) 326-0222,34.8327781,-114.6186384
SIERRA FAMILY MEDICAL CLINIC INC,NEVADA CITY,CA,"SIERRA FAMILY MEDICAL CLINIC INC, NEVADA CITY, CA",Sierra Family Medical Clinic,"15301 Tyler Foote Rd, Nevada City, CA 95959, USA",(530) 292-3478,39.3658396,-121.0368007
"COMMUNITY HEALTH CENTERS OF THE CENTRAL COAST, INC.",NIPOMO,CA,"COMMUNITY HEALTH CENTERS OF THE CENTRAL COAST, INC., NIPOMO, CA",Community Health Centers of the Central Coast,"150 Tejas Pl, Nipomo, CA 93444, USA",(805) 929-3211,35.0269748,-120.4983513
"MISSION CITY COMMUNITY NETWORK, INC.",NORTH HILLS,CA,"MISSION CITY COMMUNITY NETWORK, INC., NORTH HILLS, CA",Mission City Community Network - North Hills,"15206 Parthenia St, North Hills, CA 91343, USA",(818) 895-3100,34.22799,-118.463537
MARIN COMMUNITY CLINIC,NOVATO,CA,"MARIN COMMUNITY CLINIC, NOVATO, CA",Marin Community Clinics,"6100 Redwood Blvd, Novato, CA 94945, USA",(415) 448-1500,38.09649,-122.563088
"ALAMEDA, COUNTY OF",OAKLAND,CA,"ALAMEDA, COUNTY OF, OAKLAND, CA",Oakland,"Oakland, CA, USA",,37.8043514,-122.2711639
ASIAN HEALTH SERVICES,OAKLAND,CA,"ASIAN HEALTH SERVICES, OAKLAND, CA",Asian Health Services,"101 8th St, Oakland, CA 94607, USA",(510) 986-6800,37.7967178,-122.266142
CHILDREN'S HOSPITAL & RESEARCH CENTER AT OAKLAND,OAKLAND,CA,"CHILDREN'S HOSPITAL & RESEARCH CENTER AT OAKLAND, OAKLAND, CA",Children's Pavilion,"4720 N Clarendon Ave, Chicago, IL 60640, USA",(773) 878-9700,41.9679578,-87.6503094
"LA CLINICA DE LA RAZA, INC.",OAKLAND,CA,"LA CLINICA DE LA RAZA, INC., OAKLAND, CA","La Clínica de La Raza, Inc.","1450 Fruitvale Ave 3rd Floor, Oakland, CA 94601, USA",(510) 535-4000,37.7781354,-122.2252958
"WEST OAKLAND HEALTH COUNCIL, THE",OAKLAND,CA,"WEST OAKLAND HEALTH COUNCIL, THE, OAKLAND, CA",West Oakland Health Council,"700 Adeline St, Oakland, CA 94607, USA",(510) 835-9610,37.804074,-122.2876304
"UNICARE COMMUNITY HEALTH CENTER, INC.",ONTARIO,CA,"UNICARE COMMUNITY HEALTH CENTER, INC., ONTARIO, CA","Unicare Community Health Center, Inc.","437 N Euclid Ave, Ontario, CA 91762, USA",(909) 988-2555,34.0680644,-117.651367
COUNTY OF VENTURA,OXNARD,CA,"COUNTY OF VENTURA, OXNARD, CA",Oxnard,"Oxnard, CA, USA",,34.1975048,-119.1770516
"CENTER FOR FAMILY HEALTH & EDUCATION, INC.",PANORAMA CITY,CA,"CENTER FOR FAMILY HEALTH & EDUCATION, INC., PANORAMA CITY, CA",Chicago Center For Family Health,"20 N Upper Wacker Dr # 1442, Chicago, IL 60606, USA",(312) 372-4731,41.8824825,-87.6375316
COMMUNITY MEDICINE INC.,PARAMOUNT,CA,"COMMUNITY MEDICINE INC., PARAMOUNT, CA",Sacred Heart Family Medical Clinic,"8540 Alondra Blvd, Paramount, CA 90723, USA",(562) 602-2508,33.8885261,-118.1499034
COMMUNITY HEALTH ALLIANCE OF PASADENA,PASADENA,CA,"COMMUNITY HEALTH ALLIANCE OF PASADENA, PASADENA, CA",Community Health Alliance of Pasadena,"3160 E Del Mar Blvd #100, Pasadena, CA 91107, USA",(626) 486-9729,34.1418516,-118.085342
"AXIS COMMUNITY HEALTH, INC.",PLEASANTON,CA,"AXIS COMMUNITY HEALTH, INC., PLEASANTON, CA",Axis Community Health - Medical Clinic,"5925 W Las Positas Blvd STE 100, Pleasanton, CA 94588, USA",(925) 462-1755,37.6838739,-121.8993277
POMONA COMMUNITY HEALTH CENTER,POMONA,CA,"POMONA COMMUNITY HEALTH CENTER, POMONA, CA",ParkTree Community Health Center,"1450 E Holt Ave, Pomona, CA 91767, USA",(909) 630-7927,34.0620173,-117.7213693
GREENVILLE RANCHERIA,RED BLUFF,CA,"GREENVILLE RANCHERIA, RED BLUFF, CA",Greenville Rancheria Tribal Health Center,"1425 Montgomery Rd, Red Bluff, CA 96080, USA",(530) 528-8600,40.1577798,-122.2254645
SHASTA COMMUNITY HEALTH CENTER,REDDING,CA,"SHASTA COMMUNITY HEALTH CENTER, REDDING, CA",Shasta Community Health Center,"1035 Placer St, Redding, CA 96001, USA",(530) 246-5710,40.5831391,-122.385033
"REDWOODS RURAL HEALTH CENTER, INCORPORATED",REDWAY,CA,"REDWOODS RURAL HEALTH CENTER, INCORPORATED, REDWAY, CA",Redwoods Rural Health Center,"101 West Coast Rd # B, Redway, CA 95560, USA",(707) 923-2783,40.1168397,-123.8132042
RIVERSIDE COUNTY HEALTH SYSTEM,RIVERSIDE,CA,"RIVERSIDE COUNTY HEALTH SYSTEM, RIVERSIDE, CA",Riverside County Public Health,"4065 County Cir Dr, Riverside, CA 92503, USA",(951) 358-5000,33.9166973,-117.4603309
HILL COUNTRY COMMUNITY CLINIC,ROUND MOUNTAIN,CA,"HILL COUNTRY COMMUNITY CLINIC, ROUND MOUNTAIN, CA",Hill Country Health and Wellness Center,"29632 CA-299, Round Mountain, CA 96084, USA",(530) 337-5750,40.8038298,-121.9405893
CARES COMMUNITY HEALTH,SACRAMENTO,CA,"CARES COMMUNITY HEALTH, SACRAMENTO, CA",Cares Community Health,"1500 21st St, Sacramento, CA 95811, USA",(916) 443-3299,38.5705611,-121.481415
"SACRAMENTO, COUNTY OF",SACRAMENTO,CA,"SACRAMENTO, COUNTY OF, SACRAMENTO, CA",Sacramento County,"Sacramento County, CA, USA",,38.47467,-121.3541631
CLINICA DE SALUD DEL VALLE DE SALINAS,SALINAS,CA,"CLINICA DE SALUD DEL VALLE DE SALINAS, SALINAS, CA",Clinica de Salud del Valle de Salinas,"219 N Sanborn Rd, Salinas, CA 93905, USA",(831) 757-1365,36.6773746,-121.6269874
"MONTEREY, COUNTY OF",SALINAS,CA,"MONTEREY, COUNTY OF, SALINAS, CA",Salinas,"Salinas, CA, USA",,36.6777372,-121.6555013
"SAN BERNARDINO, COUNTY OF",SAN BERNARDINO,CA,"SAN BERNARDINO, COUNTY OF, SAN BERNARDINO, CA",San Bernardino County,"San Bernardino County, CA, USA",,34.9592083,-116.419389
"FAMILY HEALTH CENTERS OF SAN DIEGO, INC.",SAN DIEGO,CA,"FAMILY HEALTH CENTERS OF SAN DIEGO, INC., SAN DIEGO, CA",Family Health Centers of San Diego,"823 Gateway Center Way, San Diego, CA 92102, USA",(619) 515-2300,32.7153006,-117.1134953
"LA MAESTRA FAMILY CLINIC, INC.",SAN DIEGO,CA,"LA MAESTRA FAMILY CLINIC, INC., SAN DIEGO, CA",La Maestra Community Health Centers,"4060 Fairmount Ave, San Diego, CA 92105, USA",(619) 255-9155,32.7505362,-117.101238
SAN DIEGO AMERICAN INDIAN HEALTH CENTER INC,SAN DIEGO,CA,"SAN DIEGO AMERICAN INDIAN HEALTH CENTER INC, SAN DIEGO, CA",San Diego American Indian Health Center,"2630 1st Ave, San Diego, CA 92103, USA",(619) 234-2158,32.7328616,-117.1642968
SAN DIEGO FAMILY CARE,SAN DIEGO,CA,"SAN DIEGO FAMILY CARE, SAN DIEGO, CA",,,,,
"ST. VINCENT DE PAUL VILLAGE, INC.",SAN DIEGO,CA,"ST. VINCENT DE PAUL VILLAGE, INC., SAN DIEGO, CA",St. Vincent de Paul Village,"1501 Imperial Ave, San Diego, CA 92101, USA",(619) 233-8500,32.7054786,-117.1505508
NORTHEAST VALLEY HEALTH CORPORATION,SAN FERNANDO,CA,"NORTHEAST VALLEY HEALTH CORPORATION, SAN FERNANDO, CA",Northeast Valley Health Corporation (San Fernando Health Center),"1600 San Fernando Rd, San Fernando, CA 91340, USA",(818) 365-8086,34.2889358,-118.4486988
SAN FERNANDO COMMUNITY HOSPITAL,SAN FERNANDO,CA,"SAN FERNANDO COMMUNITY HOSPITAL, SAN FERNANDO, CA",San Fernando Community Health Center,"732 Mott St suite 100-110, San Fernando, CA 91340, USA",(818) 963-5690,34.2766073,-118.4445797
"ASIAN AND PACIFIC ISLANDER WELLNESS CENTER, INC.",SAN FRANCISCO,CA,"ASIAN AND PACIFIC ISLANDER WELLNESS CENTER, INC., SAN FRANCISCO, CA",Asian & Pacific Islander Wellness Center,"730 Polk St, San Francisco, CA 94109, USA",(415) 292-3400,37.7838223,-122.419095
MISSION AREA HEALTH ASSOCIATES,SAN FRANCISCO,CA,"MISSION AREA HEALTH ASSOCIATES, SAN FRANCISCO, CA",Mission Neighborhood Health Center,"240 Shotwell St, San Francisco, CA 94110, USA",(415) 552-3870,37.764599,-122.416586
NORTH EAST MEDICAL SERVICES,SAN FRANCISCO,CA,"NORTH EAST MEDICAL SERVICES, SAN FRANCISCO, CA",North East Medical Services (NEMS),"1520 Stockton St, San Francisco, CA 94133, USA",(415) 391-9686,37.7999473,-122.4087483
SAN FRANCISCO COMMUNITY CLINIC CONSORTIUM,SAN FRANCISCO,CA,"SAN FRANCISCO COMMUNITY CLINIC CONSORTIUM, SAN FRANCISCO, CA",San Francisco Community Clinic Consortium,"2720 Taylor St #430, San Francisco, CA 94133, USA",(415) 355-2222,37.807569,-122.415534
"SAN FRANCISCO MEDICAL CENTER OUTPATIENT IMPROVEMENT PROGRAMS, INCORPORATED",SAN FRANCISCO,CA,"SAN FRANCISCO MEDICAL CENTER OUTPATIENT IMPROVEMENT PROGRAMS, INCORPORATED, SAN FRANCISCO, CA",S F Medical Center Outpatient,"229 7th St, San Francisco, CA 94103, USA",(415) 552-5059,37.7776074,-122.4085452
HERALD CHRISTIAN HEALTH CENTER,SAN GABRIEL,CA,"HERALD CHRISTIAN HEALTH CENTER, SAN GABRIEL, CA",Herald Christian Health Center,"923 S San Gabriel Blvd, San Gabriel, CA 91776, USA",(626) 286-8700,34.0908169,-118.0910987
"VALLEY HEALTH TEAM, INC.",SAN JOAQUIN,CA,"VALLEY HEALTH TEAM, INC., SAN JOAQUIN, CA",Valley Health Team - San Joaquin Health Center,"21890 W Colorado Ave, San Joaquin, CA 93660, USA",(559) 693-2462,36.6052858,-120.1845224
"GARDNER FAMILY HEALTH NETWORK, INC.",SAN JOSE,CA,"GARDNER FAMILY HEALTH NETWORK, INC., SAN JOSE, CA",Gardner Family Health Network,"160 E Virginia St, San Jose, CA 95112, USA",(408) 287-6200,37.3256093,-121.8780346
INDIAN HEALTH CENTER OF SANTA CLARA VALLEY,SAN JOSE,CA,"INDIAN HEALTH CENTER OF SANTA CLARA VALLEY, SAN JOSE, CA",Indian Health Center of Santa Clara Valley,"1333 Meridian Ave, San Jose, CA 95125, USA",(408) 445-3400,37.3018257,-121.9140361
"SANTA CLARA, COUNTY OF",SAN JOSE,CA,"SANTA CLARA, COUNTY OF, SAN JOSE, CA",Santa Clara County,"Santa Clara County, CA, USA",,37.3336581,-121.8907041
DAVIS STREET COMMUNITY CENTER INC,SAN LEANDRO,CA,"DAVIS STREET COMMUNITY CENTER INC, SAN LEANDRO, CA",Davis Street Community Center,"3081 Teagarden St, San Leandro, CA 94577, USA",(510) 347-4620,37.7049834,-122.1535341
NORTH COUNTY HEALTH PROJECT INCORPORATED,SAN MARCOS,CA,"NORTH COUNTY HEALTH PROJECT INCORPORATED, SAN MARCOS, CA",TrueCare San Marcos,"150 Valpreda Rd, San Marcos, CA 92069, USA",(760) 736-6767,33.1404369,-117.1570355
"SAN MATEO, COUNTY OF",SAN MATEO,CA,"SAN MATEO, COUNTY OF, SAN MATEO, CA",San Mateo,"San Mateo, CA, USA",,37.5629917,-122.3255254
HARBOR COMMUNITY CLINIC,SAN PEDRO,CA,"HARBOR COMMUNITY CLINIC, SAN PEDRO, CA","Harbor Community Clinic - Natalie Rodriguez, ANP","593 W 6th St, San Pedro, CA 90731, USA",(310) 547-0202,33.7385174,-118.2898975
RITTER CENTER,SAN RAFAEL,CA,"RITTER CENTER, SAN RAFAEL, CA",Ritter Center,"16 Ritter St, San Rafael, CA 94901, USA",(415) 457-8182,37.9713799,-122.5252452
"CENTRO DE SALUD DE LA COMUNIDAD DE SAN YSIDRO, INC.",SAN YSIDRO,CA,"CENTRO DE SALUD DE LA COMUNIDAD DE SAN YSIDRO, INC., SAN YSIDRO, CA",San Ysidro Health Center,"4004 Beyer Blvd, San Ysidro, CA 92173, USA",(619) 662-4100,32.5587158,-117.0472107
"SERVE THE PEOPLE, INC.",SANTA ANA,CA,"SERVE THE PEOPLE, INC., SANTA ANA, CA",Serve the People Community Health Center,"1206 17th St #101, Santa Ana, CA 92701, USA",(714) 352-2911,33.7596805,-117.8540484
"SOUTHLAND INTEGRATED SERVICES, INC.",SANTA ANA,CA,"SOUTHLAND INTEGRATED SERVICES, INC., SANTA ANA, CA","Southland Integrated Services, Inc.","1618 W 1st St, Santa Ana, CA 92703, USA",(714) 620-7000,33.745113,-117.8903215
AMERICAN INDIAN HEALTH & SERVICES,SANTA BARBARA,CA,"AMERICAN INDIAN HEALTH & SERVICES, SANTA BARBARA, CA",American Indian Health Service of Chicago Inc,"4326 W Montrose Ave, Chicago, IL 60641, USA",(773) 883-9100,41.9609753,-87.7368015
SANTA BARBARA NEIGHBORHOOD CLINICS,SANTA BARBARA,CA,"SANTA BARBARA NEIGHBORHOOD CLINICS, SANTA BARBARA, CA",Santa Barbara Neighborhood Clinics,"Administrative Headquarters, 414 E Cota St, Santa Barbara, CA 93101, USA",(844) 594-0343,34.4221777,-119.6917871
"SANTA BARBARA, COUNTY OF",SANTA BARBARA,CA,"SANTA BARBARA, COUNTY OF, SANTA BARBARA, CA",Santa Barbara County,"Santa Barbara County, CA, USA",,34.4208321,-119.6982057
"SANTA CRUZ, COUNTY OF",SANTA CRUZ,CA,"SANTA CRUZ, COUNTY OF, SANTA CRUZ, CA",Santa Cruz County,"Santa Cruz County, CA, USA",,37.0453988,-121.9579578
WESTSIDE FAMILY HEALTH CENTER,SANTA MONICA,CA,"WESTSIDE FAMILY HEALTH CENTER, SANTA MONICA, CA",Westside Family Health Center,"1711 Ocean Park Blvd, Santa Monica, CA 90405, USA",(310) 450-2191,34.0127125,-118.466703
SANTA ROSA COMMUNITY HEALTH CENTERS,SANTA ROSA,CA,"SANTA ROSA COMMUNITY HEALTH CENTERS, SANTA ROSA, CA",Santa Rosa Community Health -- Dutton Campus,"1300 N Dutton Ave, Santa Rosa, CA 95401, USA",(707) 396-5151,38.4499212,-122.7329597
MARIN CITY HEALTH AND WELLNESS CENTER,SAUSALITO,CA,"MARIN CITY HEALTH AND WELLNESS CENTER, SAUSALITO, CA",Marin City Health & Wellness Center,"630 Drake Ave, Sausalito, CA 94965, USA",(415) 339-8813,37.872598,-122.514671
"INLAND BEHAVIORAL AND HEALTH SERVICES, INC.",SN BERNRDNO,CA,"INLAND BEHAVIORAL AND HEALTH SERVICES, INC., SN BERNRDNO, CA",Inland Behavioral & Health Services,"1963 N E St, San Bernardino, CA 92405, USA",(909) 881-6146,34.1332048,-117.2938577
SAC HEALTH SYSTEM,SN BERNRDNO,CA,"SAC HEALTH SYSTEM, SN BERNRDNO, CA",SAC Health System,"250 S G St, San Bernardino, CA 92410, USA",(909) 382-7100,34.0967158,-117.2988774
"COMMUNITY MEDICAL CENTERS, INC.",STOCKTON,CA,"COMMUNITY MEDICAL CENTERS, INC., STOCKTON, CA","Community Medical Centers, Inc.","1031 Waterloo Rd, Stockton, CA 95205, USA",(209) 940-5600,37.9674832,-121.2726982
"SAN JOAQUIN, COUNTY OF",STOCKTON,CA,"SAN JOAQUIN, COUNTY OF, STOCKTON, CA",San Joaquin County,"San Joaquin County, CA, USA",,37.9175935,-121.1710389
"TARZANA TREATMENT CENTER, INC.",TARZANA,CA,"TARZANA TREATMENT CENTER, INC., TARZANA, CA","Tarzana Treatment Center, Inc.","18646 W Oxnard St, Tarzana, CA 91356, USA",(818) 996-1051,34.1798,-118.5396449
SOUTH BAY FAMILY HEALTH CARE CENTER INC,TORRANCE,CA,"SOUTH BAY FAMILY HEALTH CARE CENTER INC, TORRANCE, CA",South Bay Family Healthcare Center,"23430 Hawthorne Blvd # 210, Torrance, CA 90505, USA",(310) 802-6177,33.8133727,-118.3492743
ALTURA CENTERS FOR HEALTH,TULARE,CA,"ALTURA CENTERS FOR HEALTH, TULARE, CA",Altura Centers for Health,"1101 N Cherry St, Tulare, CA 93274, USA",(559) 686-9097,36.2234423,-119.3380954
FAMILIES TOGETHER OF ORANGE COUNTY,TUSTIN,CA,"FAMILIES TOGETHER OF ORANGE COUNTY, TUSTIN, CA",Families Together of Orange County Community Health Center: Tustin,"661 W 1st Suite #G, Tustin, CA 92780, USA",(714) 665-9890,33.746017,-117.8312209
"HURTT FAMILY HEALTH CLINIC, INC.",TUSTIN,CA,"HURTT FAMILY HEALTH CLINIC, INC., TUSTIN, CA",Hurtt Family Health Clinic,"1 Hope Dr #0221, Tustin, CA 92782, USA",(714) 247-0300,33.7150453,-117.8321937
"MENDOCINO COMMUNITY HEALTH CLINIC, INC.",UKIAH,CA,"MENDOCINO COMMUNITY HEALTH CLINIC, INC., UKIAH, CA",MCHC Health Center,"333 Laws Ave, Ukiah, CA 95482, USA",(707) 468-1010,39.1275444,-123.2118316
TIBURCIO VASQUEZ HEALTH CENTER INCORPORATED,UNION CITY,CA,"TIBURCIO VASQUEZ HEALTH CENTER INCORPORATED, UNION CITY, CA",Tiburcio Vasquez Health Center,"33255 9th St, Union City, CA 94587, USA",(510) 471-5907,37.6026417,-122.026479
SAMUEL DIXON FAMILY HEALTH CEN,VALENCIA,CA,"SAMUEL DIXON FAMILY HEALTH CEN, VALENCIA, CA",Samuel Dixon Family Health Center,"25115 Avenue Stanford #A104, Valencia, CA 91355, USA",(661) 257-2339,34.4367925,-118.5755579
VENICE FAMILY CLINIC,VENICE,CA,"VENICE FAMILY CLINIC, VENICE, CA",Venice Family Clinic,"604 Rose Ave, Venice, CA 90291, USA",(310) 392-8636,33.9991486,-118.4715237
"CLINICAS DEL CAMINO REAL, INC.",VENTURA,CA,"CLINICAS DEL CAMINO REAL, INC., VENTURA, CA","Clinicas del Camino Real, Inc.","200 S Wells Rd, Ventura, CA 93004, USA",(805) 647-6322,34.2932106,-119.1593567
FAMILY HEALTHCARE NETWORK,VISALIA,CA,"FAMILY HEALTHCARE NETWORK, VISALIA, CA",Family HealthCare Network - Visalia School (Medical & Dental),"401 E School Ave, Visalia, CA 93291, USA",(877) 960-3426,36.3327506,-119.2886683
VISTA COMMUNITY CLINIC,VISTA,CA,"VISTA COMMUNITY CLINIC, VISTA, CA",Vista Community Clinic,"134 Grapevine Rd, Vista, CA 92083, USA",(760) 631-5000,33.1913605,-117.2754366
ELICA HEALTH CENTERS,W SACRAMENTO,CA,"ELICA HEALTH CENTERS, W SACRAMENTO, CA",Elica Health Centers - 15th Street,"155 15th St, West Sacramento, CA 95691, USA",(916) 454-2345,38.5708433,-121.525977
SALUD PARA LA GENTE,WATSONVILLE,CA,"SALUD PARA LA GENTE, WATSONVILLE, CA",Salud Para La Gente,"204 E Beach St, Watsonville, CA 95076, USA",(831) 728-0222,36.911946,-121.753841
EAST VALLEY COMMUNITY HEALTH CENTER INC,WEST COVINA,CA,"EAST VALLEY COMMUNITY HEALTH CENTER INC, WEST COVINA, CA",East Valley Community Health Center,"420 S Glendora Ave, West Covina, CA 91790, USA",(626) 919-5724,34.0673027,-117.9249457
WILMINGTON COMMUNITY CLINIC,WILMINGTON,CA,"WILMINGTON COMMUNITY CLINIC, WILMINGTON, CA",Wilmington Community Clinic,"1009 N Avalon Blvd, Wilmington, CA 90744, USA",(310) 549-5760,33.783189,-118.262992
"WINTERS HEALTHCARE FOUNDATION, INC.",WINTERS,CA,"WINTERS HEALTHCARE FOUNDATION, INC., WINTERS, CA",Winters Healthcare Foundation,"310 Main St, Winters, CA 95694, USA",(530) 795-5200,38.5199374,-121.9734289
AMPLA HEALTH,YUBA CITY,CA,"AMPLA HEALTH, YUBA CITY, CA",Ampla Health - Yuba City Medical,"1000 Sutter St, Yuba City, CA 95991, USA",(530) 673-9420,39.1449336,-121.6133571
"VALLEY WIDE HEALTH SYSTEMS, INC.",ALAMOSA,CO,"VALLEY WIDE HEALTH SYSTEMS, INC., ALAMOSA, CO","Administrative Services: Valley-Wide Health Systems, Inc.","128 Market St, Alamosa, CO 81101, USA",(833) 350-1113,37.4746665,-105.8904266
"REGENTS OF THE UNIVERSITY OF COLORADO, THE",AURORA,CO,"REGENTS OF THE UNIVERSITY OF COLORADO, THE, AURORA, CO",University of Colorado Board of Regents,"1800 Grant St UNIT 800, Denver, CO 80203, USA",(303) 860-5600,39.7452143,-104.9831072
PEAK VISTA COMMUNITY HEALTH CENTERS,COLORADO SPGS,CO,"PEAK VISTA COMMUNITY HEALTH CENTERS, COLORADO SPGS, CO",Peak Vista Community Health Centers at Academy,"3207 N Academy Blvd Suite 3100 & 3500, Colorado Springs, CO 80917, USA",(719) 632-5700,38.8783252,-104.756287
"COLORADO COALITION FOR THE HOMELESS, THE",DENVER,CO,"COLORADO COALITION FOR THE HOMELESS, THE, DENVER, CO",Colorado Coalition for the Homeless,"2111 Champa St, Denver, CO 80205, USA",(303) 293-2217,39.7515866,-104.9877763
DENVER HEALTH AND HOSPITALS AUTHORITY,DENVER,CO,"DENVER HEALTH AND HOSPITALS AUTHORITY, DENVER, CO",Denver Health,"777 Bannock St, Denver, CO 80204, USA",(303) 436-6000,39.7279895,-104.9913193
LA CLINICA TEPEYAC INC,DENVER,CO,"LA CLINICA TEPEYAC INC, DENVER, CO",Clinica Tepeyac,"5075 Lincoln St, Denver, CO 80216, USA",(303) 458-5302,39.7886192,-104.9867107
"METRO COMMUNITY PROVIDER NETWORK, INC.",ENGLEWOOD,CO,"METRO COMMUNITY PROVIDER NETWORK, INC., ENGLEWOOD, CO",Metro Community Provider Network,"3515 S Delaware St, Englewood, CO 80110, USA",(303) 360-6276,39.6527333,-104.9927257
SUNRISE COMMUNITY HEALTH,EVANS,CO,"SUNRISE COMMUNITY HEALTH, EVANS, CO",Sunrise Community Health,"2930 11th Ave, Evans, CO 80620, USA",(970) 352-0048,40.388399,-104.6926325
"PLAN DE SALUD DEL VALLE, INC.",FORT LUPTON,CO,"PLAN DE SALUD DEL VALLE, INC., FORT LUPTON, CO",Salud Family Health Centers Administration Building,"203 S Rollie Ave, Fort Lupton, CO 80621, USA",(303) 892-6401,40.0776228,-104.8058285
"SUMMIT COMMUNITY CARE CLINIC, INC.",FRISCO,CO,"SUMMIT COMMUNITY CARE CLINIC, INC., FRISCO, CO",Summit Community Care Clinic,"360 Peak One Drive Suite #100 & Suite # 325 POB 4337, Frisco, CO 80443, USA",(970) 668-4040,39.5702044,-106.0760504
MOUNTAIN FAMILY HEALTH CENTERS,GLENWOOD SPGS,CO,"MOUNTAIN FAMILY HEALTH CENTERS, GLENWOOD SPGS, CO",Mountain Family Health Centers - Glenwood Springs Integrated Health Center,"1905 Blake Ave, Glenwood Springs, CO 81601, USA",(970) 945-2840,39.5323651,-107.3232711
CLINICA CAMPESINA FAMILY HEALTH SERVICES,LAFAYETTE,CO,"CLINICA CAMPESINA FAMILY HEALTH SERVICES, LAFAYETTE, CO",Clinica Family Health,"1735 S Public Rd, Lafayette, CO 80026, USA",(303) 650-4460,39.9825977,-105.0910303
"OPTIMUS HEALTH CARE, INC.",BRIDGEPORT,CT,"OPTIMUS HEALTH CARE, INC., BRIDGEPORT, CT",Optimus health care,"3715 Main St, Bridgeport, CT 06606, USA",(203) 696-3260,41.2116978,-73.2103596
"SOUTHWEST COMMUNITY HEALTH CENTER, INC.",BRIDGEPORT,CT,"SOUTHWEST COMMUNITY HEALTH CENTER, INC., BRIDGEPORT, CT",Southwest Community Health Center,"1046 Fairfield Ave, Bridgeport, CT 06605, USA",(203) 330-6000,41.17437,-73.2045149
"CONNECTICUT INSTITUTE FOR COMMUNITIES, INC.",DANBURY,CT,"CONNECTICUT INSTITUTE FOR COMMUNITIES, INC., DANBURY, CT",Connecticut Institute For Communities (CIFC) - Central Business Office,"120 Main St 4th floor, Danbury, CT 06810, USA",(203) 743-9760,41.3919011,-73.4499032
"FIRST CHOICE HEALTH CENTERS, INC.",EAST HARTFORD,CT,"FIRST CHOICE HEALTH CENTERS, INC., EAST HARTFORD, CT",First Choice Health Centers,"809 Main St, East Hartford, CT 06108, USA",(860) 528-1359,41.7684555,-72.6449966
FAMILY CENTERS INC.,GREENWICH,CT,"FAMILY CENTERS INC., GREENWICH, CT",Family Centers Health Care,"111 Wilbur Peck Ct, Greenwich, CT 06830, USA",(203) 717-1760,41.0250244,-73.6185989
"CHARTER OAK HEALTH CENTER, INC",HARTFORD,CT,"CHARTER OAK HEALTH CENTER, INC, HARTFORD, CT",Charter Oak Family Health Center,"21 Grand St, Hartford, CT 06106, USA",(860) 550-7500,41.7593292,-72.6855562
"COMMUNITY HEALTH SERVICES, INCORPORATED",HARTFORD,CT,"COMMUNITY HEALTH SERVICES, INCORPORATED, HARTFORD, CT",Community Health Services,"500 Albany Ave, Hartford, CT 06120, USA",(860) 249-9625,41.7779836,-72.6847573
"COMMUNITY HEALTH CENTER, INCORPORATED",MIDDLETOWN,CT,"COMMUNITY HEALTH CENTER, INCORPORATED, MIDDLETOWN, CT","Community Health Center, Inc","675 Main St, Middletown, CT 06457, USA",(860) 347-6971,41.565097,-72.6528474
CORNELL SCOTT-HILL HEALTH CORPORATION,NEW HAVEN,CT,"CORNELL SCOTT-HILL HEALTH CORPORATION, NEW HAVEN, CT","Cornell Scott - Hill Health Center of 226 Dixwell Avenue New Haven, CT","226 Dixwell Ave, New Haven, CT 06511, USA",(203) 503-3000,41.3192024,-72.9345441
FAIR HAVEN COMMUNITY HEALTH CLINIC INC,NEW HAVEN,CT,"FAIR HAVEN COMMUNITY HEALTH CLINIC INC, NEW HAVEN, CT",Fair Haven Community Health Care,"50 Grand Ave, New Haven, CT 06513, USA",(203) 777-7411,41.3092698,-72.8896999
"NORWALK COMMUNITY HEALTH CENTER, INC.",NORWALK,CT,"NORWALK COMMUNITY HEALTH CENTER, INC., NORWALK, CT",Norwalk Community Health Center (NCHC),"120 Connecticut Ave, Norwalk, CT 06854, USA",(203) 851-1000,41.105916,-73.4281171
"STAYWELL HEALTH CARE, INC.",WATERBURY,CT,"STAYWELL HEALTH CARE, INC., WATERBURY, CT",StayWell Health Center,"80 Phoenix Ave, Waterbury, CT 06702, USA",(203) 756-8021,41.5575266,-73.0389892
"GENERATIONS FAMILY HEALTH CENTER, INC.",WILLIMANTIC,CT,"GENERATIONS FAMILY HEALTH CENTER, INC., WILLIMANTIC, CT",Generations Family Health Center,"40 Mansfield Ave, Willimantic, CT 06226, USA",(860) 450-7471,41.7155558,-72.2253471
"LA RED HEALTH CENTER, INC.",GEORGETOWN,DE,"LA RED HEALTH CENTER, INC., GEORGETOWN, DE",La Red Health Center,"21444 Carmean Way, Georgetown, DE 19947, USA",(302) 855-1233,38.6996842,-75.4048154
SOUTHBRIDGE MEDICAL ADVISORY COUNCIL INC,WILMINGTON,DE,"SOUTHBRIDGE MEDICAL ADVISORY COUNCIL INC, WILMINGTON, DE",Henrietta Johnson Medical Center: Thompson Nadine MD,"601 New Castle Ave, Wilmington, DE 19801, USA",(302) 655-6187,39.7275201,-75.5437994
"WESTSIDE FAMILY HEALTHCARE, INC.",WILMINGTON,DE,"WESTSIDE FAMILY HEALTHCARE, INC., WILMINGTON, DE",Westside Family Healthcare,"908 16th St B, Wilmington, DE 19802, USA",(302) 575-1414,39.7458426,-75.5344517
"BREAD FOR THE CITY, INC.",WASHINGTON,DC,"BREAD FOR THE CITY, INC., WASHINGTON, DC",Bread For the City,"1640 Good Hope Rd SE, Washington, DC 20020, USA",(202) 265-2400,38.866205,-76.9811
"COMMUNITY OF HOPE, INC.",WASHINGTON,DC,"COMMUNITY OF HOPE, INC., WASHINGTON, DC",Community of Hope,"4 Atlantic St SW, Washington, DC 20032, USA",(202) 407-7747,38.8311595,-77.0087077
"ELAINE ELLIS CENTER OF HEALTH, INC.",WASHINGTON,DC,"ELAINE ELLIS CENTER OF HEALTH, INC., WASHINGTON, DC",Elaine Ellis Center of Health,"1627 Kenilworth Avenue Northeast, Washington, DC 20019, USA",(202) 803-2340,38.9117325,-76.9339373
FAMILY AND MEDICAL COUNSELING SERVICE INC,WASHINGTON,DC,"FAMILY AND MEDICAL COUNSELING SERVICE INC, WASHINGTON, DC",Family and Medical Counseling Service Inc,"2041 Martin Luther King Jr Ave SE, Washington, DC 20020, USA",(202) 889-7900,38.8658935,-76.9898272
"LA CLINICA DEL PUEBLO, INC.",WASHINGTON,DC,"LA CLINICA DEL PUEBLO, INC., WASHINGTON, DC",La Clinica Del Pueblo,"2831 15th St NW, Washington, DC 20009, USA",(202) 462-4788,38.9258997,-77.0351636
"MARY'S CENTER FOR MATERNAL AND CHILD CARE, INC.",WASHINGTON,DC,"MARY'S CENTER FOR MATERNAL AND CHILD CARE, INC., WASHINGTON, DC",Mary's Center,"2333 Ontario Rd NW, Washington, DC 20009, USA",(202) 483-8196,38.9209842,-77.0398043
"UNITY HEALTH CARE, INC.",WASHINGTON,DC,"UNITY HEALTH CARE, INC., WASHINGTON, DC",Unity Health Care Inc,"4130 Hunt Pl NE, Washington, DC 20019, USA",(202) 388-8160,38.9006279,-76.9429305
CHUUK STATE DEPARTMENT OF HEALTH SERVICES,CHUUK,FM,"CHUUK STATE DEPARTMENT OF HEALTH SERVICES, CHUUK, FM",Chuuk State Project Management Office,"Weno, Chuuk, Federated States of Micronesia",330 3069,7.4528776,151.8454065
POHNPEI COMMUNITY HEALTH CENTRE,POHNPEI,FM,"POHNPEI COMMUNITY HEALTH CENTRE, POHNPEI, FM",Pohnpei Community Health Center,"Kolonia, Pohnpei 96941, Federated States of Micronesia",320 2438,6.9642614,158.2133147
YAP STATE DEPARTMENT OF HEALTH SERVICES,YAP,FM,"YAP STATE DEPARTMENT OF HEALTH SERVICES, YAP, FM",Yap Memorial Hospital,"Unnamed Road,, Colonia, Yap, Federated States of Micronesia",350 2115,9.523426,138.1253743
"GENESIS COMMUNITY HEALTH, INC.",BOYNTON BEACH,FL,"GENESIS COMMUNITY HEALTH, INC., BOYNTON BEACH, FL",Genesis Community Health: Boynton Beach Medical,"709 South S Federal Hwy Suite 3, Boynton Beach, FL 33435, USA",(561) 735-6553,26.5214308,-80.058251
"PINELLAS, COUNTY OF",CLEARWATER,FL,"PINELLAS, COUNTY OF, CLEARWATER, FL",Clearwater,"Clearwater, FL, USA",,27.9658533,-82.8001026
"COMMUNITY HEALTH SOUTH FLORIDA, INC.",CUTLER BAY,FL,"COMMUNITY HEALTH SOUTH FLORIDA, INC., CUTLER BAY, FL",Community Health of South Florida Inc: Doris Ison Health Center,"10300 SW 216th St, Miami, FL 33190, USA",(305) 253-5100,25.5656019,-80.3577898
"PREMIER COMMUNITY HEALTHCARE GROUP, INC.",DADE CITY,FL,"PREMIER COMMUNITY HEALTHCARE GROUP, INC., DADE CITY, FL",Premier Community HealthCare Group,"37944 Church Ave, Dade City, FL 33525, USA",(352) 518-2000,28.3626964,-82.1878504
"HEALTH, FLORIDA DEPARTMENT OF",DEFUNIAK SPGS,FL,"HEALTH, FLORIDA DEPARTMENT OF, DEFUNIAK SPGS, FL",Walton County Public Health Department,"362 FL-83, Defuniak Springs, FL 32433, USA",(850) 892-8015,30.7260483,-86.1133325
"TREASURE COAST COMMUNITY HEALTH, INC.",FELLSMERE,FL,"TREASURE COAST COMMUNITY HEALTH, INC., FELLSMERE, FL",Treasure Coast Community Health (TCCH) Fellsmere,"12196 Co Rd 512, Fellsmere, FL 32948, USA",(772) 257-8224,27.7686272,-80.5767013
"FAMILY HEALTH CENTERS OF SOUTHWEST FLORIDA, INC.",FORT MYERS,FL,"FAMILY HEALTH CENTERS OF SOUTHWEST FLORIDA, INC., FORT MYERS, FL",Family Health Centers Of Southwest Fl,"2256 Heitman St, Fort Myers, FL 33901, USA",(239) 278-3600,26.6360087,-81.8709081
NORTH BROWARD HOSPITAL DISTRICT,FT LAUDERDALE,FL,"NORTH BROWARD HOSPITAL DISTRICT, FT LAUDERDALE, FL",North Broward Hospital District,"303 SE 17th St, Fort Lauderdale, FL 33316, USA",(954) 759-7400,26.101307,-80.1395363
"CITRUS HEALTH NETWORK, INC.",HIALEAH,FL,"CITRUS HEALTH NETWORK, INC., HIALEAH, FL","Citrus Health Network, Inc. 0600","4175 W 20th Ave, Hialeah, FL 33012, USA",(305) 825-0300,25.859739,-80.321635
"BROWARD COMMUNITY AND FAMILY HEALTH CENTERS, INC.",HOLLYWOOD,FL,"BROWARD COMMUNITY AND FAMILY HEALTH CENTERS, INC., HOLLYWOOD, FL",Broward Community and Family Health Centers,"5010-5012 Hollywood Blvd, Hollywood, FL 33021, USA",(954) 967-0028,26.009986,-80.194399
"COLLIER HEALTH SERVICES, INC.",IMMOKALEE,FL,"COLLIER HEALTH SERVICES, INC., IMMOKALEE, FL",Healthcare Network | Dental Care,"1454 Madison Ave W, Immokalee, FL 34142, USA",(239) 658-3000,26.4428234,-81.4320831
"AGAPE COMMUNITY HEALTH CENTER, INC.",JACKSONVILLE,FL,"AGAPE COMMUNITY HEALTH CENTER, INC., JACKSONVILLE, FL","Agape Community Health Center, Inc.","120 King St, Jacksonville, FL 32204, USA",(904) 760-4904,30.3290917,-81.6973579
"I.M. SULZBACHER CENTER FOR THE HOMELESS, INC.",JACKSONVILLE,FL,"I.M. SULZBACHER CENTER FOR THE HOMELESS, INC., JACKSONVILLE, FL",Sulzbacher Center,"611 E Adams St, Jacksonville, FL 32202, USA",(904) 359-0457,30.3268021,-81.6497038
"PRIMARY CARE MEDICAL SERVICES OF POINCIANA, INC.",KISSIMMEE,FL,"PRIMARY CARE MEDICAL SERVICES OF POINCIANA, INC., KISSIMMEE, FL",,,,,
"BANYAN COMMUNITY HEALTH CENTER, INC.",MIAMI,FL,"BANYAN COMMUNITY HEALTH CENTER, INC., MIAMI, FL",Banyan Health Systems,"3850 W Flagler St, Miami, FL 33134, USA",(305) 774-3300,25.771548,-80.2582562
"BORINQUEN HEALTH CARE CENTER, INC.",MIAMI,FL,"BORINQUEN HEALTH CARE CENTER, INC., MIAMI, FL",Borinquen Health Care Center,"10528 SW 8th St, Miami, FL 33174, USA",(305) 552-1201,25.7607384,-80.3667177
CAMILLUS HEALTH CONCERN INC,MIAMI,FL,"CAMILLUS HEALTH CONCERN INC, MIAMI, FL",Camillus Health Concern,"336 NW 5th St, Miami, FL 33128, USA",(305) 577-4840,25.7785411,-80.2004801
CARE RESOURCE COMMUNITY HEALTH CENTERS INCORPORATED,MIAMI,FL,"CARE RESOURCE COMMUNITY HEALTH CENTERS INCORPORATED, MIAMI, FL",Care Resource Community Health Centers,"3801 Biscayne Blvd 2nd floor, Miami, FL 33137, USA",(305) 576-1234,25.8126663,-80.1888706
"EMPOWER U, INCORPORATED",MIAMI,FL,"EMPOWER U, INCORPORATED, MIAMI, FL",Empower U Inc,"7900 NW 27th Ave Suite E12, Miami, FL 33147, USA",(786) 318-2337,25.8482694,-80.2438165
"JESSIE TRICE COMMUNITY HEALTH SYSTEM, INC.",MIAMI,FL,"JESSIE TRICE COMMUNITY HEALTH SYSTEM, INC., MIAMI, FL","Jessie Trice Community Health Center, Inc","5361 NW 22nd Ave, Miami, FL 33142, USA",(305) 637-6400,25.8239742,-80.2322423
MIAMI BEACH COMMUNITY HEALTH CENTER INC.,MIAMI BEACH,FL,"MIAMI BEACH COMMUNITY HEALTH CENTER INC., MIAMI BEACH, FL",Miami Beach Community Health Center,"1221 71st St, Miami Beach, FL 33141, USA",(305) 538-8835,25.8546303,-80.1320884
"CENTER FOR FAMILY AND CHILD ENRICHMENT, INC., THE",MIAMI GARDENS,FL,"CENTER FOR FAMILY AND CHILD ENRICHMENT, INC., THE, MIAMI GARDENS, FL","Center for Family and Child Enrichment, Inc. (CFCE)","1825 NW 167th St, Miami Gardens, FL 33056, USA",(305) 624-7450,25.9275741,-80.2310256
"HEART OF FLORIDA HEALTH CENTER, INC.",OCALA,FL,"HEART OF FLORIDA HEALTH CENTER, INC., OCALA, FL",Heart of Florida Health Center Central,"1025 SW 1st Ave, Ocala, FL 34471, USA",(352) 732-6599,29.1787634,-82.1373973
"HEALTH CARE CENTER FOR THE HOMELESS, INC.",ORLANDO,FL,"HEALTH CARE CENTER FOR THE HOMELESS, INC., ORLANDO, FL",Health Care Center for the Homeless,"232 Orange Blossom Trail, Orlando, FL 32805, USA",(407) 428-5751,28.5453723,-81.3978235
"RURAL HEALTH CARE, INCORPORATED",PALATKA,FL,"RURAL HEALTH CARE, INCORPORATED, PALATKA, FL",Rural Health Care Inc,"2503 President St, Palatka, FL 32177, USA",,29.6414198,-81.6551541
"MCR HEALTH, INC.",PALMETTO,FL,"MCR HEALTH, INC., PALMETTO, FL",MCR Health,"700 8th Ave W #101, Palmetto, FL 34221, USA",(941) 776-4000,27.5178734,-82.5726252
PANCARE OF FLORIDA INC,PANAMA CITY,FL,"PANCARE OF FLORIDA INC, PANAMA CITY, FL",PanCare Health,"403 E 11th St, Panama City, FL 32401, USA",(850) 767-3350,30.1680964,-85.6553364
"ESCAMBIA COMMUNITY CLINICS, INC.",PENSACOLA,FL,"ESCAMBIA COMMUNITY CLINICS, INC., PENSACOLA, FL","Escambia Community Clinics, Inc.","14 W Jordan St, Pensacola, FL 32501, USA",(850) 436-4630,30.4338425,-87.2211331
"NORTHEAST FLORIDA HEALTH SERVICES, INC.",PIERSON,FL,"NORTHEAST FLORIDA HEALTH SERVICES, INC., PIERSON, FL",Pierson Medical Services,"216 N Frederick St, Pierson, FL 32180, USA",(386) 749-2883,29.2446036,-81.4593398
"SUNCOAST COMMUNITY HEALTH CENTERS, INC.",RUSKIN,FL,"SUNCOAST COMMUNITY HEALTH CENTERS, INC., RUSKIN, FL",Ruskin Health Center - Suncoast Community Health Centers,"2814 14th Ave SE, Ruskin, FL 33570, USA",(813) 653-6100,27.7065186,-82.3948005
"COMMUNITY HEALTH CENTERS OF PINELLAS, INC.",SAINT PETERSBURG,FL,"COMMUNITY HEALTH CENTERS OF PINELLAS, INC., SAINT PETERSBURG, FL","Community Health Centers of Pinellas, Inc.","1344 22nd St S, St. Petersburg, FL 33712, USA",(727) 824-8181,27.7569067,-82.662824
"CENTRAL FLORIDA FAMILY HEALTH CENTER, INC.",SANFORD,FL,"CENTRAL FLORIDA FAMILY HEALTH CENTER, INC., SANFORD, FL",True Health - Sanford,"4930 E Lake Mary Blvd, Sanford, FL 32771, USA",(407) 322-8645,28.792292,-81.2135364
"PROJECT HEALTH, INC.",SUMTERVILLE,FL,"PROJECT HEALTH, INC., SUMTERVILLE, FL",Langley Health Services,"1389 US-301, Sumterville, FL 33585, USA",(352) 793-5900,28.7362065,-82.0675312
"BOND COMMUNITY HEALTH CENTER, INC.",TALLAHASSEE,FL,"BOND COMMUNITY HEALTH CENTER, INC., TALLAHASSEE, FL",Bond Community Health Center Inc.,"1720 S Gadsden St, Tallahassee, FL 32301, USA",(850) 576-4073,30.4253402,-84.278648
NEIGHBORHOOD MEDICAL CENTER INC.,TALLAHASSEE,FL,"NEIGHBORHOOD MEDICAL CENTER INC., TALLAHASSEE, FL",Neighborhood Medical Center,"872 W Orange Ave, Tallahassee, FL 32310, USA",(850) 300-7262,30.4130947,-84.2968116
"NORTH FLORIDA MEDICAL CENTERS, INC.",TALLAHASSEE,FL,"NORTH FLORIDA MEDICAL CENTERS, INC., TALLAHASSEE, FL",North Florida Medical Center,"2804 Remington Green Cir, Tallahassee, FL 32308, USA",(850) 385-4494,30.4921504,-84.2440242
"TAMPA FAMILY HEALTH CENTERS, INC.",TAMPA,FL,"TAMPA FAMILY HEALTH CENTERS, INC., TAMPA, FL",Tampa Family Health Centers,"7814 N Dale Mabry Hwy, Tampa, FL 33614, USA",(813) 405-3939,28.0187985,-82.5058309
TRENTON MEDICAL CENTER INC,TRENTON,FL,"TRENTON MEDICAL CENTER INC, TRENTON, FL",Palms Medical Group,"911 S Main St, Trenton, FL 32693, USA",(352) 463-2374,29.6074539,-82.8188522
"FLORIDA COMMUNITY HEALTH CENTERS, INC.",WEST PALM BEACH,FL,"FLORIDA COMMUNITY HEALTH CENTERS, INC., WEST PALM BEACH, FL",Florida Community Health Center,"5827 Corporate Way, West Palm Beach, FL 33407, USA",(561) 844-9443,26.7630792,-80.0918595
FOUNDCARE INC.,WEST PALM BEACH,FL,"FOUNDCARE INC., WEST PALM BEACH, FL","FoundCare, Inc.","2330 S Congress Ave, West Palm Beach, FL 33406, USA",(561) 432-5849,26.6417899,-80.087844
HEALTH CARE DISTRICT OF PALM BEACH COUNTY,WEST PALM BEACH,FL,"HEALTH CARE DISTRICT OF PALM BEACH COUNTY, WEST PALM BEACH, FL",Health Care District of Palm Beach County Main Office,"1515 N Flagler Dr #101, West Palm Beach, FL 33401, USA",(561) 659-1270,26.726456,-80.051135
"COMMUNITY HEALTH CENTERS, INC.",WINTER GARDEN,FL,"COMMUNITY HEALTH CENTERS, INC., WINTER GARDEN, FL",Community Health Centers,"13275 W Colonial Dr, Winter Garden, FL 34787, USA",(407) 905-8827,28.552386,-81.5796116
"CENTRAL FLORIDA HEALTH CARE, INC.",WINTER HAVEN,FL,"CENTRAL FLORIDA HEALTH CARE, INC., WINTER HAVEN, FL",Central Florida Health Care - Winter Haven,"1514 1st St N, Winter Haven, FL 33881, USA",(866) 234-8534,28.0375838,-81.7264073
"ALBANY AREA PRIMARY HEALTH CARE, INC",ALBANY,GA,"ALBANY AREA PRIMARY HEALTH CARE, INC, ALBANY, GA",Albany Area Primary Health Care,"204 N Westover Blvd, Albany, GA 31707, USA",(229) 888-6559,31.5916747,-84.218789
ATHENS NEIGHBORHOOD HEALTH CENTER,ATHENS,GA,"ATHENS NEIGHBORHOOD HEALTH CENTER, ATHENS, GA",Athens Neighborhood Health Center - East,"402 McKinley Dr, Athens, GA 30601, USA",(706) 543-1145,33.9588916,-83.3552597
"CENTER FOR PAN ASIAN COMMUNITY SERVICES, INC.",ATLANTA,GA,"CENTER FOR PAN ASIAN COMMUNITY SERVICES, INC., ATLANTA, GA",Center for Pan Asian Community Services,"3510 Shallowford Rd, Atlanta, GA 30341, USA",(770) 936-0969,33.89148,-84.2866626
"COMMUNITY HEALTH, GEORGIA DEPT OF",ATLANTA,GA,"COMMUNITY HEALTH, GEORGIA DEPT OF, ATLANTA, GA",Georgia Department of Community Health,"1249 Donald Lee Hollowell Pkwy NW, Atlanta, GA 30318, USA",(404) 656-4507,33.7737531,-84.4281838
"FAMILY HEALTH CENTERS OF GEORGIA, INC., THE",ATLANTA,GA,"FAMILY HEALTH CENTERS OF GEORGIA, INC., THE, ATLANTA, GA","The Family Health Centers of Georgia, Inc.","868 York Ave SW, Atlanta, GA 30310, USA",(404) 752-1400,33.736796,-84.416374
"HEALTH EDUCATION, ASSESSMENT AND LEADERSHIP, INC.",ATLANTA,GA,"HEALTH EDUCATION, ASSESSMENT AND LEADERSHIP, INC., ATLANTA, GA",HEALing Community Center at Neighborhood Union,"186 Sunset Ave NW, Atlanta, GA 30314, USA",(404) 477-1184,33.759625,-84.410418
"MERIDIAN EDUCATION RESOURCE GROUP, INC.",ATLANTA,GA,"MERIDIAN EDUCATION RESOURCE GROUP, INC., ATLANTA, GA","Whitefoord, Inc.","1353 George W Brumley Way SE, Atlanta, GA 30317, USA",(404) 523-2500,33.7523182,-84.343337
"PALMETTO HEALTH COUNCIL, INC",ATLANTA,GA,"PALMETTO HEALTH COUNCIL, INC, ATLANTA, GA",Palmetto Health Dental Center,"10 Richland Medical Park Cola, Atlanta, GA 30306, USA",(404) 434-6567,33.7845409,-84.3489467
SAINT JOSEPHS MERCY CARE SVCS,ATLANTA,GA,"SAINT JOSEPHS MERCY CARE SVCS, ATLANTA, GA",Mercy Care,"424 Decatur St SE, Atlanta, GA 30312, USA",(678) 843-8600,33.7509488,-84.3744307
"SOUTHSIDE MEDICAL CENTER, INC.",ATLANTA,GA,"SOUTHSIDE MEDICAL CENTER, INC., ATLANTA, GA",Southside Medical Center,"1046 Ridge Ave SW, Atlanta, GA 30315, USA",(404) 688-1350,33.7270457,-84.3918858
"NEIGHBORHOOD IMPROVEMENT PROJECT, INC.",AUGUSTA,GA,"NEIGHBORHOOD IMPROVEMENT PROJECT, INC., AUGUSTA, GA",Neighborhood Improvement project inc,"2467 Golden Camp Rd, Augusta, GA 30906, USA",(706) 790-4440,33.429071,-82.0511219
"PRIMARY CARE OF SOUTHWEST GEORGIA, INC.",BLAKELY,GA,"PRIMARY CARE OF SOUTHWEST GEORGIA, INC., BLAKELY, GA","Primary Care of Southwest GA, Inc.","360 College St, Blakely, GA 39823, USA",(229) 723-2660,31.3790776,-84.9384075
"COASTAL COMMUNITY HEALTH SERVICES, INC.",BRUNSWICK,GA,"COASTAL COMMUNITY HEALTH SERVICES, INC., BRUNSWICK, GA","Coastal Community Health Services, Inc","106 Shoppers Way, Brunswick, GA 31525, USA",(912) 275-8028,31.2195073,-81.4876793
"VALLEY HEALTHCARE SYSTEM, INC.",COLUMBUS,GA,"VALLEY HEALTHCARE SYSTEM, INC., COLUMBUS, GA",Valley Healthcare System,"1600 Fort Benning Rd, Columbus, GA 31903, USA",(706) 322-9599,32.4240963,-84.9373089
"PRIMARY HEALTH CARE CENTER OF DADE, INC.",LA FAYETTE,GA,"PRIMARY HEALTH CARE CENTER OF DADE, INC., LA FAYETTE, GA",Primary Healthcare Centers,"13570 N Main St, Trenton, GA 30752, USA",(706) 956-2665,34.8874974,-85.4992133
"DIVERSITY HEALTH CENTER, INC.",LUDOWICI,GA,"DIVERSITY HEALTH CENTER, INC., LUDOWICI, GA",Diversity Health Center,"Ludowici, GA 31316, USA",(912) 545-9398,31.7149786,-81.7486945
"FIRST CHOICE PRIMARY CARE, INC.",MACON,GA,"FIRST CHOICE PRIMARY CARE, INC., MACON, GA",First Choice Primary Care,"770 Walnut St, Macon, GA 31201, USA",(478) 787-4266,32.8404343,-83.6296189
"GOOD SAMARITAN HEALTH CENTER OF COBB, INC.",MARIETTA,GA,"GOOD SAMARITAN HEALTH CENTER OF COBB, INC., MARIETTA, GA",Good Samaritan Health Center Of Cobb,"1605 Roberta Dr, Marietta, GA 30008, USA",(770) 419-3120,33.913915,-84.556376
"FOUR CORNERS PRIMARY CARE CENTERS, INC.",NORCROSS,GA,"FOUR CORNERS PRIMARY CARE CENTERS, INC., NORCROSS, GA",Four Corners Primary Care Centr,"5300 Oakbrook Pkwy #130, Norcross, GA 30093, USA",(770) 806-2928,33.9187471,-84.1814629
"CARECONNECT HEALTH, INC.",RICHLAND,GA,"CARECONNECT HEALTH, INC., RICHLAND, GA","CareConnect Family Practice and Pediatrics, Richland","510 Alston St, Richland, GA 31825, USA",(229) 887-3324,32.0861377,-84.6606629
"CURTIS V COOPER PRIMARY HEALTH CARE, INC.",SAVANNAH,GA,"CURTIS V COOPER PRIMARY HEALTH CARE, INC., SAVANNAH, GA",Curtis V. Cooper Primary Health Care Inc,"106 E Broad St, Savannah, GA 31401, USA",(912) 527-1000,32.076217,-81.08459
J C LEWIS HEALTH CENTER,SAVANNAH,GA,"J C LEWIS HEALTH CENTER, SAVANNAH, GA",J.C. Lewis Primary Health Care Center,"5 Mall, Annex, Savannah, GA 31406, USA",(912) 495-8887,32.000769,-81.1190658
"OAKHURST MEDICAL CENTERS, INC.",STONE MOUNTAIN,GA,"OAKHURST MEDICAL CENTERS, INC., STONE MOUNTAIN, GA",MedCura Health formerly Oakhurst Medical Center,"5582 Memorial Dr, Stone Mountain, GA 30083, USA",(404) 298-8998,33.7994911,-84.212672
"EAST GEORGIA HEALTHCARE CENTER, INC.",SWAINSBORO,GA,"EAST GEORGIA HEALTHCARE CENTER, INC., SWAINSBORO, GA",East Georgia Healthcare Center,"215 N Coleman St, Swainsboro, GA 30401, USA",(478) 237-2638,32.5998643,-82.3344223
COMMUNITY HEALTH CARE SYSTEMS INC,WRIGHTSVILLE,GA,"COMMUNITY HEALTH CARE SYSTEMS INC, WRIGHTSVILLE, GA","Community Healthcare Systems, Inc.","2251 W Elm St, Wrightsville, GA 31096, USA",(478) 864-2600,32.7293952,-82.7300557
GOVERNMENT OF GUAM- DEPARTMENT OF ADMINISTRATION,HAGATNA,GU,"GOVERNMENT OF GUAM- DEPARTMENT OF ADMINISTRATION, HAGATNA, GU",Department of Administration,"212, Hagåtña, 96910, Guam",(671) 475-1101,13.473614,144.7508061
"BAY CLINIC, INC.",HILO,HI,"BAY CLINIC, INC., HILO, HI","Bay Clinic, Inc. - Hilo Family Health Center","1178 Kinoole St BLDG B, Hilo, HI 96720, USA",(808) 333-3600,19.7103035,-155.0797594
HAMAKUA HEALTH CENTER INC,HONOKAA,HI,"HAMAKUA HEALTH CENTER INC, HONOKAA, HI",Hamakua Health Center,"45-549 Plumeria St, Honokaa, HI 96727, USA",(808) 775-7204,20.0758589,-155.4700508
KALIHI PALAMA HEALTH CENTER,HONOLULU,HI,"KALIHI PALAMA HEALTH CENTER, HONOLULU, HI",Kalihi-Palama Health Center,"915 N King St, Honolulu, HI 96817, USA",(808) 848-1438,21.3228144,-157.8682726
KOKUA KALIHI VALLEY (COMPREHENSIVE FAMILY SERVICES),HONOLULU,HI,"KOKUA KALIHI VALLEY (COMPREHENSIVE FAMILY SERVICES), HONOLULU, HI",Kokua Kalihi Valley,"2239 N School St, Honolulu, HI 96819, USA",(808) 791-9400,21.3406929,-157.8745813
WAIKIKI HEALTH,HONOLULU,HI,"WAIKIKI HEALTH, HONOLULU, HI",Waikiki Health Center,"277 ʻŌhua Ave, Honolulu, HI 96815, USA",(808) 922-4787,21.275595,-157.8205107
KO`OLAULOA HEALTH CENTER,KAHUKU,HI,"KO`OLAULOA HEALTH CENTER, KAHUKU, HI",Ko`olauloa Health Center,"56-119 Pualalea St, Kahuku, HI 96731, USA",(808) 293-9231,21.6760208,-157.9535699
"MOLOKAI OHANA HEALTH CARE, INC",KAUNAKAKAI,HI,"MOLOKAI OHANA HEALTH CARE, INC, KAUNAKAKAI, HI",Molokai Community Health Center,"30 Oki Pl, Kaunakakai, HI 96748, USA",(808) 553-5038,21.0860191,-157.0192094
LANA'I COMMUNITY HEALTH CENTER,LANAI CITY,HI,"LANA'I COMMUNITY HEALTH CENTER, LANAI CITY, HI",Lāna'i Community Health Center,"333 6th St, Lanai City, HI 96763, USA",(808) 565-6919,20.8265134,-156.9211427
HO-OLA LAHUI HAWAII INC,LIHUE,HI,"HO-OLA LAHUI HAWAII INC, LIHUE, HI",Ho'ola Lahui Hawaii,"4491 Rice St, Lihue, HI 96766, USA",,21.975234,-159.3706572
"WAIANAE DISTRICT COMPREHENSIVE HEALTH AND HOSPITAL BOARD, INCORPORATED",WAIANAE,HI,"WAIANAE DISTRICT COMPREHENSIVE HEALTH AND HOSPITAL BOARD, INCORPORATED, WAIANAE, HI",Waianae Coast Comprehensive Health Center,"86-260 Farrington Hwy, Waianae, HI 96792, USA",(808) 697-3300,21.4299537,-158.1798276
"COMMUNITY CLINIC OF MAUI, INC.",WAILUKU,HI,"COMMUNITY CLINIC OF MAUI, INC., WAILUKU, HI",Community Clinic of Maui,"1881 Nani St, Wailuku, HI 96793, USA",(808) 871-7772,20.8886664,-156.4994157
WAIMANALO HEALTH CENTER,WAIMANALO,HI,"WAIMANALO HEALTH CENTER, WAIMANALO, HI",Waimānalo Health Center - Medical Services,"41-1295 Kalanianaʻole Hwy, Waimanalo, HI 96795, USA",(808) 259-7948,21.3470876,-157.7145294
FAMILY MEDICINE RESIDENCY OF IDAHO,BOISE,ID,"FAMILY MEDICINE RESIDENCY OF IDAHO, BOISE, ID",Family Medicine Residency of Idaho - Raymond Clinic,"777 N Raymond St, Boise, ID 83704, USA",(208) 514-2500,43.6114669,-116.264795
"DIRNE HEALTH CENTERS, INC.",COEUR D ALENE,ID,"DIRNE HEALTH CENTERS, INC., COEUR D ALENE, ID",Heritage Health,"1090 W Park Pl, Coeur d'Alene, ID 83814, USA",(208) 620-5250,47.6947904,-116.8010062
SHOSHONE-BANNOCK TRIBES OF THE FORT HALL RESERVATION OF IDAHO,FORT HALL,ID,"SHOSHONE-BANNOCK TRIBES OF THE FORT HALL RESERVATION OF IDAHO, FORT HALL, ID",Shoshone-Bannock Tribes,"306 Pima Dr, Fort Hall, ID 83203, USA",(208) 478-3700,43.0269859,-112.4336581
"GLENNS FERRY HEALTH CENTER, INC.",GLENNS FERRY,ID,"GLENNS FERRY HEALTH CENTER, INC., GLENNS FERRY, ID",Glenns Ferry Health Center,"486 W 1st Ave, Glenns Ferry, ID 83623, USA",(208) 366-7416,42.9540991,-115.3055128
"COMMUNITY HEALTH CLINICS, INC.",NAMPA,ID,"COMMUNITY HEALTH CLINICS, INC., NAMPA, ID",Terry Reilly Health Services - 16th St. Clinic,"223 16th Ave N, Nampa, ID 83687, USA",(208) 467-7654,43.5792411,-116.5521226
"VALLEY FAMILY HEALTH CARE, INC.",PAYETTE,ID,"VALLEY FAMILY HEALTH CARE, INC., PAYETTE, ID",Valley Family Health Care,"1441 NE 10th Ave, Payette, ID 83661, USA",(208) 642-9376,44.0580758,-116.9249811
BENEWAH MEDICAL CENTER,PLUMMER,ID,"BENEWAH MEDICAL CENTER, PLUMMER, ID",Marimn Health,"427 N 12th St, Plummer, ID 83851, USA",(208) 686-1931,47.3427318,-116.8938198
RURAL HEALTH INC,ANNA,IL,"RURAL HEALTH INC, ANNA, IL",Rural Health Inc,"513 N Main St, Anna, IL 62906, USA",(618) 833-4471,37.4634999,-89.2468527
"VNA HEALTH CARE, AN ILLINOIS NOT-FOR-PROFIT CORPORATION",AURORA,IL,"VNA HEALTH CARE, AN ILLINOIS NOT-FOR-PROFIT CORPORATION, AURORA, IL",VNA Health Care,"400 N Highland Ave, Aurora, IL 60506, USA",(630) 892-4355,41.7659245,-88.3297293
"COMMUNITY HEALTH & EMERGENCY SERVICES, INC",CAIRO,IL,"COMMUNITY HEALTH & EMERGENCY SERVICES, INC, CAIRO, IL",,,,,
"MACOUPIN, COUNTY OF",CARLINVILLE,IL,"MACOUPIN, COUNTY OF, CARLINVILLE, IL",Carlinville,"Carlinville, IL 62626, USA",,39.2797699,-89.8817662
SHAWNEE HEALTH SERVICE AND DEVELOPMENT CORPORATION,CARTERVILLE,IL,"SHAWNEE HEALTH SERVICE AND DEVELOPMENT CORPORATION, CARTERVILLE, IL",Shawnee Health Service Administration Offices,"109 California St, Carterville, IL 62918, USA",(618) 985-8221,37.7514721,-89.0765161
ACCESS COMMUNITY HEALTH NETWORK,CHICAGO,IL,"ACCESS COMMUNITY HEALTH NETWORK, CHICAGO, IL",ACCESS Rogers Park Family Health Center,"1555 W Howard St, Chicago, IL 60626, USA",(773) 764-7146,42.0191925,-87.6702578
"ALIVIO MEDICAL CENTER, INC",CHICAGO,IL,"ALIVIO MEDICAL CENTER, INC, CHICAGO, IL","ALIVIO MEDICAL CENTER, INC.","1450 W Cermak Rd, Chicago, IL 60608, USA",(773) 254-1400,41.8529688,-87.6645576
ASIAN HUMAN SERVICES FAMILY HEALTH CENTER,CHICAGO,IL,"ASIAN HUMAN SERVICES FAMILY HEALTH CENTER, CHICAGO, IL",Asian Human Services Family Health Center,"8800 Lockwood Ave, Skokie, IL 60077, USA",(847) 983-1400,42.0410917,-87.7595655
BELOVED COMMUNITY FAMILY WELLNESS CENTER,CHICAGO,IL,"BELOVED COMMUNITY FAMILY WELLNESS CENTER, CHICAGO, IL",Beloved Community Family Wellness Center,"6821 S Halsted St, Chicago, IL 60621, USA",(773) 651-3629,41.7699531,-87.6443974
"CHICAGO FAMILY HEALTH CENTER, INC.",CHICAGO,IL,"CHICAGO FAMILY HEALTH CENTER, INC., CHICAGO, IL",Chicago Family Health Center,"570 E 115th St, Chicago, IL 60628, USA",(773) 768-5000,41.6855879,-87.6084022
CHRISTIAN COMMUNITY HEALTH CENTER,CHICAGO,IL,"CHRISTIAN COMMUNITY HEALTH CENTER, CHICAGO, IL",Christian Community Health Center,"2815 W 5th Ave, Chicago, IL 60612, USA",(773) 826-1018,41.880723,-87.6969236
COMMUNITY HEALTH PARTNERSHIP OF ILLINOIS,CHICAGO,IL,"COMMUNITY HEALTH PARTNERSHIP OF ILLINOIS, CHICAGO, IL",Community Health Partnership,"205 W Randolph St #2222, Chicago, IL 60606, USA",(312) 795-0000,41.8841113,-87.6341723
"ERIE FAMILY HEALTH CENTER, INC.",CHICAGO,IL,"ERIE FAMILY HEALTH CENTER, INC., CHICAGO, IL",Erie Humboldt Park Health Center,"2750 W North Ave, Chicago, IL 60647, USA",(312) 666-3494,41.9104556,-87.69667
ESPERANZA HEALTH CENTERS,CHICAGO,IL,"ESPERANZA HEALTH CENTERS, CHICAGO, IL",Esperanza Health Centers California,"2001 S California Ave #100, Chicago, IL 60608, USA",(773) 584-6200,41.8546526,-87.6953253
"FRIEND FAMILY HEALTH CENTER, INC.",CHICAGO,IL,"FRIEND FAMILY HEALTH CENTER, INC., CHICAGO, IL",Friend Family Health Center Inc,"5635 S Pulaski Rd, Chicago, IL 60629, USA",(773) 585-3900,41.7901668,-87.7227607
HEARTLAND ALLIANCE HEALTH,CHICAGO,IL,"HEARTLAND ALLIANCE HEALTH, CHICAGO, IL",Heartland Alliance Health Englewood Health Center,"5501 S Halsted St, Chicago, IL 60621, USA",(773) 275-2586,41.7936606,-87.644904
HEARTLAND INTERNATIONAL HEALTH CENTERS,CHICAGO,IL,"HEARTLAND INTERNATIONAL HEALTH CENTERS, CHICAGO, IL",Heartland Health Center - Touhy,"2200 W Touhy Ave, Chicago, IL 60645, USA",(773) 751-1875,42.0124201,-87.6864137
HOWARD BROWN HEALTH CENTER,CHICAGO,IL,"HOWARD BROWN HEALTH CENTER, CHICAGO, IL",Howard Brown Health Clark,"6500 N Clark St, Chicago, IL 60626, USA",(773) 388-1600,42.0000343,-87.6714074
INNER CITY MUSLIM ACTION NETWORK,CHICAGO,IL,"INNER CITY MUSLIM ACTION NETWORK, CHICAGO, IL",Food Distribution Center - Iman: Inner-city Muslim Action Netwrok,"2744 W 63rd St, Chicago, IL 60629, USA",(773) 434-4626,41.7792569,-87.6927863
LAWNDALE CHRISTIAN HEALTH CENTER,CHICAGO,IL,"LAWNDALE CHRISTIAN HEALTH CENTER, CHICAGO, IL",Lawndale Christian Health Center,"3860 Ogden Ave, Chicago, IL 60623, USA",(872) 588-3000,41.8525899,-87.7218767
"NEAR NORTH HEALTH SERVICE CORPORATION, THE",CHICAGO,IL,"NEAR NORTH HEALTH SERVICE CORPORATION, THE, CHICAGO, IL",North Health Service Corporation,"1276 N Clybourn Ave, Chicago, IL 60610, USA",(312) 337-1073,41.9052536,-87.6422731
"PRIMECARE COMMUNITY HEALTH, INC.",CHICAGO,IL,"PRIMECARE COMMUNITY HEALTH, INC., CHICAGO, IL",Primecare Community Health Inc: Friedman Michael H MD,"1431 N Western Ave, Chicago, IL 60622, USA",(312) 633-5841,41.9075732,-87.6863618
"TCA HEALTH, INC. NFP",CHICAGO,IL,"TCA HEALTH, INC. NFP, CHICAGO, IL","TCA Health, Inc.","1029 E 130th St, Chicago, IL 60628, USA",(773) 995-6300,41.658754,-87.596743
UNIVERSITY OF ILLINOIS,CHICAGO,IL,"UNIVERSITY OF ILLINOIS, CHICAGO, IL",University of Illinois at Chicago,"1200 W Harrison St, Chicago, IL 60607, USA",(312) 996-7000,41.8696074,-87.6496218
COMMUNITY HEALTH IMPROVEMENT CENTER,DECATUR,IL,"COMMUNITY HEALTH IMPROVEMENT CENTER, DECATUR, IL",Community Health Improvemnt Center,"320 East Central Avenue, Decatur, IL 62521, USA",(217) 877-9117,39.8749248,-88.9570479
"SOUTHERN ILLINOIS HEALTH CARE FOUNDATION, INC.",E SAINT LOUIS,IL,"SOUTHERN ILLINOIS HEALTH CARE FOUNDATION, INC., E SAINT LOUIS, IL",SIHF Healthcare - East St. Louis - State Street,"2001 State St, East St Louis, IL 62205, USA",(618) 271-9191,38.6187985,-90.1325762
GREATER ELGIN FAMILY CARE CENTER,ELGIN,IL,"GREATER ELGIN FAMILY CARE CENTER, ELGIN, IL",Greater Elgin Family Care Center - Summit Health Center,"373 Summit St Ste 100, Elgin, IL 60120, USA",(847) 608-1344,42.0460785,-88.2778173
FAMILY CHRISTIAN HEALTH CENTER,HARVEY,IL,"FAMILY CHRISTIAN HEALTH CENTER, HARVEY, IL",Family Christian Health Center,"31 W 155th St, Harvey, IL 60426, USA",(708) 596-5177,41.6084339,-87.6579589
WILL COUNTY COMMUNITY HEALTH CENTER,JOLIET,IL,"WILL COUNTY COMMUNITY HEALTH CENTER, JOLIET, IL",Will County Community Health Center,"1106 Neal Ave, Joliet, IL 60433, USA",(815) 727-8480,41.5040487,-88.0679939
PILLARS COMMUNITY HEALTH,LA GRANGE,IL,"PILLARS COMMUNITY HEALTH, LA GRANGE, IL",Pillars Community Health - Medical Center,"110 Calendar Ave #2325, La Grange, IL 60525, USA",(708) 745-5277,41.8145444,-87.8714174
PCC COMMUNITY WELLNESS CENTER,OAK PARK,IL,"PCC COMMUNITY WELLNESS CENTER, OAK PARK, IL",PCC Community Wellness Center,"14 Lake St, Oak Park, IL 60302, USA",(708) 383-0113,41.8882936,-87.7756029
"AUNT MARTHA'S HEALTH AND WELLNESS, INC.",OLYMPIA FLDS,IL,"AUNT MARTHA'S HEALTH AND WELLNESS, INC., OLYMPIA FLDS, IL",Aunt Martha's,"19990 Governors Hwy, Olympia Fields, IL 60461, USA",(708) 747-7100,41.5267094,-87.7004965
CRUSADERS CENTRAL CLINIC ASSOCIATION,ROCKFORD,IL,"CRUSADERS CENTRAL CLINIC ASSOCIATION, ROCKFORD, IL",Crusader Community Health,"1200 W State St, Rockford, IL 61102, USA",(815) 490-1600,42.2751501,-89.1083121
SOUTHERN ILLINOIS UNIVERSITY,SPRINGFIELD,IL,"SOUTHERN ILLINOIS UNIVERSITY, SPRINGFIELD, IL",SIU School of Medicine,"801 N Rutledge St, Springfield, IL 62702, USA",(217) 545-8000,39.8100982,-89.6575947
"LAKE, COUNTY OF",WAUKEGAN,IL,"LAKE, COUNTY OF, WAUKEGAN, IL",Lake County,"Lake County, IL, USA",,42.3689363,-87.8271534
VALLEY PROFESSIONALS COMMUNITY HEALTH CENTER INC.,CLINTON,IN,"VALLEY PROFESSIONALS COMMUNITY HEALTH CENTER INC., CLINTON, IN",Valley Professionals Community Health Center,"777 S Main St #100, Clinton, IN 47842, USA",(765) 828-1003,39.653504,-87.3990775
"HEART CITY HEALTH CENTER, INC.",ELKHART,IN,"HEART CITY HEALTH CENTER, INC., ELKHART, IN",Heart City Health,"236 Simpson Ave, Elkhart, IN 46516, USA",(574) 293-0052,41.6897287,-85.9458635
"COMMUNITY HEALTHNET, INC",GARY,IN,"COMMUNITY HEALTHNET, INC, GARY, IN",Community HealthNet Health Centers,"1021 W 5th Ave, Gary, IN 46402, USA",(219) 880-1190,41.6017048,-87.3504715
"MAPLE CITY HEALTH CARE CENTER, INC.",GOSHEN,IN,"MAPLE CITY HEALTH CARE CENTER, INC., GOSHEN, IN",Maple City Health Care Center,"213 Middlebury St, Goshen, IN 46528, USA",(574) 534-3300,41.5932252,-85.8323934
INDIANA HEALTH CENTERS INCORPORATED,INDIANAPOLIS,IN,"INDIANA HEALTH CENTERS INCORPORATED, INDIANAPOLIS, IN","Indiana Health Centers, Inc.","8003 Castleway Dr, Indianapolis, IN 46250, USA",(317) 576-1335,39.9026018,-86.0545639
"RAPHAEL HEALTH CENTER, INC.",INDIANAPOLIS,IN,"RAPHAEL HEALTH CENTER, INC., INDIANAPOLIS, IN",Raphael Health Center,"401 E 34th St, Indianapolis, IN 46205, USA",(317) 926-1507,39.8174546,-86.1506215
"SHALOM HEALTH CARE CENTER, INC.",INDIANAPOLIS,IN,"SHALOM HEALTH CARE CENTER, INC., INDIANAPOLIS, IN",Shalom Health Care Center,"3400 Lafayette Rd # 200, Indianapolis, IN 46222, USA",(317) 291-7422,39.8175537,-86.2296634
THE HEALTH & HOSPITAL CORP OF MARION COUNTY,INDIANAPOLIS,IN,"THE HEALTH & HOSPITAL CORP OF MARION COUNTY, INDIANAPOLIS, IN","The Health Cares Exchange Initiative, Inc.","7100 N Ashland Ave, Chicago, IL 60626, USA",(773) 509-6402,42.0118035,-87.6703938
LIFESPRING INC.,JEFFERSONVLLE,IN,"LIFESPRING INC., JEFFERSONVLLE, IN",Lifespring,"460 Spring St, Jeffersonville, IN 47130, USA",(812) 913-5462,38.2742319,-85.7418831
SOUTHLAKE COMMUNITY MENTAL HEALTH CENTER INC,MERRILLVILLE,IN,"SOUTHLAKE COMMUNITY MENTAL HEALTH CENTER INC, MERRILLVILLE, IN",Regional Mental Health Center,"1441 E 84th Pl, Merrillville, IN 46410, USA",(219) 769-4005,41.4643844,-87.3202372
"OPEN DOOR HEALTH SERVICES, INC.",MUNCIE,IN,"OPEN DOOR HEALTH SERVICES, INC., MUNCIE, IN",Open Door Health Services,"333 S Madison St, Muncie, IN 47305, USA",(765) 286-7000,40.1913772,-85.3822754
ASPIRE HEALTH CENTER,NOBLESVILLE,IN,"ASPIRE HEALTH CENTER, NOBLESVILLE, IN",Aspire Indiana Health,"17840 Cumberland Rd, Noblesville, IN 46060, USA",(317) 773-6864,40.0485828,-85.9936277
"HEALTHLINC, INC.",VALPARAISO,IN,"HEALTHLINC, INC., VALPARAISO, IN",Healthlinc Inc: Ames Jay T MD,"1001 Sturdy Rd, Valparaiso, IN 46383, USA",(219) 462-7173,41.47708,-87.0375194
PORTER STARKE SERVICES INC,VALPARAISO,IN,"PORTER STARKE SERVICES INC, VALPARAISO, IN",Porter-Starke Services,"601 Wall St, Valparaiso, IN 46383, USA",(219) 531-3500,41.4894677,-87.053739
EASTERN IOWA HEALTH CENTER,CEDAR RAPIDS,IA,"EASTERN IOWA HEALTH CENTER, CEDAR RAPIDS, IA",Eastern Iowa Health Center Family Medicine | Pediatrics | Behavioral Health,"1201 3rd Ave SE, Cedar Rapids, IA 52403, USA",(319) 730-7300,41.9831202,-91.6555431
ALL CARE HEALTH CENTER,COUNCIL BLFS,IA,"ALL CARE HEALTH CENTER, COUNCIL BLFS, IA",All Care Health Center,"902 S 6th St, Council Bluffs, IA 51501, USA",(712) 325-1990,41.2530417,-95.8533951
"COMMUNITY HEALTH CARE, INC.",DAVENPORT,IA,"COMMUNITY HEALTH CARE, INC., DAVENPORT, IA",Community Health Care,"500 W River Dr, Davenport, IA 52801, USA",(563) 336-3041,41.5211039,-90.5806669
PROTEUS INC.,DES MOINES,IA,"PROTEUS INC., DES MOINES, IA","Proteus, Inc.","1221 Center St, Des Moines, IA 50309, USA",(515) 271-5306,41.5919332,-93.6334926
CRESCENT COMMUNITY HEALTH CENTER,DUBUQUE,IA,"CRESCENT COMMUNITY HEALTH CENTER, DUBUQUE, IA",Crescent Community Health Center,"1690 Elm St #300, Dubuque, IA 52001, USA",(563) 690-2850,42.5098413,-90.6647423
SIOUXLAND COMMUNITY HEALTH CENTER,SIOUX CITY,IA,"SIOUXLAND COMMUNITY HEALTH CENTER, SIOUX CITY, IA",Siouxland Community Health Center,"1021 Nebraska St, Sioux City, IA 51105, USA",(712) 252-2477,42.5011069,-96.4045235
PRIMARY HEALTH CARE INC,URBANDALE,IA,"PRIMARY HEALTH CARE INC, URBANDALE, IA",Primary Health Care Inc,"1200 University Ave, Des Moines, IA 50314, USA",(515) 248-1447,41.6002081,-93.633171
ATCHISON COMMUNITY HEALTH CLINIC,ATCHISON,KS,"ATCHISON COMMUNITY HEALTH CLINIC, ATCHISON, KS",Atchison Community Health Clinic,"1412 N 2nd St, Atchison, KS 66002, USA",(913) 367-4879,39.5791098,-95.1149055
"UNITED METHODIST WESTERN KANSAS MEXICAN-AMERICAN MINISTRIES, INC.",GARDEN CITY,KS,"UNITED METHODIST WESTERN KANSAS MEXICAN-AMERICAN MINISTRIES, INC., GARDEN CITY, KS",Mexican American Ministries,"310 E Walnut St # L05, Garden City, KS 67846, USA",(620) 260-9560,37.9705,-100.869039
TURNER HOUSE CLINIC INC.,KANSAS CITY,KS,"TURNER HOUSE CLINIC INC., KANSAS CITY, KS",Vibrant Health Wyandotte: Central,"21 N 12th St Ste 300, Kansas City, KS 66102, USA",(913) 342-2552,39.1038137,-94.6392286
"COMMUNITY HEALTH CENTER OF SOUTHEAST KANSAS, INC.",PITTSBURG,KS,"COMMUNITY HEALTH CENTER OF SOUTHEAST KANSAS, INC., PITTSBURG, KS",Community Health Center of Southeast Kansas,"3011 N Michigan St, Pittsburg, KS 66762, USA",(620) 231-9873,37.4373002,-94.6963317
"GRACEMED HEALTH CLINIC, INC.",WICHITA,KS,"GRACEMED HEALTH CLINIC, INC., WICHITA, KS",GraceMed Evergreen Family Clinic,"1125 W 26th St N, Wichita, KS 67204, USA",(316) 866-2000,37.7314467,-97.3499536
HEALTHCORE CLINIC INC,WICHITA,KS,"HEALTHCORE CLINIC INC, WICHITA, KS",HealthCore Clinic Inc,"2707 E 21st St N, Wichita, KS 67214, USA",,37.7224141,-97.3051435
"HUNTER HEALTH CLINIC INC, THE",WICHITA,KS,"HUNTER HEALTH CLINIC INC, THE, WICHITA, KS",Hunter Health,"2750 S Roosevelt St, Wichita, KS 67210, USA",(316) 262-2415,37.6448153,-97.290189
"A+ FAMILY HEALTHCARE, LLC",BROWNSVILLE,KY,"A+ FAMILY HEALTHCARE, LLC, BROWNSVILLE, KY",A+ Family Healthcare,"210 S Main St, Brownsville, KY 42210, USA",(270) 975-4050,37.1915206,-86.2649078
"CUMBERLAND FAMILY MEDICAL CENTER, INC.",BURKESVILLE,KY,"CUMBERLAND FAMILY MEDICAL CENTER, INC., BURKESVILLE, KY",Cumberland Family Medical Center,"360 Keen St, Burkesville, KY 42717, USA",(270) 864-2889,36.7852094,-85.3689784
"HEALTHFIRST BLUEGRASS, INC.",LEXINGTON,KY,"HEALTHFIRST BLUEGRASS, INC., LEXINGTON, KY",HealthFirst Bluegrass - Southland Drive Clinic,"496 Southland Dr, Lexington, KY 40503, USA",(859) 288-2425,38.0206451,-84.5290222
UNIVERSITY OF KENTUCKY,LEXINGTON,KY,"UNIVERSITY OF KENTUCKY, LEXINGTON, KY",University of Kentucky,"Lexington, KY 40506, USA",(859) 257-9000,38.0306511,-84.5039697
"PARK DUVALLE COMMUNITY HEALTH CENTER, INC.",LOUISVILLE,KY,"PARK DUVALLE COMMUNITY HEALTH CENTER, INC., LOUISVILLE, KY",Park Duvalle Community Health Center Inc,"3015 Wilson Ave, Louisville, KY 40211, USA",(502) 774-4401,38.227494,-85.8074203
"SHAWNEE CHRISTIAN HEALTHCARE CENTER, INC.",LOUISVILLE,KY,"SHAWNEE CHRISTIAN HEALTHCARE CENTER, INC., LOUISVILLE, KY",Shawnee Christian Healthcare Center,"234 Amy Ave, Louisville, KY 40212, USA",(502) 778-0001,38.2604676,-85.8136242
"BIG SANDY HEALTH CARE, INC.",PRESTONSBURG,KY,"BIG SANDY HEALTH CARE, INC., PRESTONSBURG, KY",Big Sandy Health Care Inc,"1709 KY-321, Prestonsburg, KY 41653, USA",(606) 886-8546,37.6940231,-82.7714647
"MOUNTAIN COMPREHENSIVE CARE CENTER, INC.",PRESTONSBURG,KY,"MOUNTAIN COMPREHENSIVE CARE CENTER, INC., PRESTONSBURG, KY",Mountain Comprehensive Care Center,"104 S Front St, Prestonsburg, KY 41653, USA",(606) 886-8572,37.6668282,-82.7748674
MOUNTAIN COMPREHENSIVE HEALTH CORPORATION,WHITESBURG,KY,"MOUNTAIN COMPREHENSIVE HEALTH CORPORATION, WHITESBURG, KY",Mountain Comprehensive Health Corporation: Wellness Center,"77 E Main St, Whitesburg, KY 41858, USA",(606) 632-3882,37.1174473,-82.8239414
"RAPIDES PRIMARY HEALTH CARE CENTER, INCORPORATED",ALEXANDRIA,LA,"RAPIDES PRIMARY HEALTH CARE CENTER, INCORPORATED, ALEXANDRIA, LA",Rapides Primary Health Care Center,"1217 Willow Glen River Rd, Alexandria, LA 71302, USA",(318) 487-4400,31.28596,-92.4263298
"JEFFERSON COMMUNITY HEALTH CARE CENTERS, INC",AVONDALE,LA,"JEFFERSON COMMUNITY HEALTH CARE CENTERS, INC, AVONDALE, LA",InclusivCare,"3932 US-90, Avondale, LA 70094, USA",(504) 436-2223,29.9119317,-90.2246018
"MOREHOUSE COMMUNITY MEDICAL CENTERS, INC.",BASTROP,LA,"MOREHOUSE COMMUNITY MEDICAL CENTERS, INC., BASTROP, LA","Morehouse Community Medical Centers, Inc.","518 Durham St, Bastrop, LA 71220, USA",(318) 283-8887,32.7737388,-91.9185028
"BATON ROUGE PRIMARY CARE COLLABORATIVE, INC.",BATON ROUGE,LA,"BATON ROUGE PRIMARY CARE COLLABORATIVE, INC., BATON ROUGE, LA","Baton Rouge Primary Care Collaborative, Inc.","2013 Central Rd, Baton Rouge, LA 70807, USA",(225) 774-1120,30.5359433,-91.1729864
CAPITOL CITY FAMILY HEALTH CENTER INC,BATON ROUGE,LA,"CAPITOL CITY FAMILY HEALTH CENTER INC, BATON ROUGE, LA",Capitol City Family Health Center,"4000 Gus Young Ave, Baton Rouge, LA 70802, USA",(225) 388-5861,30.4617557,-91.1491139
H I V/ A I D S ALLIANCE FOR REGION TWO INC,BATON ROUGE,LA,"H I V/ A I D S ALLIANCE FOR REGION TWO INC, BATON ROUGE, LA",HAART Clinic,"3849 North Blvd, Baton Rouge, LA 70806, USA",(225) 655-6422,30.4487165,-91.1503633
RKM PRIMARY CARE,CLINTON,LA,"RKM PRIMARY CARE, CLINTON, LA",RKM Primary Care,"11990 Jackson St, Clinton, LA 70722, USA",(225) 683-5292,30.865179,-91.0220642
"RICHLAND, PARISH OF",DELHI,LA,"RICHLAND, PARISH OF, DELHI, LA",Delhi,"Delhi, LA, USA",,32.4576421,-91.4931736
SOUTHEAST COMMUNITY HEALTH SYSTEMS,GREENSBURG,LA,"SOUTHEAST COMMUNITY HEALTH SYSTEMS, GREENSBURG, LA",St Helena Communuty Health Center,"490 Sitman, Greensburg, LA 70441, USA",(225) 306-2070,30.8302899,-90.6660021
"INNIS COMMUNITY HEALTH CENTER, INC.",INNIS,LA,"INNIS COMMUNITY HEALTH CENTER, INC., INNIS, LA",Innis Community Health Center,"6450 LA-1, Batchelor, LA 70715, USA",(225) 492-3775,30.8766211,-91.6799962
SWLA CENTER FOR HEALTH SERVICES,LAKE CHARLES,LA,"SWLA CENTER FOR HEALTH SERVICES, LAKE CHARLES, LA",SWLA Center for Health Services,"2000 Opelousas St, Lake Charles, LA 70601, USA",(337) 439-9983,30.2418583,-93.1917999
ACCESS HEALTH LOUISIANA,LULING,LA,"ACCESS HEALTH LOUISIANA, LULING, LA",St. Charles Community Health Center,"843 Milling Ave, Luling, LA 70070, USA",(985) 785-5800,29.9231539,-90.3695724
C A S S E DENTAL HEALTH INSTITUTE,MANSFIELD,LA,"C A S S E DENTAL HEALTH INSTITUTE, MANSFIELD, LA",Casse Community Health Institute,"907 Polk St, Mansfield, LA 71052, USA",(318) 688-3350,32.0376813,-93.7060222
PRIORITY HEALTH CARE,MARRERO,LA,"PRIORITY HEALTH CARE, MARRERO, LA",Priority Health Care,"4700 Wichers Dr #304, Marrero, LA 70072, USA",(504) 309-3262,29.8889766,-90.0972125
PRIMARY HEALTH SERVICES CENTER,MONROE,LA,"PRIMARY HEALTH SERVICES CENTER, MONROE, LA",Primary Health Services Center,"2913 Desiard St, Monroe, LA 71201, USA",(318) 388-1250,32.5198842,-92.0876198
"IBERIA COMPRHESIVE COM HEALTH CNTR, INC.",NEW IBERIA,LA,"IBERIA COMPRHESIVE COM HEALTH CNTR, INC., NEW IBERIA, LA","Iberia Comprehensive Community Health Center, Inc.","806 Jefferson Terrace, New Iberia, LA 70560, USA",(337) 365-4945,29.9883829,-91.810504
"BAPTIST COMMUNITY HEALTH SERVICES, INC.",NEW ORLEANS,LA,"BAPTIST COMMUNITY HEALTH SERVICES, INC., NEW ORLEANS, LA",Baptist Community Health Services- Lower 9th Ward- Family Practice,"1616 Caffin Ave, New Orleans, LA 70117, USA",(504) 533-4999,29.9669161,-90.0146467
COMMON GROUND HEALTH CLINIC,NEW ORLEANS,LA,"COMMON GROUND HEALTH CLINIC, NEW ORLEANS, LA",Common Ground Health Clinic,"3737 General De Gaulle Dr, New Orleans, LA 70114, USA",(504) 361-9800,29.9228778,-90.0184145
"EXCELTH, INCORPORATED",NEW ORLEANS,LA,"EXCELTH, INCORPORATED, NEW ORLEANS, LA","EXCELth, Incorporated","1515 Poydras St # 1070, New Orleans, LA 70112, USA",(504) 524-1210,29.952563,-90.0785
MARILLAC COMMUNITY HEALTH CENTERS,NEW ORLEANS,LA,"MARILLAC COMMUNITY HEALTH CENTERS, NEW ORLEANS, LA",DePaul Community Health Center - Carrollton,"3201 S Carrollton Ave, New Orleans, LA 70118, USA",(504) 207-3060,29.9617633,-90.1138815
MQVN COMMUNITY DEVELOPMENT CORP,NEW ORLEANS,LA,"MQVN COMMUNITY DEVELOPMENT CORP, NEW ORLEANS, LA",MQVN Community,"4626 Alcee Fortier Blvd # E, New Orleans, LA 70129, USA",(504) 255-9170,30.0370175,-89.912218
"NEW ORLEANS, CITY OF",NEW ORLEANS,LA,"NEW ORLEANS, CITY OF, NEW ORLEANS, LA",New Orleans,"New Orleans, LA, USA",,29.9510658,-90.0715323
"ST. THOMAS COMMUNITY HEALTH CENTER, INC.",NEW ORLEANS,LA,"ST. THOMAS COMMUNITY HEALTH CENTER, INC., NEW ORLEANS, LA",St. Thomas Community Health Center- Donald T. Erwin Center,"1936 Magazine St, New Orleans, LA 70130, USA",(504) 529-5558,29.9309647,-90.0744084
SOUTHWEST LOUISIANA PRIMARY HEALTH CARE CENTER INC,OPELOUSAS,LA,"SOUTHWEST LOUISIANA PRIMARY HEALTH CARE CENTER INC, OPELOUSAS, LA",Southwest Louisiana Primary Health Care Center,"8762 LA-182, Opelousas, LA 70570, USA",(337) 942-2005,30.5660639,-92.0729902
PLAQUEMINES PARISH HOSPITAL SERVICE DISTRICT NUMBER ONE,PORT SULPHUR,LA,"PLAQUEMINES PARISH HOSPITAL SERVICE DISTRICT NUMBER ONE, PORT SULPHUR, LA",Plaquemines Medical Center,"27136 LA-23, Port Sulphur, LA 70083, USA",(504) 564-3344,29.4947274,-89.7123508
ST GABRIEL HEALTH CLINIC INC,SAINT GABRIEL,LA,"ST GABRIEL HEALTH CLINIC INC, SAINT GABRIEL, LA",Saint Gabriel Health Clinic,"1707 Gardere Ln, Baton Rouge, LA 70820, USA",(225) 642-9676,30.3541636,-91.1271696
"DAVID RAINES COMMUNITY HEALTH CENTER, INC.",SHREVEPORT,LA,"DAVID RAINES COMMUNITY HEALTH CENTER, INC., SHREVEPORT, LA",David Raines Community Health Centers,"1625 David Raines Rd, Shreveport, LA 71107, USA",(318) 425-2252,32.5355378,-93.8281499
WINN COMMUNITY HEALTH CENTER,WINNFIELD,LA,"WINN COMMUNITY HEALTH CENTER, WINNFIELD, LA",Winn Community Health Center,"431 W Lafayette St, Winnfield, LA 71483, USA",(318) 648-0375,31.9247003,-92.6446081
PENOBSCOT COMMUNITY HEALTH CENTER,BANGOR,ME,"PENOBSCOT COMMUNITY HEALTH CENTER, BANGOR, ME",PENOBSCOT Community Health Center,"1012 Union St, Bangor, ME 04401, USA",(207) 404-8100,44.8158431,-68.8088913
FISH RIVER RURAL HEALTH,EAGLE LAKE,ME,"FISH RIVER RURAL HEALTH, EAGLE LAKE, ME",Fish River Rural Health,"10 Carter St, Eagle Lake, ME 04739, USA",(207) 444-5973,47.0364112,-68.5947036
"HEALTH ACCESS NETWORK, INC.",LINCOLN,ME,"HEALTH ACCESS NETWORK, INC., LINCOLN, ME",Health Access Network,"175 W Broadway, Lincoln, ME 04457, USA",(207) 794-6700,45.3605396,-68.5222778
SEBASTICOOK FAMILY DOCTORS,NEWPORT,ME,"SEBASTICOOK FAMILY DOCTORS, NEWPORT, ME",Sebasticook Regional Fam Med,"8 Main St A, Newport, ME 04953, USA",(207) 368-4292,44.8388015,-69.2882814
KATAHDIN VALLEY HEALTH CENTER,PATTEN,ME,"KATAHDIN VALLEY HEALTH CENTER, PATTEN, ME",Katahdin Valley Health Center,"30 Houlton St, Patten, ME 04765, USA",(866) 366-5842,45.9954654,-68.4460929
HEALTHREACH COMMUNITY HEALTH CENTERS,WATERVILLE,ME,"HEALTHREACH COMMUNITY HEALTH CENTERS, WATERVILLE, ME",HealthReach Community Health Centers,"10 Water St, Waterville, ME 04901, USA",(207) 872-5610,44.5461926,-69.6295021
MINISTRY OF HEALTH IN THE REPUBLIC OF THE MARSHALL ISLANDS,EBEYE,MH,"MINISTRY OF HEALTH IN THE REPUBLIC OF THE MARSHALL ISLANDS, EBEYE, MH",Ebeye,"Ebeye, Kwajalein Atoll 96970, RMI",,8.7814708,167.7373396
"BALTIMORE MEDICAL SYSTEM, INC.",BALTIMORE,MD,"BALTIMORE MEDICAL SYSTEM, INC., BALTIMORE, MD",Baltimore Medical System Inc,"3501 Sinclair Ln, Baltimore, MD 21213, USA",(410) 732-8800,39.3131386,-76.5685821
"CHASE BREXTON HEALTH SERVICES, INC",BALTIMORE,MD,"CHASE BREXTON HEALTH SERVICES, INC, BALTIMORE, MD",Chase Brexton Health Services,"1111 N Charles St, Baltimore, MD 21201, USA",(410) 837-2050,39.3024911,-76.6155438
"HEALTH CARE FOR THE HOMELESS, INC.",BALTIMORE,MD,"HEALTH CARE FOR THE HOMELESS, INC., BALTIMORE, MD",Health Care for the Homeless,"421 Fallsway, Baltimore, MD 21202, USA",(410) 837-5533,39.2938249,-76.6096183
PARK WEST HEALTH SYSTEMS INCORPORATED,BALTIMORE,MD,"PARK WEST HEALTH SYSTEMS INCORPORATED, BALTIMORE, MD",Park West Health System,"3319 W Belvedere Ave, Baltimore, MD 21215, USA",(410) 542-7800,39.3481245,-76.6768698
"TOTAL HEALTH CARE, INC.",BALTIMORE,MD,"TOTAL HEALTH CARE, INC., BALTIMORE, MD",Total Health Care - Mondawmin Mall Health Center,"2401 Liberty Heights Ave #111-113, Baltimore, MD 21215, USA",(410) 383-8300,39.3173802,-76.6539348
"MOBILE MEDICAL CARE, INC.",BETHESDA,MD,"MOBILE MEDICAL CARE, INC., BETHESDA, MD",Mobile Medical Care Inc,"9309 Old Georgetown Rd, Bethesda, MD 20814, USA",(301) 493-2400,39.0082446,-77.1126738
GREATER BADEN MEDICAL SERVICE INC,BRANDYWINE,MD,"GREATER BADEN MEDICAL SERVICE INC, BRANDYWINE, MD",Greater Baden Medical Services,"7450 Albert Rd, Brandywine, MD 20613, USA",(301) 888-2233,38.6707899,-76.87889
"FAMILY HEALTH CENTERS OF BALTIMORE, INC.",BROOKLYN,MD,"FAMILY HEALTH CENTERS OF BALTIMORE, INC., BROOKLYN, MD",FHCB Health System,"3540 S Hanover St, Brooklyn, MD 21225, USA",(410) 354-2000,39.2393386,-76.6092954
"CHOPTANK COMMUNITY HEALTH SYSTEM, INC.",DENTON,MD,"CHOPTANK COMMUNITY HEALTH SYSTEM, INC., DENTON, MD",Choptank Community Health System : Medical,"808 S 5th Ave, Denton, MD 21629, USA",(410) 479-2650,38.874606,-75.827782
"FREDERICK, CITY OF",FREDERICK,MD,"FREDERICK, CITY OF, FREDERICK, MD",Frederick,"Frederick, MD, USA",,39.4142688,-77.4105409
"WALNUT STREET COMMUNITY HEALTH CENTER, INC.",HAGERSTOWN,MD,"WALNUT STREET COMMUNITY HEALTH CENTER, INC., HAGERSTOWN, MD",Family Healthcare of Hagerstown,"201 S Cleveland Ave, Hagerstown, MD 21740, USA",(301) 745-3777,39.636134,-77.7110756
"COMMUNITY CLINIC, INC., THE",SILVER SPRING,MD,"COMMUNITY CLINIC, INC., THE, SILVER SPRING, MD",Community Clinic Inc,"8210 Dixon Ave # C, Silver Spring, MD 20910, USA",(301) 585-1250,38.9935928,-77.0278025
"BOSTON HEALTH CARE FOR THE HOMELESS PROGRAM, INC., THE",BOSTON,MA,"BOSTON HEALTH CARE FOR THE HOMELESS PROGRAM, INC., THE, BOSTON, MA",Boston Health Care for the Homeless Program,"780 Albany St, Boston, MA 02118, USA",(857) 654-1000,42.3337186,-71.0725726
EAST BOSTON NEIGHBORHOOD HEALTH CENTER CORPORATION,BOSTON,MA,"EAST BOSTON NEIGHBORHOOD HEALTH CENTER CORPORATION, BOSTON, MA",East Boston Neighborhood Health Center,"20 Maverick Square, Boston, MA 02128, USA",(617) 569-5800,42.3696944,-71.0395027
"FENWAY COMMUNITY HEALTH CENTER, INC.",BOSTON,MA,"FENWAY COMMUNITY HEALTH CENTER, INC., BOSTON, MA",Fenway Health,"1340 Boylston St, Boston, MA 02215, USA",(617) 267-0900,42.3440524,-71.0989642
"MATTAPAN COMMUNITY HEALTH CENTER, INC.",BOSTON,MA,"MATTAPAN COMMUNITY HEALTH CENTER, INC., BOSTON, MA",Mattapan Community Health Center,"1575 Blue Hill Avenue, Boston, MA 02126, USA",(617) 296-0061,42.2698366,-71.094151
"SOUTH BOSTON COMMUNITY HEALTH CENTER, INC.",BOSTON,MA,"SOUTH BOSTON COMMUNITY HEALTH CENTER, INC., BOSTON, MA",South Boston Community Health Center,"409 W Broadway, Boston, MA 02127, USA",(617) 269-7500,42.336849,-71.0482208
"SOUTH COVE COMMUNITY HEALTH CENTER, INC.",BOSTON,MA,"SOUTH COVE COMMUNITY HEALTH CENTER, INC., BOSTON, MA",South Cove Community Health Center,"885 Washington St, Boston, MA 02111, USA",(617) 482-7555,42.3480041,-71.064563
"CHARLES RIVER COMMUNITY HEALTH, INC.",BRIGHTON,MA,"CHARLES RIVER COMMUNITY HEALTH, INC., BRIGHTON, MA",Charles River Community Health,"Joseph M. Smith Building, 495 Western Ave, Brighton, MA 02135, USA",(617) 783-0500,42.3623832,-71.1439344
"BROCKTON NEIGHBORHOOD HEALTH CENTER, INC.",BROCKTON,MA,"BROCKTON NEIGHBORHOOD HEALTH CENTER, INC., BROCKTON, MA",Brockton Neighborhood Health,"231 Main St #302, Brockton, MA 02301, USA",(508) 587-0589,42.080999,-71.0205168
"DOTHOUSE HEALTH, INC.",DORCHESTER,MA,"DOTHOUSE HEALTH, INC., DORCHESTER, MA",DotHouse Health,"1353 Dorchester Ave, Dorchester, MA 02122, USA",(617) 288-3230,42.304408,-71.059316
HARVARD STREET NEIGHBORHOOD HEALTH CENTER INC,DORCHESTER,MA,"HARVARD STREET NEIGHBORHOOD HEALTH CENTER INC, DORCHESTER, MA",Harvard Street Neighborhood Health Center,"632 Blue Hill Avenue, Dorchester, MA 02121, USA",(617) 825-3400,42.3025051,-71.0851094
"UPHAMS CORNER HEALTH COMMITTEE, INC.",DORCHESTER,MA,"UPHAMS CORNER HEALTH COMMITTEE, INC., DORCHESTER, MA",Upham's Corner Health Center,"415 Columbia Rd, Boston, MA 02125, USA",(617) 287-8000,42.3119206,-71.0686823
"CODMAN SQUARE HEALTH CENTER, INC",DORCHESTR CTR,MA,"CODMAN SQUARE HEALTH CENTER, INC, DORCHESTR CTR, MA",Codman Square Health Center,"637 Washington St, Boston, MA 02124, USA",(617) 825-9660,42.2896042,-71.0720453
"COMMUNITY HEALTH PROGRAMS, INCORPORATED",GT BARRINGTON,MA,"COMMUNITY HEALTH PROGRAMS, INCORPORATED, GT BARRINGTON, MA",Community Health Programs Inc,"444 Stockbridge Rd, Great Barrington, MA 01230, USA",(413) 528-8580,42.2193394,-73.3426908
